     3.03           OBSERVATION DATA    M: Mixed            RINEX VERSION / TYPE
RTKCONV demo5 b33c                      20210524 112041 UTC PGM / RUN BY / DATE 
log: C:\Users\Ivan_PolyU_Dktp\Dropbox\HUAWEI Exp\20210521_  COMMENT             
format: RINEX                                               COMMENT             
                                                            MARKER NAME         
                                                            MARKER NUMBER       
                                                            MARKER TYPE         
                                                            OBSERVER / AGENCY   
                                                            REC # / TYPE / VERS 
                                                            ANT # / TYPE        
 -2418136.8695  5385860.7891  2405565.9777                  APPROX POSITION XYZ 
        0.0000        0.0000        0.0000                  ANTENNA: DELTA H/E/N
G    4 C1C L1C D1C S1C                                      SYS / # / OBS TYPES 
C    4 C2I L2I D2I S2I                                      SYS / # / OBS TYPES 
  2021     5    21     6    29    6.0010000     GPS         TIME OF FIRST OBS   
  2021     5    21     6    54   39.9990000     GPS         TIME OF LAST OBS    
G                                                           SYS / PHASE SHIFT   
C                                                           SYS / PHASE SHIFT   
  0                                                         GLONASS SLOT / FRQ #
 C1C    0.000 C1P    0.000 C2C    0.000 C2P    0.000        GLONASS COD/PHS/BIS 
                                                            END OF HEADER       
> 2021  5 21  6 29  6.0010000  0 12                     
G14  20618900.381 9                     -1252.533          24.000  
G28  20973494.006 9                       327.445          25.000  
G 6  22073820.103 4 115998707.75224       296.465          27.000  
C11  23508148.739 8 122413064.69735      -487.063          26.000  
C 8  36926612.751 9                     -1238.943          21.000  
C25  23676133.784 8                     -1596.810          26.000  
C10  36359745.603 9                      -361.104          22.000  
C13  36981984.682 9                      -867.673          22.000  
G17  22174698.852 9                      -114.581          26.000  
G30  24070510.540 9                     -3471.000          22.000  
G 2  24692089.861 9                      1077.761          25.000  
G19  22496321.215 4 118218945.58824       651.442          27.000  
> 2021  5 21  6 29  7.0010000  0 12                     
G14  20619138.524 9                     -1251.591          23.000  
G28  20973433.087 9                       326.339          25.000  
G 6  22073763.669 4 115998411.81024       296.056          27.000  
C11  23508242.133 8 122413551.90425      -486.792          26.000  
C 8  36926848.224 9                     -1242.524          21.000  
C25  23676438.500 8 123289399.23725     -1596.736          26.000  
C10  36359816.154 9                      -370.985          22.000  
C13  36982149.098 9                      -861.148          22.000  
G17  22174717.925 8 116528947.44835      -113.809          26.000  
G30  24071167.925 9                     -3471.000          21.000  
G 2  24691886.182 9                      1075.964          25.000  
G19  22496196.568 4 118218293.46914       652.463          27.000  
> 2021  5 21  6 29  8.0010000  0 11                     
G14  20619377.924 9                     -1252.916          24.000  
G28  20973371.348 9                       326.317          25.000  
G 6  22073710.463 4 115998115.22223       296.548          27.000  
C11  23508334.881 8 122414038.50625      -486.407          26.000  
C 8  36927083.313 9                     -1227.104          21.000  
C25  23676745.850 4 123290995.56025     -1596.484          26.000  
C10  36359884.908 9                      -358.523          21.000  
C13  36982317.074 9                      -866.984          22.000  
G17  22174738.412 4 116529061.81124      -114.398          27.000  
G 2  24691678.821 9                      1078.178          24.000  
G19  22496073.474 9                       652.439          27.000  
> 2021  5 21  6 29  9.0010000  0 11                     
G14  20619615.823 9                     -1254.326          24.000  
G28  20973310.028 9                       326.930          24.000  
G 6  22073651.359 4 115997817.69423       297.801          27.000  
C11  23508428.239 9                      -487.300          25.000  
C 8  36927319.572 9                     -1227.927          20.000  
C25  23677052.084 4 123292591.02924     -1595.145          26.000  
C10  36359954.762 9                      -364.693          21.000  
C13  36982483.584 9                      -866.300          21.000  
G17  22174758.357 4 116529176.15624      -114.594          27.000  
G 2  24691475.247 9                      1077.984          23.000  
G19  22495951.462 9                       653.345          26.000  
> 2021  5 21  6 29 10.0010000  0 11                     
G14  20619853.704 9                     -1270.375          23.000  
G28  20973248.726 9                       322.769          23.000  
G 6  22073593.651 9                       299.076          26.000  
C11  23508522.593 9                      -480.059          23.000  
C 8  36927556.162 9                     -1232.443          20.000  
C25  23677359.697 9                     -1595.067          26.000  
C10  36360024.388 9                      -352.527          21.000  
C13  36982648.122 9                      -867.326          21.000  
G17  22174779.577 8 116529252.62735      -114.797          26.000  
G 2  24691269.387 9                      1079.996          22.000  
G19  22495827.252 9                       654.351          25.000  
> 2021  5 21  6 29 11.0010000  0 11                     
G14  20620092.615 9                     -1260.500          24.000  
G28  20973186.673 9                       334.181          23.000  
G 6  22073538.334 8                       298.382          26.000  
C11  23508614.555 9                      -484.330          22.000  
C 8  36927794.654 9                     -1228.414          20.000  
C25  23677665.477 9                     -1594.659          26.000  
C10  36360094.206 9                      -356.267          20.000  
C13  36982813.376 9                      -865.487          21.000  
G17  22174801.302 4 116529365.76225      -112.543          26.000  
G 2  24691064.731 9                      1082.200          23.000  
G19  22495702.011 9                       656.323          26.000  
> 2021  5 21  6 29 12.0010000  0 12                     
G14  20620330.374 9                     -1257.481          25.000  
G28  20973126.050 9                       326.065          25.000  
G 6  22073483.349 8 115996937.56235       296.171          28.000  
C11  23508706.797 9                      -482.263          30.000  
C 8  36928032.326 9                     -1231.191          22.000  
C25  23677974.764 8 123297382.05434     -1598.149          29.000  
C10  36360163.885 9                      -357.955          22.000  
C13  36982980.915 9                      -870.484          23.000  
G17  22174827.844 8 116529476.91924      -109.893          31.000  
G30  24074444.552 9                     -3465.094          22.000  
G 2  24690858.609 9                      1076.364          24.000  
G19  22495577.452 8 118215054.33335       658.083          28.000  
> 2021  5 21  6 29 13.0010000  0 13                     
G14  20620570.035 9                     -1257.697          26.000  
G28  20973065.917 9                       324.838          26.000  
G 6  22073426.566 8 115996641.83124       296.696          29.000  
C11  23508796.753 9 122416455.77135      -481.192          29.000  
C 8  36928268.637 9                     -1230.371          23.000  
C25  23678280.091 8 123298980.45624     -1598.514          28.000  
C10  36360231.295 9                      -361.176          23.000  
C13  36983149.955 9                      -868.278          25.000  
G17  22174851.367 8 116529587.00624      -109.860          30.000  
G30  24075111.377 9                     -3465.094          22.000  
G 2  24690653.551 9 129750259.82535      1076.177          26.000  
C23  25920645.390 9                       874.709          23.000  
G19  22495449.716 8 118214396.70424       658.281          28.000  
> 2021  5 21  6 29 14.0010000  0 14                     
G14  20620810.046 8 108363087.88835     -1258.026          28.000  
G28  20973000.967 9 110213879.71235       325.292          29.000  
G 6  22073370.481 8 115996346.43623       295.530          32.000  
C11  23508891.543 8 122416937.04223      -480.881          29.000  
C 3  36810027.078 9                      -750.293          28.000  
C 8  36928503.813 9                     -1228.806          26.000  
C25  23678586.307 8 123300579.18123     -1599.207          30.000  
C10  36360299.386 9                      -359.571          26.000  
C13  36983317.408 8 192581807.51334      -867.906          27.000  
G17  22174865.484 4 116529696.53822      -109.142          34.000  
G30  24075777.382 9                     -3471.545          26.000  
G 2  24690449.418 8 129749184.23525      1075.430          26.000  
C23  25920478.776 9                       875.722          25.000  
G19  22495325.209 4 118213738.69022       658.419          31.000  
> 2021  5 21  6 29 15.0010000  0 12                     
G28  20972936.593 8 110213555.04624       324.397          28.000  
C 7  36157022.497 9                      -794.038          28.000  
G 6  22073317.921 8 115996051.35724       294.285          31.000  
C11  23508986.367 8 122417417.84923      -480.756          29.000  
C 8  36928740.822 8 192297612.65535     -1230.329          26.000  
C25  23678893.169 8 123302178.41223     -1599.730          31.000  
C10  36360368.750 9                      -359.221          26.000  
C13  36983483.097 4 192582675.56924      -867.692          28.000  
G17  22174884.313 8 116529805.55722      -110.017          32.000  
G 2  24690244.937 8 129748109.05924      1074.864          27.000  
C23  25920311.219 9                       875.699          25.000  
G19  22495202.290 4 118213080.11323       658.646          30.000  
> 2021  5 21  6 29 16.0010000  0 12                     
G28  20972880.055 4 110213230.19523       325.161          28.000  
C 7  36157187.978 9 188279934.47335      -794.061          29.000  
G 6  22073264.977 4 115995755.92922       294.952          31.000  
C11  23509077.440 4 122417897.48123      -478.433          29.000  
C 8  36928976.557 4 192298842.39524     -1228.853          28.000  
C25  23679201.236 8 123303777.53922     -1599.385          32.000  
C10  36360436.265 9                      -357.841          27.000  
C13  36983652.016 4 192583543.40923      -867.250          28.000  
G17  22174908.272 4 116529913.45522      -106.226          32.000  
G 2  24690039.426 4 129747033.69924      1075.475          27.000  
C23  25920144.307 9                       877.426          27.000  
G19  22495071.605 4 118212420.33122       661.398          30.000  
> 2021  5 21  6 29 17.0010000  0 13                     
G14  20621524.475 9                     -1259.216          29.000  
G28  20972818.839 4 110212904.86123       324.907          29.000  
G 6  22073201.318 8 115995460.02823       295.404          31.000  
C11  23509167.518 8 122418374.25523      -475.790          30.000  
C 8  36929211.018 4 192300071.24623     -1228.481          28.000  
C25  23679510.349 4 123305376.68022     -1599.525          32.000  
C10  36360505.874 8 189338659.77634      -358.085          28.000  
C13  36983817.513 4 192584411.00823      -867.377          29.000  
G17  22174928.532 4 116530018.89522      -104.690          33.000  
G30  24077758.121 9                     -3475.474          27.000  
G 2  24689834.298 4 129745958.68123      1074.718          28.000  
C23  25919973.208 8 134972082.35134       880.044          28.000  
G19  22494945.789 8 118211757.45522       663.521          31.000  
> 2021  5 21  6 29 18.0010000  0 12                     
G28  20972750.941 4 110212579.08124       325.938          29.000  
G 6  22073148.845 8 115995163.92524       295.110          31.000  
C11  23509258.486 8                      -473.214          30.000  
C 8  36929448.044 4 192301299.32523     -1227.592          28.000  
C25  23679815.780 8 123306976.20123     -1599.802          32.000  
C10  36360574.960 4 189339017.10724      -357.129          29.000  
C13  36983984.128 4 192585278.81523      -867.875          29.000  
G17  22174949.838 8 116530121.86222      -102.311          33.000  
C 3  36810603.197 9                      -746.680          30.000  
G 2  24689627.967 4 129744884.11224      1073.819          27.000  
C23  25919804.604 8 134971200.66524       883.108          28.000  
G19  22494816.395 8 118211091.51723       666.471          31.000  
> 2021  5 21  6 29 19.0010000  0 14                     
G14  20622009.539 9                     -1261.914          32.000  
G28  20972687.143 8 110212253.11624       325.801          30.000  
C 7  36157651.473 9                      -795.642          30.000  
G 6  22073090.352 8 115994867.820 3       295.710          32.000  
C11  23509348.477 8 122419318.02833      -471.151          30.000  
C 8  36929683.361 4 192302526.92023     -1227.588          29.000  
C25  23680124.125 4 123308576.18222     -1600.345          32.000  
C10  36360643.452 4 189339373.81223      -355.814          29.000  
C13  36984151.039 8 192586146.85523      -867.904          30.000  
G17  22174967.777 4 116530222.715 2      -100.839          34.000  
C24  24941429.999 9                     -3693.799          30.000  
G 2  24689427.289 8 129743810.07424      1074.073          29.000  
C23  25919634.377 4 134970316.84424       885.387          28.000  
G19  22494692.551 8 118210422.910 3       670.491          31.000  
> 2021  5 21  6 29 20.0010000  0 13                     
G14  20622242.150 9 108370613.76435     -1264.059          32.000  
G28  20972629.906 8 110211927.16423       325.904          31.000  
G 6  22073034.878 4 115994571.522 2       296.352          33.000  
C11  23509440.614 4 122419787.93822      -468.539          34.000  
C 8  36929917.857 4 192303753.95523     -1227.528          31.000  
C25  23680431.703 4 123310176.30421     -1600.300          38.000  
C10  36360709.606 4 189339730.11522      -356.255          33.000  
C13  36984315.735 4 192587014.86122      -867.985          34.000  
G17  22174986.100 4 116530322.009 1       -98.726          35.000  
G 2  24689223.192 8 129742736.39524      1073.073          27.000  
C23  25919466.593 4 134969431.33223       886.015          33.000  
G30  24079742.054 9 126539897.68334     -3483.911          31.000  
G19  22494565.147 4 118209752.445 2       671.369          32.000  
> 2021  5 21  6 29 21.0010000  0 15                     
G14  20622489.141 9 108371878.19422     -1264.798          32.000  
G28  20972568.394 8 110211600.93823       326.466          32.000  
C 7  36157954.479 9                      -799.426          34.000  
G 6  22072978.060 4 115994274.848 2       297.427          33.000  
C11  23509528.580 4 122420255.86822      -466.801          33.000  
C 8  36930150.206 8 192304979.81113     -1225.452          32.000  
C25  23680737.727 4 123311776.01512     -1600.800          35.000  
C10  36360779.215 4 189340085.67522      -354.094          32.000  
C13  36984485.857 4 192587882.25512      -867.613          33.000  
G17  22175003.882 4 116530419.561 1       -96.351          35.000  
C 3  36811045.752 9                      -751.070          33.000  
C 2  37503716.265 9                      -750.578          29.000  
G 2  24689022.549 9                      1069.569          23.000  
C23  25919295.249 8 134968543.83623       888.831          31.000  
G19  22494440.518 4 118209079.683 2       674.487          33.000  
> 2021  5 21  6 29 22.0010000  0 14                     
G14  20622730.686 8 108373143.63522     -1266.246          31.000  
G28  20972505.800 8 110211274.50923       325.727          31.000  
G 6  22072920.422 4 115993977.819 2       296.946          32.000  
C11  23509620.124 4 122420721.68122      -465.467          32.000  
C 8  36930387.076 8 192306205.597 3     -1225.320          31.000  
C25  23681045.601 4 123313376.152 2     -1600.519          35.000  
C10  36360847.235 8 189340440.67723      -354.821          31.000  
C13  36984652.541 8 192588749.906 3      -867.479          32.000  
G17  22175024.316 4 116530515.435 1       -95.956          35.000  
C 2  37503861.992 9                      -780.273          28.000  
G 2  24688820.004 9                      1069.569          19.000  
C23  25919123.871 8 134967654.25523       890.585          30.000  
G30  24081057.329 9                     -3489.691          28.000  
G19  22494307.390 4 118208404.664 2       675.374          32.000  
> 2021  5 21  6 29 23.0010000  0 12                     
G14  20622972.878 8 108374409.97623     -1268.060          30.000  
G28  20972444.480 8 110210947.94523       326.354          30.000  
G 6  22072860.358 8 115993680.343 3       297.955          31.000  
C11  23509709.260 8 122421185.75122      -463.439          31.000  
C 8  36930623.840 8 192307430.807 4     -1224.964          29.000  
C25  23681354.313 4 123314976.164 2     -1599.387          32.000  
C10  36360918.171 8 189340795.13024      -353.955          30.000  
C13  36984816.887 8 192589617.415 3      -868.343          29.000  
G17  22175041.644 4 116530609.821 2       -93.151          33.000  
C 2  37504017.509 9                      -849.951          27.000  
C23  25918952.876 8 134966762.97923       891.640          28.000  
G19  22494176.304 4 118207727.675 2       678.070          32.000  
> 2021  5 21  6 29 24.0010000  0 13                     
G14  20623213.761 8 108375677.26023     -1268.860          31.000  
G28  20972382.619 8 110210621.61022       325.589          31.000  
C 7  36158411.168 9                      -807.275          27.000  
G 6  22072809.892 4 115993382.945 2       295.903          32.000  
C11  23509798.884 8 122421648.84823      -463.360          31.000  
C 8  36930856.469 8 192308655.862 4     -1225.815          29.000  
C25  23681661.123 4 123316576.552 2     -1600.837          32.000  
C10  36360985.930 4 189341149.44023      -354.555          29.000  
C13  36984985.858 8 192590484.909 3      -867.629          29.000  
G17  22175059.932 4 116530703.491 2       -93.909          35.000  
C 3  36811485.096 9                      -765.332          29.000  
C23  25918784.464 4 134965870.94923       891.486          28.000  
G19  22494047.556 4 118207049.579 2       677.969          33.000  
> 2021  5 21  6 29 25.0010000  0 12                     
G14  20623453.387 8 108376945.30223     -1267.688          32.000  
G28  20972320.356 8 110210295.54712       325.777          31.000  
G 6  22072751.260 8 115993086.146 2       296.151          33.000  
C11  23509886.449 4 122422112.28923      -463.477          32.000  
C 8  36931095.136 8 192309881.233 3     -1224.805          30.000  
C25  23681968.160 4 123318177.681 2     -1601.843          35.000  
C10  36361052.118 4 189341504.15823      -355.074          30.000  
C13  36985150.466 4 192591352.849 2      -868.676          30.000  
G17  22175078.045 2 116530797.517 1       -93.763          35.000  
C23  25918611.009 8 134964979.57923       890.951          29.000  
G30  24083057.543 9                     -3489.111          31.000  
G19  22493921.688 4 118206371.918 2       677.588          33.000  
> 2021  5 21  6 29 26.0010000  0 15                     
G14  20623696.469 4 108378213.96922     -1268.599          32.000  
G28  20972260.014 4 110209970.771 2       323.960          32.000  
G 6  22072695.890 4 115992790.213 2       294.586          35.000  
C11  23509976.458 4 122422576.42222      -464.551          33.000  
C 8  36931329.457 8 192311107.120 3     -1226.300          31.000  
C25  23682275.580 4 123319779.624 2     -1603.007          35.000  
C10  36361119.249 4 189341859.20922      -355.661          31.000  
C13  36985315.684 4 192592221.127 2      -869.275          32.000  
G17  22175096.054 2 116530891.977 1       -95.217          36.000  
C 3  36811779.848 9                      -746.078          30.000  
C 2  37504440.851 9                      -769.531          29.000  
C24  24946415.561 9                     -3709.473          32.000  
C23  25918438.322 4 134964089.56023       889.982          29.000  
G30  24083738.433 9 126560899.39234     -3489.007          29.000  
G19  22493794.249 4 118205695.056 2       675.487          34.000  
> 2021  5 21  6 29 27.0010000  0 14                     
G14  20623939.830 4 108379483.04022     -1268.026          32.000  
G28  20972194.855 8 110209646.613 3       324.640          31.000  
G 6  22072639.840 4 115992494.642 2       296.322          34.000  
C11  23510065.192 4 122423041.113 2      -464.515          33.000  
C 8  36931566.361 8 192312333.137 3     -1224.639          30.000  
C25  23682583.507 4 123321382.016 2     -1603.176          34.000  
C10  36361187.497 8 189342214.04013      -355.660          31.000  
C13  36985486.208 8 192593089.483 3      -868.461          31.000  
G17  22175111.637 8 116530987.327 4       -96.608          28.000  
C 3  36811923.603 9                      -765.771          31.000  
C 2  37504584.972 9                      -737.744          29.000  
C24  24947126.221 9 129906200.80035     -3707.021          31.000  
C23  25918265.477 8 134963200.25814       888.498          28.000  
G19  22493663.250 4 118205018.714 2       676.047          31.000  
> 2021  5 21  6 29 28.0010000  0 17                     
G14  20624180.677 8 108380752.56923     -1270.277          31.000  
G28  20972132.767 8 110209323.110 3       322.146          31.000  
G 6  22072585.064 4 115992199.376 2       295.191          33.000  
C11  23510154.328 4 122423506.299 2      -466.299          33.000  
C 8  36931806.598 8 192313559.370 3     -1225.552          30.000  
C25  23682890.979 4 123322984.534 2     -1603.284          34.000  
C10  36361258.083 8 189342569.522 3      -355.829          30.000  
C13  36985649.106 8 192593957.698 4      -868.915          31.000  
C 1  37822848.779 9                      -775.461          29.000  
G17  22175132.839 9                       -97.085          26.000  
C 3  36812067.864 9 191690065.60935      -761.738          31.000  
C 2  37504730.577 9                      -756.561          29.000  
C 4  38752370.016 9                      -767.334          27.000  
C24  24947834.473 9 129909907.33523     -3706.900          31.000  
G30  24085062.678 9                     -3485.596          31.000  
C23  25918097.519 4 134962312.210 4       887.023          28.000  
G19  22493534.974 4 118204343.147 3       675.200          29.000  
> 2021  5 21  6 29 29.0010000  0 19                     
G14  20624421.456 8 108382022.86922     -1270.411          32.000  
G28  20972070.888 8 110209000.583 3       321.450          31.000  
C 7  36159182.171 9                      -796.582          32.000  
G 6  22072527.530 4 115991903.747 2       296.500          34.000  
C11  23510243.917 4 122423972.277 2      -467.006          32.000  
C 8  36932038.651 8 192314786.051 3     -1225.643          30.000  
C25  23683198.609 4 123324586.756 2     -1601.557          34.000  
C10  36361325.720 8 189342925.722 3      -356.670          30.000  
C13  36985816.401 8 192594825.499 3      -867.465          31.000  
C 1  37823001.713 9                      -804.443          29.000  
G17  22175148.806 9                       -97.327          26.000  
C 3  36812218.825 9 191690827.61224      -761.813          31.000  
C 2  37504877.473 9                      -756.152          29.000  
C21  24333994.865 9                      -134.239          28.000  
C 4  38752522.636 9                      -821.582          27.000  
C24  24948544.435 8 129913612.71423     -3704.735          32.000  
G30  24085731.562 9 126571373.63735     -3484.485          32.000  
C23  25917927.118 8 134961424.813 3       887.046          30.000  
G19  22493405.493 8                       677.398          27.000  
> 2021  5 21  6 29 30.0010000  0 20                     
G14  20624663.891 4 108383293.92722     -1271.602          33.000  
G28  20972013.896 8 110208679.114 2       320.709          32.000  
C 7  36159342.085 9 188291151.42233      -801.428          32.000  
G 6  22072468.898 4 115991606.400 2       297.824          34.000  
C11  23510333.175 4 122424439.776 3      -468.517          27.000  
C 8  36932271.874 8 192316013.137 3     -1227.353          30.000  
C25  23683506.100 4 123326187.043 2     -1599.100          35.000  
C10  36361394.945 8 189343282.509 3      -357.149          30.000  
C13  36985985.354 4 192595691.882 2      -865.864          31.000  
C 1  37823150.720 9                      -794.817          29.000  
G17  22175168.455 9                       -99.958          25.000  
C 3  36812364.884 8 191691588.10123      -760.393          31.000  
C 2  37505020.966 9                      -747.119          29.000  
C21  24334018.580 9 126713589.13134      -137.500          29.000  
C14  25559031.595 9                      2144.991          26.000  
C 4  38752676.372 9                      -804.492          27.000  
C24  24949257.696 8 129917315.40022     -3701.278          33.000  
G30  24086385.003 9 126574854.86025     -3478.534          30.000  
C23  25917756.140 4 134960537.842 3       886.806          29.000  
G19  22493275.890 9                       672.404          26.000  
> 2021  5 21  6 29 31.0010000  0 20                     
G14  20624907.811 4 108384565.14022     -1271.516          32.000  
G28  20971953.064 8 110208358.712 3       319.083          31.000  
C 7  36159493.989 8 188291952.80122      -801.178          33.000  
G 6  22072411.975 4 115991306.764 2       301.234          33.000  
C11  23510422.415 9                      -472.196          25.000  
C 8  36932510.418 8 192317240.390 3     -1227.536          31.000  
C25  23683813.014 4 123327784.845 2     -1597.730          35.000  
C10  36361463.804 8 189343639.919 3      -358.350          30.000  
C13  36986149.229 8 192596556.153 2      -863.281          32.000  
C 1  37823306.586 9                      -778.906          28.000  
G17  22175194.578 9                      -104.878          22.000  
C 3  36812509.930 8 191692346.28023      -756.283          31.000  
C 2  37505165.628 9                      -751.571          29.000  
C21  24334050.740 9 126713727.60123      -139.325          31.000  
C14  25558616.385 9 133090405.55334      2150.016          31.000  
C24  24949966.174 4 129921013.80622     -3695.958          32.000  
G30  24087046.419 9 126578330.96425     -3473.688          30.000  
G 2  24687002.198 9                      1069.569          11.000  
C23  25917587.554 8 134959651.786 3       883.752          32.000  
G19  22493150.772 8 118202304.54834       669.789          29.000  
> 2021  5 21  6 29 32.0010000  0 19                     
G14  20625148.571 8 108385836.28923     -1270.359          31.000  
G28  20971892.355 8 110208039.716 2       318.042          31.000  
C 7  36159644.270 8 188292753.93422      -800.812          33.000  
G 6  22072354.738 4 115991005.492 2       301.780          33.000  
C11  23510514.169 9                      -474.171          32.000  
C 8  36932746.258 4 192318468.315 3     -1227.317          30.000  
C25  23684119.353 4 123329380.331 2     -1594.530          35.000  
C10  36361527.742 8 189343998.339 3      -358.827          30.000  
C13  36986315.390 8 192597418.619 3      -863.432          31.000  
C 1  37823454.337 9                      -787.256          29.000  
G17  22175212.708 9                      -104.878          19.000  
C 3  36812655.238 8 191693101.51423      -753.578          32.000  
C 2  37505309.296 9                      -747.656          29.000  
C21  24334078.382 8 126713868.12224      -140.925          29.000  
C14  25558204.403 9 133088252.18724      2157.412          29.000  
C24  24950674.584 4 129924706.57922     -3690.133          33.000  
G30  24087708.358 8 126581800.41325     -3465.332          29.000  
C23  25917417.990 9                       881.796          26.000  
G19  22493025.061 8 118201635.81622       666.627          34.000  
> 2021  5 21  6 29 33.0010000  0 19                     
G14  20625389.245 8 108387107.28323     -1271.135          31.000  
G28  20971829.848 8 110207722.464 2       316.836          31.000  
C 7  36159797.728 4 188293554.31322      -799.713          33.000  
G 6  22072297.205 4 115990703.753 2       300.653          33.000  
C11  23510605.486 8 122425861.13133      -478.629          31.000  
C 8  36932979.602 4 192319697.437 3     -1229.878          29.000  
C25  23684425.482 2 123330974.826 1     -1594.015          35.000  
C10  36361597.909 4 189344358.200 3      -360.426          30.000  
C13  36986480.364 8 192598279.879 3      -860.951          31.000  
C 1  37823607.078 9 196957416.05535      -789.169          30.000  
G17  22175230.560 9                      -108.275          16.000  
C 3  36812799.394 4 191693853.83623      -751.732          32.000  
C 2  37505452.126 9                      -751.074          30.000  
C21  24334102.358 8 126714009.33224      -141.523          29.000  
C 4  38753135.016 9                      -822.297          27.000  
C24  24951383.795 8 129928393.57923     -3684.070          32.000  
G30  24088365.341 9                     -3462.221          28.000  
C23  25917250.834 9                       883.451          25.000  
G19  22492898.442 4 118200971.32522       662.123          35.000  
> 2021  5 21  6 29 34.0010000  0 19                     
G14  20625630.529 4 108388378.24122     -1270.477          32.000  
G28  20971770.570 8 110207407.217 3       314.362          30.000  
C 7  36159952.337 8 188294354.04523      -799.573          31.000  
G 6  22072239.846 4 115990402.361 2       301.433          32.000  
C11  23510698.617 8 122426340.75824      -480.322          30.000  
C 8  36933217.553 4 192320927.875 3     -1230.906          29.000  
C25  23684731.733 4 123332569.142 2     -1593.865          34.000  
C10  36361672.352 8 189344719.681 3      -362.333          30.000  
C13  36986644.623 8 192599140.879 3      -861.385          31.000  
C 1  37823758.372 9 196958203.51025      -785.747          30.000  
G17  22175251.553 9                      -108.275          12.000  
C 3  36812943.411 8 191694603.63625      -746.755          31.000  
C 2  37505595.636 9                      -750.977          29.000  
C21  24334131.465 8 126714150.37523      -140.049          30.000  
C14  25557378.676 9                      2164.591          26.000  
C24  24952091.838 4 129932075.771 3     -3680.492          33.000  
G30  24089022.377 9 126588666.41335     -3455.621          29.000  
C23  25917078.670 9                       873.800          26.000  
G19  22492772.556 8 118200311.00023       658.195          32.000  
> 2021  5 21  6 29 35.0010000  0 18                     
G14  20625872.895 4 108389649.12422     -1271.850          34.000  
G28  20971712.339 8 110207093.531 3       312.365          29.000  
C 7  36160103.857 8 188295152.86923      -798.370          29.000  
G 6  22072182.592 4 115990101.844 2       299.361          33.000  
C11  23510790.353 8 122426824.20923      -485.325          30.000  
C 8  36933451.683 4 192322159.594 3     -1232.271          29.000  
C25  23685037.897 4 123334163.771 2     -1595.798          35.000  
C10  36361740.791 8 189345082.381 3      -363.610          29.000  
C13  36986812.965 8 192600001.726 3      -861.404          32.000  
C 1  37823908.374 8 196958988.28325      -783.416          30.000  
C 3  36813087.427 8 191695351.34023      -747.114          31.000  
C 2  37505738.083 9                      -740.234          30.000  
C21  24334157.309 8 126714290.67923      -139.596          31.000  
C14  25556955.735 9 133081743.63335      2172.877          27.000  
C24  24952797.315 4 129935753.212 3     -3675.948          33.000  
G30  24089678.924 8 126592120.32224     -3451.917          29.000  
C23  25916913.644 9 134956126.14835       869.386          26.000  
G19  22492646.705 4 118199654.91022       653.335          32.000  
> 2021  5 21  6 29 36.0010000  0 20                     
G14  20626114.947 4 108390919.84122     -1270.479          34.000  
G28  20971653.200 4 110206781.475 3       311.678          31.000  
C 7  36160258.693 4 188295950.66623      -797.742          33.000  
G 6  22072125.966 2 115989802.675 2       299.295          36.000  
C11  23510882.281 8 122427311.07023      -486.750          30.000  
C 8  36933690.245 8 192323392.666 3     -1233.132          30.000  
C25  23685344.114 2 123335759.298 1     -1595.940          38.000  
C10  36361810.348 4 189345446.379 3      -364.539          29.000  
C13  36986978.952 4 192600862.933 2      -860.770          33.000  
C 1  37824058.847 9                      -780.161          31.000  
G17  22175296.243 9                      -123.555          14.000  
C 3  36813230.781 4 191696097.10223      -745.122          35.000  
C 2  37505879.970 9                      -747.656          30.000  
C21  24334184.741 4 126714429.67422      -137.301          33.000  
C14  25556535.429 9 133079568.53225      2176.683          28.000  
C 4  38753592.125 9                      -774.062          33.000  
C24  24953502.793 4 129939426.927 2     -3672.174          36.000  
G30  24090336.378 8 126595570.71823     -3448.242          31.000  
C23  25916744.673 8 134955259.24624       865.627          31.000  
G19  22492524.030 4 118199002.58722       651.423          33.000  
> 2021  5 21  6 29 37.0010000  0 20                     
G14  20626356.772 4 108392190.71822     -1271.811          33.000  
G28  20971593.066 4 110206470.227 2       310.964          32.000  
C 7  36160412.761 8 188296747.85523      -796.454          33.000  
G 6  22072069.480 2 115989504.256 1       299.050          36.000  
C11  23510976.006 8 122427799.26023      -487.373          31.000  
C 8  36933928.370 8 192324626.090 4     -1234.355          31.000  
C25  23685650.644 2 123337355.369 1     -1595.576          38.000  
C10  36361878.247 4 189345810.797 2      -363.791          31.000  
C13  36987141.832 4 192601724.255 2      -860.978          34.000  
C 1  37824208.919 9 196960549.01634      -780.734          33.000  
G17  22175320.498 9                      -122.977          33.000  
C 3  36813373.943 4 191696841.89323      -744.530          34.000  
C 2  37506022.032 9                      -740.567          31.000  
C21  24334209.729 4 126714568.10622      -137.914          35.000  
C14  25556121.021 8 133077391.39523      2177.434          32.000  
C 4  38753741.760 9 201800871.13835      -788.693          32.000  
C24  24954207.869 4 129943098.976 2     -3672.077          35.000  
G30  24090991.791 8 126599019.56424     -3449.402          31.000  
C23  25916574.342 8                       862.610          31.000  
G19  22492400.465 4 118198351.78322       651.407          33.000  
> 2021  5 21  6 29 38.0010000  0 20                     
G14  20626598.562 4 108393461.67722     -1271.303          32.000  
G28  20971532.811 4 110206159.223 2       309.588          32.000  
C 7  36160562.379 8 188297544.83123      -797.137          32.000  
G 6  22072012.889 2 115989205.864 1       298.190          36.000  
C11  23511071.354 8 122428287.42224      -487.275          31.000  
C 8  36934166.095 8 192325859.307 3     -1232.892          30.000  
C25  23685957.349 1 123338951.438 1     -1596.001          37.000  
C10  36361949.897 8 189346175.061 3      -363.982          30.000  
C13  36987308.813 4 192602585.241 2      -860.921          33.000  
C 1  37824358.485 8 196961329.02823      -779.681          32.000  
G17  22175344.929 8 116532218.94133      -123.734          34.000  
C 3  36813516.790 4 191697586.04722      -743.665          32.000  
C 2  37506163.868 9 195304405.74734      -737.345          30.000  
C21  24334235.433 4 126714706.74822      -140.074          34.000  
C14  25555701.588 8 133075213.18023      2178.792          31.000  
C 4  38753894.310 9 201801666.02225      -786.818          30.000  
C24  24954912.927 4 129946770.204 3     -3672.173          34.000  
G30  24091647.901 8 126602467.41524     -3446.783          30.000  
C23  25916411.147 8 134953521.88435       863.621          30.000  
G19  22492274.195 8 118197701.16623       650.500          31.000  
> 2021  5 21  6 29 39.0010000  0 20                     
G14  20626840.632 4 108394733.73822     -1273.723          32.000  
G28  20971473.550 4 110205849.084 2       309.440          32.000  
C 7  36160716.778 8 188298342.16823      -796.961          31.000  
G 6  22071956.594 2 115988908.749 1       296.682          36.000  
C11  23511163.439 8 122428776.173 3      -489.034          30.000  
C 8  36934402.580 4 192327093.180 3     -1233.813          30.000  
C25  23686264.106 2 123340548.894 1     -1597.581          36.000  
C10  36362017.499 8 189346539.854 3      -364.104          30.000  
C13  36987475.079 4 192603447.107 2      -862.473          32.000  
C 1  37824508.050 4 196962109.20923      -780.135          31.000  
G17  22175367.178 8 116532342.49722      -123.511          33.000  
C 3  36813659.812 4 191698330.81622      -744.689          32.000  
C 2  37506305.878 8 195305144.90023      -739.702          31.000  
C21  24334263.493 4 126714845.60922      -138.746          33.000  
C14  25555283.236 8 133073035.66823      2176.140          31.000  
C 4  38754047.034 9                      -786.862          29.000  
C24  24955618.056 4 129950442.201 3     -3672.954          33.000  
G30  24092308.253 8 126605916.20124     -3449.249          30.000  
C23  25916246.854 8 134952658.48024       863.480          28.000  
G19  22492149.723 8 118197051.00622       650.255          31.000  
> 2021  5 21  6 29 40.0010000  0 20                     
G14  20627083.085 4 108396006.39922     -1273.492          32.000  
G28  20971411.951 8 110205539.554 2       308.832          32.000  
C 7  36160870.131 4 188299139.542 2      -797.485          31.000  
G 6  22071900.614 2 115988613.298 1       295.005          36.000  
C11  23511258.996 8 122429264.953 3      -489.229          30.000  
C 8  36934639.903 4 192328327.406 3     -1234.073          30.000  
C25  23686571.160 2 123342148.150 1     -1600.987          37.000  
C10  36362092.169 8 189346904.934 3      -365.015          30.000  
C13  36987640.716 4 192604310.025 2      -863.305          32.000  
C 1  37824657.669 8 196962888.89023      -780.089          31.000  
G17  22175392.254 4 116532465.56622      -122.878          34.000  
C 3  36813802.869 9                      -744.701          32.000  
C 2  37506448.603 9                      -751.758          29.000  
C21  24334290.838 4 126714983.879 2      -139.277          33.000  
C14  25554865.059 8 133070858.81423      2176.801          30.000  
C 4  38754199.026 9 201803247.78935      -787.290          29.000  
C24  24956323.690 4 129954115.173 2     -3673.539          33.000  
G30  24092959.024 8 126609366.32023     -3451.038          31.000  
C23  25916078.633 8 134951796.42624       861.954          28.000  
G19  22492025.600 4 118196401.10522       650.416          32.000  
> 2021  5 21  6 29 41.0010000  0 19                     
G14  20627324.770 8 108397280.08423     -1274.521          32.000  
G28  20971352.672 4 110205230.926 2       308.366          33.000  
C 7  36161024.530 8 188299937.328 3      -798.785          31.000  
G 6  22071844.738 2 115988319.283 1       292.208          36.000  
C11  23511353.123 8 122429754.268 3      -489.668          30.000  
C 8  36934873.998 4 192329562.247 2     -1235.059          29.000  
C25  23686878.598 2 123343748.898 1     -1602.215          33.000  
C10  36362159.858 4 189347270.556 3      -365.878          30.000  
C13  36987806.302 4 192605174.020 2      -865.999          32.000  
C 1  37824807.322 8 196963668.50124      -778.793          31.000  
G17  22175414.573 4 116532588.81822      -123.859          34.000  
C 3  36813946.414 8 191699846.59034      -746.486          31.000  
C21  24334317.240 4 126715122.228 2      -138.587          33.000  
C14  25554446.202 8 133068682.76324      2176.337          28.000  
C 4  38754349.604 9                      -773.926          29.000  
C24  24957029.394 4 129957789.088 3     -3673.757          33.000  
G30  24093618.223 8 126612817.41934     -3451.917          30.000  
C23  25915913.938 8 134950935.62624       858.953          28.000  
G19  22491904.181 4 118195751.78122       648.872          32.000  
> 2021  5 21  6 29 42.0010000  0 19                     
G14  20627568.742 8 108398554.61723     -1274.794          32.000  
G28  20971296.378 4 110204923.052 2       307.932          33.000  
C 7  36161177.761 8 188300735.116 3      -797.662          31.000  
G 6  22071789.561 2 115988026.949 1       291.693          35.000  
C11  23511447.860 8 122430243.729 4      -489.413          30.000  
C 8  36935111.757 4 192330797.620 2     -1235.658          29.000  
C25  23687186.525 9                     -1608.764          28.000  
C10  36362229.554 4 189347636.499 3      -367.008          29.000  
C13  36987972.497 4 192606039.069 2      -865.385          32.000  
C 1  37824956.992 8 196964447.86423      -779.129          30.000  
G17  22175439.108 8 116532711.65023      -122.597          33.000  
C 3  36814089.541 8 191700593.22123      -747.633          31.000  
C21  24334343.014 4 126715260.012 2      -137.621          33.000  
C14  25554030.136 4 133066507.41123      2175.337          33.000  
C 4  38754501.333 9                      -782.811          29.000  
C24  24957735.134 4 129961464.030 3     -3674.199          33.000  
G30  24094275.451 8                     -3454.480          28.000  
C23  25915750.028 8                       858.581          28.000  
G19  22491779.220 8 118195102.79423       648.307          31.000  
> 2021  5 21  6 29 43.0010000  0 19                     
G14  20627811.160 4 108399829.484 2     -1275.080          33.000  
G28  20971237.239 4 110204615.502 2       306.828          33.000  
C 7  36161330.049 4 188301532.761 2      -797.870          31.000  
G 6  22071734.086 2 115987735.400 1       291.113          35.000  
C11  23511540.835 8 122430733.357 4      -490.160          30.000  
C 8  36935351.034 4 192332032.904 2     -1234.967          29.000  
C25  23687495.603 9 123346973.56135     -1604.090          27.000  
C10  36362299.128 8 189348002.357 3      -366.340          30.000  
C13  36988138.798 4 192606904.386 2      -865.259          31.000  
C 1  37825106.663 4 196965226.59823      -779.213          31.000  
G17  22175465.248 8 116532834.23225      -122.970          35.000  
C 3  36814232.895 4 191701339.68923      -746.613          31.000  
C21  24334369.224 4 126715397.590 2      -138.926          33.000  
C14  25553611.244 8 133064331.90224      2176.206          30.000  
C 4  38754652.976 9                      -789.160          28.000  
C24  24958440.035 8 129965139.199 4     -3673.710          29.000  
G30  24094933.725 8                     -3452.960          26.000  
C23  25915582.803 8                       858.358          27.000  
G19  22491658.342 8 118194453.839 3       649.232          32.000  
> 2021  5 21  6 29 44.0010000  0 18                     
G14  20628055.865 8 108401105.084 3     -1276.038          32.000  
G28  20971180.648 4 110204308.620 2       306.904          33.000  
C 7  36161482.930 4 188302330.740 3      -798.193          31.000  
G 6  22071678.490 2 115987443.656 1       291.704          37.000  
C11  23511635.642 8 122431223.190 4      -490.293          30.000  
C 8  36935587.188 4 192333268.492 3     -1236.002          28.000  
C25  23687808.259 9                     -1627.616          24.000  
C10  36362371.878 8 189348368.567 3      -367.118          30.000  
C13  36988304.732 8 192607769.479 3      -863.976          31.000  
C 1  37825256.298 8 196966005.63223      -780.192          31.000  
G17  22175487.724 8 116532957.48025      -124.379          33.000  
C 3  36814376.039 8 191702085.95523      -746.100          31.000  
C21  24334393.375 4 126715536.243 3      -139.458          32.000  
C 4  38754803.379 9                      -781.689          27.000  
C24  24959144.483 8                     -3676.474          28.000  
G30  24095584.112 9                     -3453.831          26.000  
C23  25915418.527 8                       857.651          27.000  
G19  22491535.493 8 118193805.324 3       647.040          32.000  
> 2021  5 21  6 29 45.0010000  0 18                     
G14  20628296.974 8 108402381.161 3     -1276.108          31.000  
G28  20971122.067 8 110204002.021 3       306.953          32.000  
C 7  36161636.719 8 188303129.028 5      -798.322          30.000  
G 6  22071622.632 4 115987151.004 2       293.467          32.000  
C11  23511727.046 8 122431712.785 4      -490.006          29.000  
C 8  36935825.104 4 192334503.809 4     -1235.180          28.000  
C25  23688120.077 9                     -1611.982          21.000  
C10  36362446.862 9                      -365.928          29.000  
C13  36988470.631 8 192608633.743 4      -862.384          30.000  
C 1  37825406.004 8 196966785.28225      -779.937          29.000  
G17  22175515.016 9                      -122.293          33.000  
C 3  36814519.410 8 191702831.73424      -746.272          30.000  
C21  24334421.697 8 126715676.661 4      -141.504          31.000  
C 4  38754955.336 9                      -768.311          27.000  
C24  24959850.728 9                     -3674.552          28.000  
G30  24096247.220 9                     -3449.427          26.000  
C23  25915255.001 8                       859.892          26.000  
G19  22491412.120 8 118193156.284 3       649.395          27.000  
> 2021  5 21  6 29 46.0010000  0 17                     
G14  20628539.881 8 108403657.861 3     -1278.222          30.000  
G28  20971061.986 8 110203695.388 3       307.134          31.000  
C 7  36161789.565 8 188303927.839 3      -799.573          29.000  
G 6  22071567.856 9                       293.718          29.000  
C11  23511822.394 8 122432201.114 5      -487.654          27.000  
C 8  36936060.229 4 192335738.455 5     -1234.160          27.000  
C25  23688430.481 9                     -1611.982          15.000  
C10  36362514.133 9                      -364.687          27.000  
C13  36988635.379 8 192609496.612 3      -862.651          30.000  
C 1  37825556.076 9                      -782.806          29.000  
G17  22175531.559 8 116533204.60125      -123.703          31.000  
C 3  36814662.083 9                      -744.592          29.000  
C21  24334448.221 8 126715819.628 3      -144.005          30.000  
C24  24960560.132 8 129976134.49935     -3673.264          29.000  
G30  24096904.029 9                     -3448.160          26.000  
C23  25915090.288 8 134946632.78035       861.794          26.000  
G19  22491287.787 8 118192505.891 3       651.125          28.000  
> 2021  5 21  6 29 47.0010000  0 16                     
G14  20628780.223 8 108404935.358 4     -1276.656          29.000  
G28  20971006.128 8 110203380.20135       306.315          22.000  
C 7  36161944.471 8 188304727.760 5      -799.243          26.000  
G 6  22071510.706 9                       289.247          14.000  
C11  23511911.600 8 122432687.394 5      -484.408          25.000  
C 8  36936299.244 9                     -1232.173          25.000  
C25  23688739.210 9                     -1611.982          12.000  
C10  36362581.368 9                      -362.506          25.000  
C 1  37825706.374 9                      -779.590          27.000  
G17  22175558.589 8                      -121.453          25.000  
C 3  36814805.489 9                      -724.756          27.000  
C21  24334475.828 8 126715966.324 5      -147.932          28.000  
C24  24961260.374 8 129979808.65124     -3675.921          28.000  
G30  24097559.826 9                     -3451.492          22.000  
C23  25914925.191 9                       863.362          24.000  
G19  22491157.538 8                       653.987          28.000  
> 2021  5 21  6 29 48.0010000  0 16                     
G14  20629023.759 4 108406213.942 3     -1278.622          29.000  
G28  20970950.654 9                       306.418          23.000  
C 7  36162095.904 8 188305528.664 5      -801.752          25.000  
G 6  22071455.651 9                       289.247          11.000  
C11  23512005.639 8 122433170.171 5      -480.198          25.000  
C 8  36936535.799 9                     -1231.226          25.000  
C10  36362647.260 9                      -364.199          24.000  
C13  36988968.155 9                      -853.937          17.000  
C 1  37825857.109 9                      -792.481          27.000  
G17  22175581.292 8                      -118.820          27.000  
C 3  36814928.897 9                      -601.270          27.000  
C21  24334508.442 8 126716115.785 4      -151.546          27.000  
C24  24961968.818 8 129983485.09824     -3678.989          29.000  
G30  24098217.943 9                     -3451.492          18.000  
C23  25914757.774 9                       867.047          24.000  
G19  22491035.771 9 118191190.38535       659.264          28.000  
> 2021  5 21  6 29 49.0010000  0 14                     
G14  20629271.866 8 108407493.795 3     -1280.103          29.000  
G28  20970887.275 9                       308.509          24.000  
C 7  36162250.652 8 188306330.727 5      -802.240          25.000  
G 6  22071398.728 9                       289.247          12.000  
C11  23512098.666 8                      -478.160          25.000  
C 8  36936772.965 9                     -1230.258          24.000  
C10  36362718.073 9                      -359.325          24.000  
C13  36989128.871 9                      -853.937          14.000  
G17  22175604.344 8                      -115.433          28.000  
C21  24334535.577 8                      -151.041          26.000  
C24  24962676.407 8 129987165.86125     -3682.580          28.000  
G30  24098878.452 9                     -3451.492          12.000  
C23  25914589.676 9                       877.342          22.000  
G19  22490909.571 8 118190529.68424       662.795          28.000  
> 2021  5 21  6 29 50.0010000  0 13                     
G14  20629507.164 8 108408775.223 4     -1282.496          29.000  
G28  20970832.097 9                       310.632          25.000  
C 7  36162406.553 9                      -803.726          25.000  
G 6  22071342.783 9                       289.247          13.000  
C11  23512193.194 8                      -473.430          25.000  
C 8  36937008.526 9                     -1229.386          23.000  
C10  36362789.445 9                      -360.827          25.000  
C13  36989298.051 9                      -853.937          11.000  
G17  22175623.434 8 116533677.526 5      -110.994          28.000  
C21  24334568.244 9                      -160.268          26.000  
C24  24963379.075 9                     -3679.092          26.000  
C23  25914421.683 9                       880.601          21.000  
G19  22490780.893 8 118189864.91124       666.665          28.000  
> 2021  5 21  6 29 51.0010000  0 13                     
G14  20629757.313 8 108410058.458 4     -1284.627          28.000  
G28  20970774.546 9                       309.652          26.000  
C 7  36162560.499 9                      -805.768          26.000  
G 6  22071288.652 9                       289.247          12.000  
C11  23512281.108 8                      -469.052          25.000  
C 8  36937245.343 9                     -1228.364          23.000  
C10  36362857.937 9                      -362.610          25.000  
C 3  36815384.679 9                      -761.641          27.000  
G17  22175640.221 8 116533786.458 5      -107.794          28.000  
C21  24334596.199 9                      -157.605          24.000  
C24  24964086.280 9                     -3679.092          22.000  
C23  25914253.114 9                       873.494          20.000  
G19  22490662.232 8 118189196.03924       670.170          28.000  
> 2021  5 21  6 29 52.0010000  0 12                     
G14  20630003.466 8 108411342.799 3     -1284.724          28.000  
G28  20970712.546 9                       309.963          27.000  
C 7  36162716.172 8 188308716.14435      -806.610          27.000  
G 6  22071231.799 9                       297.421          22.000  
C11  23512373.437 4 122435065.036 5      -467.812          27.000  
C 8  36937481.898 9                     -1228.800          23.000  
C10  36362927.755 9                      -359.384          24.000  
G17  22175666.205 8 116533891.984 4      -104.696          29.000  
C21  24334624.242 9                      -150.234          23.000  
C24  24964792.560 9                     -3679.092          15.000  
C23  25914085.836 9                       878.972          20.000  
G19  22490534.758 4 118188524.02724       672.732          29.000  
> 2021  5 21  6 29 53.0010000  0 12                     
G14  20630244.907 4 108412627.845 3     -1285.068          27.000  
G28  20970652.814 8 110201527.53035       310.441          26.000  
C 7  36162870.275 8 188309521.87124      -805.878          27.000  
G 6  22071175.732 9                       295.251          24.000  
C11  23512462.049 4 122435532.271 4      -467.736          27.000  
C 8  36937717.668 9                     -1225.980          23.000  
C10  36362998.847 9                      -364.927          24.000  
C13  36989794.841 9                      -861.309          15.000  
G17  22175685.557 4 116533995.549 4      -102.792          29.000  
C21  24334655.408 9                      -144.139          22.000  
C23  25913916.220 9                       875.339          21.000  
G19  22490402.502 8 118187850.38224       673.591          29.000  
> 2021  5 21  6 29 54.0010000  0 13                     
G14  20630493.014 8 108413913.649 4     -1286.003          26.000  
G28  20970595.141 9                       309.792          25.000  
C 7  36163026.437 9                      -808.388          26.000  
G 6  22071118.513 9                       293.627          25.000  
C11  23512553.279 4 122435999.937 5      -468.712          26.000  
C 8  36937951.832 9                     -1231.533          22.000  
C25  23690895.080 9                     -1602.426          17.000  
C10  36363066.781 9                      -352.138          22.000  
C13  36989959.763 9                      -857.869          20.000  
G17  22175705.590 9                      -104.513          27.000  
C21  24334684.672 9                      -164.822          21.000  
C23  25913746.482 9                       884.504          21.000  
G19  22490272.533 9                       672.549          27.000  
> 2021  5 21  6 29 55.0010000  0 13                     
G14  20630736.480 8 108415199.833 4     -1286.328          26.000  
G28  20970536.700 9                       309.354          26.000  
C 7  36163179.754 9                      -804.807          26.000  
G 6  22071060.909 8 115984217.60435       292.082          27.000  
C11  23512642.397 4 122436468.835 5      -470.869          26.000  
C 8  36938187.846 9                     -1238.399          22.000  
C25  23691196.376 9                     -1606.678          25.000  
C10  36363135.989 9                      -352.367          22.000  
C13  36990126.570 9                      -869.547          23.000  
G17  22175722.586 8 116534208.41935      -105.128          28.000  
C21  24334716.833 9                      -146.431          24.000  
C23  25913578.523 9                       878.099          22.000  
G19  22490148.549 9                       670.499          28.000  
> 2021  5 21  6 29 56.0010000  0 13                     
G14  20630979.771 8 108416486.229 4     -1286.976          26.000  
G28  20970477.648 9                       307.082          26.000  
C 7  36163333.596 8                      -803.872          26.000  
G 6  22071004.702 4 115983927.11224       289.470          28.000  
C11  23512733.959 4 122436940.115 4      -473.072          27.000  
C 8  36938424.227 9                     -1230.443          22.000  
C25  23691499.800 9 123367825.03835     -1609.482          26.000  
C10  36363207.168 9                      -369.033          22.000  
C13  36990292.033 9                      -855.849          24.000  
G17  22175743.474 4 116534314.15124      -107.189          28.000  
C21  24334745.294 9                      -154.238          26.000  
C23  25913410.739 9                       871.277          22.000  
G19  22490020.116 8 118185859.05135       666.885          28.000  
> 2021  5 21  6 29 57.0010000  0 14                     
G14  20631225.470 8 108417772.473 5     -1286.712          26.000  
G28  20970418.230 9                       301.850          26.000  
C 7  36163489.409 9                      -801.107          27.000  
G 6  22070949.368 4 115983639.50723       286.005          28.000  
C11  23512824.560 4 122437415.506 4      -476.993          26.000  
C 8  36938659.788 9                     -1229.303          22.000  
C25  23691805.475 8 123369435.83724     -1611.959          27.000  
C10  36363276.184 9                      -362.542          22.000  
C13  36990459.450 9                      -871.593          24.000  
C 3  36816254.188 9                      -758.797          27.000  
G17  22175763.455 4 116534422.77524      -109.311          28.000  
C21  24334774.890 9                      -144.126          24.000  
C23  25913244.439 9                       869.703          21.000  
G19  22489896.272 8 118185194.88724       662.080          28.000  
> 2021  5 21  6 29 58.0010000  0 14                     
G14  20631470.541 4 108419058.479 4     -1286.536          27.000  
G28  20970363.454 9                       302.477          26.000  
C 7  36163643.162 8                      -800.891          28.000  
G 6  22070894.364 4 115983355.32123       282.347          29.000  
C11  23512916.907 4 122437895.049 3      -481.478          28.000  
C 8  36938897.372 9                     -1233.138          23.000  
C25  23692114.815 9                     -1610.205          30.000  
C10  36363345.060 9                      -366.343          24.000  
C13  36990625.733 9                      -875.541          25.000  
C 3  36816394.977 9                      -753.271          27.000  
G17  22175785.704 4 116534534.01824      -111.869          28.000  
C21  24334803.717 9                      -138.947          25.000  
C23  25913079.395 9                       862.217          20.000  
G19  22489768.903 8 118184535.36724       657.589          28.000  
> 2021  5 21  6 29 59.0010000  0 14                     
G14  20631713.832 4 108420344.403 5     -1285.804          26.000  
G28  20970307.823 9                       300.804          26.000  
C 7  36163795.224 8 188314348.43935      -799.939          28.000  
G 6  22070841.229 4 115983073.89123       280.579          29.000  
C11  23513009.550 4 122438377.275 4      -483.411          27.000  
C 8  36939135.603 9                     -1235.264          24.000  
C25  23692422.393 9                     -1616.033          30.000  
C10  36363413.499 9                      -372.820          24.000  
C13  36990792.819 9                      -870.107          26.000  
C 3  36816545.677 9                      -774.805          28.000  
G17  22175806.068 4 116534646.72523      -112.999          28.000  
C21  24334831.603 9                      -162.194          25.000  
C23  25912914.368 9                       862.217          18.000  
G19  22489640.975 4 118183879.05324       654.384          27.000  
> 2021  5 21  6 30  0.0010000  0 14                     
G14  20631960.491 8 108421630.956 5     -1287.161          25.000  
G28  20970250.342 9                       299.958          26.000  
C 7  36163949.990 8 188315148.90824      -800.201          27.000  
G 6  22070786.976 4 115982793.60224       279.990          29.000  
C11  23513100.972 4 122438860.563 5      -484.008          27.000  
C 8  36939373.152 9                     -1237.474          24.000  
C25  23692733.548 9 123374245.87635     -1616.800          29.000  
C10  36363482.864 9                      -361.743          25.000  
C13  36990960.359 9                      -872.066          25.000  
C 3  36816696.848 9                      -865.039          27.000  
G17  22175826.834 4 116534760.35123      -114.840          28.000  
C21  24334857.953 9                      -144.941          22.000  
C23  25912749.237 9                       854.984          16.000  
G19  22489516.886 4 118183224.01024       654.177          27.000  
> 2021  5 21  6 30  1.0010000  0 15                     
G14  20632204.689 9                     -1287.296          26.000  
G28  20970193.821 9                       299.471          26.000  
C 7  36164102.819 4 188315949.87124      -800.311          27.000  
G 6  22070731.083 4 115982513.448 4       280.485          28.000  
C11  23513194.470 4 122439345.327 5      -485.671          26.000  
C 8  36939610.894 9                     -1238.383          23.000  
C25  23693043.254 8 123375863.16724     -1617.907          30.000  
C10  36363553.572 9                      -366.491          25.000  
C13  36991127.567 9                      -871.563          26.000  
G17  22175849.781 4 116534875.77523      -116.669          28.000  
C21  24334884.529 9                      -132.472          23.000  
G 3  22685387.431 9                     -2550.387          22.000  
C24  24971153.897 9                     -3679.092           9.000  
C23  25912584.751 9                       847.331          18.000  
G19  22489391.978 4 118182570.41524       653.176          28.000  
> 2021  5 21  6 30  2.0010000  0 14                     
G14  20632448.922 8 108424250.54635     -1286.263          32.000  
G28  20970135.868 8                       297.900          26.000  
C 7  36164258.091 4 188316750.07525      -799.835          27.000  
G 6  22070680.966 4 115982234.526 3       278.128          32.000  
C11  23513287.427 4 122439833.209 5      -488.353          27.000  
C 8  36939846.891 9                     -1237.607          25.000  
C25  23693355.142 8 123377486.13434     -1620.268          37.000  
C10  36363624.664 9                      -365.784          25.000  
C13  36991294.426 8 192623348.25835      -872.139          34.000  
G17  22175875.154 4 116534993.91323      -118.396          30.000  
C21  24334909.029 9                      -140.829          30.000  
G 3  22685875.392 9                     -2550.387          23.000  
C23  25912421.696 9                       847.331          18.000  
G19  22489268.500 8 118181920.37723       648.039          30.000  
> 2021  5 21  6 30  3.0010000  0 17                     
G14  20632693.853 4 108425538.04123     -1287.417          32.000  
G28  20970077.428 4 110198509.39733       297.282          33.000  
C 7  36164410.501 4 188317549.35024      -798.987          28.000  
G 6  22070629.592 4 115981957.607 2       276.088          34.000  
C11  23513382.723 8 122440323.337 4      -491.126          28.000  
C 8  36940083.097 9 192356674.78335     -1238.917          26.000  
C25  23693668.234 4 123379116.79622     -1621.769          35.000  
C10  36363697.763 9                      -368.509          27.000  
C13  36991464.949 8 192624221.21624      -873.903          30.000  
C 3  36817122.563 9                      -765.656          30.000  
G17  22175895.867 4 116535113.42523      -119.368          34.000  
C 1  37828127.522 9                      -780.570          29.000  
C 2  37509738.719 9                      -748.109          30.000  
C21  24334931.715 9 126718365.58535      -140.084          30.000  
C 4  38757697.376 9                      -782.711          28.000  
C23  25912257.524 9                       851.196          17.000  
G19  22489148.006 8 118181272.86523       646.498          30.000  
> 2021  5 21  6 30  4.0010000  0 18                     
G14  20632939.936 8 108426825.93723     -1287.556          31.000  
G28  20970019.685 4 110198212.93623       296.511          28.000  
C 7  36164565.005 4 188318348.18423      -798.706          28.000  
G 6  22070574.868 4 115981682.988 2       274.227          34.000  
C11  23513476.256 8 122440814.610 4      -491.062          28.000  
C 8  36940322.322 8 192357914.20824     -1239.490          27.000  
C25  23693975.532 4 123380738.87922     -1623.084          32.000  
C10  36363768.786 8 189355654.28534      -369.562          28.000  
C13  36991635.002 8 192625095.47524      -874.813          30.000  
C 3  36817261.345 9                      -752.009          30.000  
G17  22175917.435 4 116535233.28022      -119.617          32.000  
C 1  37828274.802 9                      -777.783          30.000  
C 2  37509883.155 9                      -740.039          29.000  
C21  24334960.979 8 126718503.75023      -136.828          31.000  
G 3  22686850.161 9 119220201.90735     -2548.562          27.000  
C 4  38757845.877 9                      -785.059          28.000  
C23  25912093.143 9                       851.196          13.000  
G19  22489023.831 8 118180626.78323       647.658          31.000  
> 2021  5 21  6 30  5.0010000  0 19                     
G14  20633186.962 8 108428114.83023     -1289.440          30.000  
G28  20969959.534 4 110197916.51423       297.300          28.000  
C 7  36164719.195 4 188319147.46523      -799.304          29.000  
G 6  22070521.959 8 115981410.660 2       272.865          32.000  
C11  23513571.988 4 122441304.440 4      -488.692          28.000  
C 8  36940559.924 8 192359153.64623     -1238.919          28.000  
C25  23694291.468 4 123382363.41322     -1625.807          33.000  
C10  36363839.337 8 189356022.96224      -368.355          27.000  
C13  36991794.374 8 192625971.62924      -876.375          29.000  
C 3  36817407.543 9                      -751.713          30.000  
G17  22175941.220 8 116535350.67123      -116.111          30.000  
C 1  37828421.000 9                      -750.879          30.000  
C 2  37510030.731 9                      -753.857          29.000  
C21  24334985.671 8 126718641.20723      -138.225          32.000  
G 3  22687338.872 9 119222748.83825     -2545.795          27.000  
C 4  38757993.436 9                      -803.906          27.000  
C23  25911930.542 9                       851.196          12.000  
G22  25217451.613 9                     -3847.356          15.000  
G19  22488901.696 8 118179979.39123       647.878          31.000  
> 2021  5 21  6 30  6.0010000  0 19                     
G14  20633432.608 8 108429404.55423     -1290.661          30.000  
G28  20969905.386 4 110197620.10823       296.344          26.000  
C 7  36164870.995 4 188319946.96623      -799.744          29.000  
G 6  22070472.279 4 115981138.972 2       271.161          31.000  
C11  23513666.812 4 122441792.752 3      -487.956          28.000  
C 8  36940799.830 4 192360392.61523     -1238.581          29.000  
C25  23694606.026 4 123383989.07322     -1626.108          33.000  
C10  36363910.429 8 189356391.19624      -368.660          26.000  
C13  36991959.959 8 192626848.21024      -876.671          27.000  
C 3  36817552.799 9                      -753.972          30.000  
G17  22175965.633 8 116535466.22823      -115.122          30.000  
C 1  37828571.246 9                      -815.088          29.000  
C 2  37510175.062 9                      -775.830          29.000  
C21  24335012.317 4 126718778.67022      -137.548          33.000  
C12  23930827.826 9                     -1732.596          25.000  
G 3  22687825.646 9 119225294.74524     -2546.063          28.000  
C 4  38758143.246 9                      -777.100          27.000  
G22  25218182.620 9                     -3847.356          16.000  
G19  22488776.125 4 118179330.25122       648.144          31.000  
> 2021  5 21  6 30  7.0010000  0 19                     
G14  20633673.229 4 108430694.77223     -1290.615          29.000  
G28  20969845.410 8 110197324.03424       295.507          26.000  
C 7  36165024.277 2 188320746.50723      -799.378          29.000  
G 6  22070421.446 8 115980867.562 3       271.627          31.000  
C11  23513755.948 4 122442281.012 3      -488.358          28.000  
C 8  36941038.270 4 192361631.68223     -1239.366          29.000  
C25  23694919.554 4 123385615.12322     -1626.305          33.000  
C10  36363980.911 4 189356759.43524      -367.992          26.000  
C13  36992122.351 8 192627724.88824      -876.417          26.000  
C 3  36817697.932 9 191719379.56935      -752.952          30.000  
G17  22175990.709 8 116535617.68034      -115.148          31.000  
C 1  37828724.093 9                      -784.082          29.000  
C 2  37510320.719 9                      -755.322          29.000  
C21  24335040.325 4 126718916.55022      -137.442          33.000  
C12  23931159.712 9                     -1734.079          26.000  
G 3  22688315.927 8 119227841.21923     -2546.762          28.000  
C 4  38758295.935 9                      -796.484          27.000  
G22  25218912.947 9                     -3847.356          16.000  
G19  22488652.385 8 118178680.996 3       648.840          31.000  
> 2021  5 21  6 30  8.0010000  0 19                     
G14  20633919.016 4 108431985.53223     -1290.999          29.000  
G28  20969787.684 4 110197028.34224       295.720          26.000  
C 7  36165178.555 2 188321546.09823      -799.194          29.000  
G 6  22070370.596 8 115980596.456 3       271.597          31.000  
C11  23513850.179 4 122442769.127 3      -487.722          28.000  
C 8  36941278.559 4 192362870.66823     -1238.965          29.000  
C25  23695233.658 4 123387241.60122     -1626.922          33.000  
C10  36364049.595 9                      -368.062          27.000  
C13  36992293.834 8 192628601.66125      -877.314          26.000  
C 3  36817842.542 8 191720131.91825      -751.514          29.000  
G17  22176011.021 8 116535733.01623      -114.863          30.000  
C 1  37828872.018 9                      -784.277          28.000  
C 2  37510466.516 9                      -754.852          29.000  
C21  24335069.362 4 126719054.82322      -138.104          33.000  
C12  23931494.093 9                     -1732.656          26.000  
G 3  22688803.050 4 119230388.10023     -2546.511          28.000  
C 4  38758442.552 9                      -722.949          27.000  
G22  25219641.493 9                     -3847.356          16.000  
G19  22488530.077 8 118178031.722 2       649.368          31.000  
> 2021  5 21  6 30  9.0010000  0 18                     
G14  20634167.367 4 108433276.69922     -1291.587          29.000  
G28  20969732.158 8 110196732.92225       295.275          26.000  
C 7  36165333.041 2 188322345.15513      -799.750          29.000  
G 6  22070317.862 8 115980325.604 2       269.719          31.000  
C11  23513944.061 4 122443257.032 3      -487.662          28.000  
C 8  36941516.126 2 192364109.63322     -1239.180          29.000  
C25  23695545.406 4 123388868.27922     -1626.711          33.000  
C10  36364119.169 9                      -367.340          27.000  
C13  36992462.473 8 192629428.30135      -877.199          27.000  
C 3  36817986.925 9                      -749.263          29.000  
G17  22176031.316 8 116535848.21923      -114.939          31.000  
C 1  37829022.439 9                      -772.363          29.000  
C 2  37510611.440 9                      -751.318          29.000  
C21  24335095.485 4 126719193.358 2      -138.859          33.000  
C12  23931827.532 9                     -1732.600          27.000  
G 3  22689289.544 4 119232935.43223     -2547.728          28.000  
G22  25220369.639 9                     -3847.356          17.000  
G19  22488403.702 8 118177382.289 3       648.985          31.000  
> 2021  5 21  6 30 10.0010000  0 18                     
G14  20634415.091 4 108434568.71723     -1292.828          29.000  
G28  20969675.532 8 110196438.26325       294.410          26.000  
C 7  36165485.417 4 188323145.058 3      -800.214          30.000  
G 6  22070261.445 8 115980055.273 3       270.299          30.000  
C11  23514039.148 2 122443745.175 2      -488.229          29.000  
C 8  36941755.892 4 192365348.82822     -1239.178          30.000  
C25  23695857.538 4 123390495.69222     -1627.718          34.000  
C10  36364192.896 8 189357848.34035      -368.848          27.000  
C13  36992631.287 4 192630305.24424      -877.083          27.000  
C 3  36818131.640 9 191721640.16935      -752.854          30.000  
G17  22176052.500 8 116535963.56223      -114.901          30.000  
C 1  37829171.028 9                      -775.610          29.000  
C 2  37510756.259 9                      -755.673          30.000  
C21  24335121.730 2 126719332.545 1      -139.975          34.000  
C12  23932160.377 9                     -1733.365          27.000  
G 3  22689775.638 4 119235483.46523     -2548.645          28.000  
G22  25221099.180 9                     -3847.356          17.000  
G19  22488281.551 8 118176733.078 3       648.280          31.000  
> 2021  5 21  6 30 11.0010000  0 18                     
G14  20634661.208 4 108435861.42722     -1292.810          29.000  
G28  20969619.133 4 110196144.15124       294.663          26.000  
C 7  36165639.799 9                      -794.482          30.000  
G 6  22070210.752 8 115979785.460 3       269.846          30.000  
C11  23514134.879 8 122444233.397 4      -486.857          29.000  
C 8  36941989.970 8 192366588.31923     -1238.897          30.000  
C25  23696170.037 4 123392123.63422     -1627.274          34.000  
C10  36364264.093 4 189358217.09624      -369.028          28.000  
C13  36992803.608 8 192631182.44224      -877.250          28.000  
C 3  36818276.127 8 191722392.69124      -751.786          31.000  
G17  22176080.839 4 116536079.09923      -115.613          30.000  
C 1  37829319.547 9 196987164.13835      -775.442          30.000  
C 2  37510901.410 9                      -761.621          31.000  
C21  24335148.603 4 126719472.267 2      -139.309          35.000  
C12  23932494.008 8 124622740.68434     -1733.155          28.000  
G 3  22690260.928 4 119238032.23323     -2549.070          28.000  
G22  25221831.565 9                     -3847.356          17.000  
G19  22488161.633 8 118176083.955 3       649.206          31.000  
> 2021  5 21  6 30 12.0010000  0 19                     
G14  20634906.349 4 108437154.76823     -1293.792          30.000  
G28  20969561.756 4 110195850.64524       292.852          26.000  
C 7  36165790.534 9                      -802.002          30.000  
G 6  22070161.438 4 115979516.082 2       268.643          31.000  
C11  23514224.888 8 122444721.679 4      -489.195          29.000  
C 8  36942230.277 8 192367827.83423     -1239.187          30.000  
C25  23696482.640 4 123393752.10022     -1628.760          34.000  
C10  36364334.574 4 189358585.86523      -369.760          28.000  
C13  36992972.282 4 192632059.79823      -877.599          28.000  
C 3  36818420.633 8 191723145.29323      -752.709          31.000  
G17  22176097.068 8 116536194.57823      -115.218          30.000  
C 1  37829468.083 8 196987939.08625      -775.773          29.000  
C 2  37511047.137 9 195329834.52635      -754.899          30.000  
C21  24335175.424 4 126719612.550 2      -140.534          35.000  
C12  23932830.151 4 124624473.63123     -1732.922          28.000  
G 3  22690747.301 4 119240581.54723     -2549.697          28.000  
G22  25222564.649 9                     -3847.356          16.000  
G 1  24753891.901 9                     -3964.867          11.000  
G19  22488034.927 8 118175434.911 3       648.718          32.000  
> 2021  5 21  6 30 13.0010000  0 18                     
G14  20635150.146 4 108438448.856 3     -1294.220          30.000  
G28  20969506.509 4 110195557.18914       292.984          26.000  
C 7  36165945.405 9 188325536.51735      -799.750          30.000  
G 6  22070108.197 8 115979247.223 3       268.863          31.000  
C11  23514319.293 8 122445210.052 4      -488.530          29.000  
C 8  36942466.570 8 192369067.70423     -1240.335          31.000  
C25  23696795.400 4 123395381.20122     -1629.877          34.000  
C10  36364404.619 4 189358954.93723      -369.272          28.000  
C13  36993140.973 8 192632937.41623      -877.899          29.000  
C 3  36818565.138 8 191723898.04323      -752.723          30.000  
G17  22176117.450 8 116536310.23623      -115.912          29.000  
C 1  37829616.689 8 196988714.09924      -774.495          29.000  
C 2  37511192.131 9 195330590.37524      -755.975          31.000  
C21  24335202.280 2 126719753.424 1      -141.260          35.000  
C12  23933165.196 4 124626206.75323     -1733.327          27.000  
G 3  22691230.131 4 119243131.71223     -2551.011          28.000  
G22  25223296.598 9                     -3847.356          15.000  
G19  22487912.426 4 118174786.017 2       648.927          32.000  
> 2021  5 21  6 30 14.0010000  0 18                     
G14  20635396.543 4 108439743.765 3     -1295.321          29.000  
G28  20969450.441 4 110195264.889 4       292.305          26.000  
C 7  36166097.815 8 188326337.41323      -801.331          30.000  
G 6  22070058.359 8 115978978.930 4       267.539          30.000  
C11  23514413.507 4 122445698.569 3      -488.441          29.000  
C 8  36942704.312 8 192370307.74923     -1240.001          30.000  
C25  23697108.422 4 123397010.86722     -1630.000          34.000  
C10  36364476.061 4 189359324.22523      -369.215          28.000  
C13  36993314.794 4 192633815.31823      -877.937          29.000  
C 3  36818709.591 9 191724650.92035      -752.373          31.000  
G17  22176132.230 4 116536426.02623      -116.101          29.000  
C 1  37829765.417 9                      -773.977          29.000  
C 2  37511336.915 9                      -755.835          30.000  
C21  24335229.363 4 126719894.864 2      -140.993          34.000  
C12  23933496.977 4 124627940.01824     -1733.714          28.000  
G 3  22691713.868 4 119245682.49123     -2550.889          28.000  
G22  25224027.693 9                     -3847.356          15.000  
G19  22487789.489 8 118174137.285 3       648.949          31.000  
> 2021  5 21  6 30 15.0010000  0 17                     
G14  20635647.093 4 108441039.209 3     -1295.965          30.000  
G28  20969396.066 4 110194972.916 4       292.558          27.000  
C 7  36166251.254 8 188327138.24624      -800.916          30.000  
G 6  22070004.368 8 115978710.899 3       268.422          30.000  
C11  23514507.791 4 122446187.072 3      -488.878          29.000  
C 8  36942941.635 8 192371547.846 3     -1239.447          30.000  
C25  23697421.270 4 123398640.975 2     -1631.140          34.000  
C10  36364547.589 4 189359693.52823      -369.198          28.000  
C13  36993482.439 4 192634693.31123      -878.132          29.000  
C 3  36818854.166 9                      -749.681          30.000  
G17  22176154.026 4 116536541.72123      -115.613          29.000  
C 1  37829914.145 8 196990264.51025      -775.303          29.000  
C 2  37511482.153 9                      -754.252          30.000  
C21  24335256.847 4 126720036.730 2      -142.181          34.000  
C12  23933829.107 4 124629673.05524     -1733.267          27.000  
G 3  22692198.443 4 119248233.78723     -2551.609          28.000  
G19  22487665.977 8 118173488.509 3       649.053          32.000  
> 2021  5 21  6 30 16.0010000  0 17                     
G14  20635891.745 8                     -1295.606          30.000  
G28  20969343.611 4 110194681.715 4       291.110          27.000  
C 7  36166408.812 8 188327939.44023      -800.824          30.000  
G 6  22069951.285 8 115978443.405 3       267.508          30.000  
C11  23514600.573 4 122446675.605 3      -488.502          29.000  
C 8  36943180.825 8 192372788.218 3     -1241.309          30.000  
C25  23697734.204 4 123400271.576 2     -1630.235          34.000  
C10  36364618.018 4 189360063.11623      -369.397          28.000  
C13  36993648.460 4 192635571.52823      -877.872          29.000  
C 3  36818999.020 9 191726157.68135      -751.906          30.000  
G17  22176174.250 4 116536657.57423      -115.825          29.000  
C 1  37830063.170 8 196991039.80825      -775.775          30.000  
C 2  37511627.374 9                      -756.636          30.000  
C21  24335284.349 2 126720179.201 2      -143.444          34.000  
C12  23934160.573 4 124631406.28224     -1732.853          27.000  
G 3  22692679.703 4 119250785.79823     -2551.967          28.000  
G19  22487542.551 4 118172839.867 2       649.155          32.000  
> 2021  5 21  6 30 17.0010000  0 17                     
G14  20636137.305 8 108443632.97834     -1296.949          30.000  
G28  20969287.805 4 110194390.807 4       290.775          27.000  
C 7  36166561.275 4 188328740.66823      -801.306          30.000  
G 6  22069900.924 8 115978111.20435       266.883          30.000  
C11  23514694.648 8 122447154.07735      -488.112          29.000  
C 8  36943414.431 8 192374028.465 3     -1239.957          30.000  
C25  23698047.191 4 123401902.636 2     -1631.626          33.000  
C10  36364688.971 4 189360432.70924      -369.838          28.000  
C13  36993816.907 4 192636449.79723      -878.889          30.000  
C 3  36819143.665 8 191726910.50624      -752.134          30.000  
G17  22176198.977 8 116536773.27024      -115.687          29.000  
C 1  37830211.968 9                      -774.928          29.000  
C 2  37511772.193 9 195333610.17635      -756.344          30.000  
C21  24335311.745 4 126720321.955 2      -143.394          34.000  
C12  23934494.169 4 124633139.31023     -1732.971          28.000  
G 3  22693164.592 4 119253338.29623     -2553.040          28.000  
G19  22487419.039 4 118172191.129 3       649.262          32.000  
> 2021  5 21  6 30 19.0010000  0 17                     
G14  20636634.374 8 108446227.98824     -1298.249          30.000  
G28  20969177.799 4 110193810.317 4       290.560          27.000  
C 7  36166870.545 8 188330343.30023      -801.245          30.000  
G 6  22069802.278 8 115977577.79824       266.202          30.000  
C11  23514880.580 4 122448130.87423      -488.304          29.000  
C 8  36943893.370 8 192376509.275 3     -1241.233          30.000  
C25  23698673.340 4 123405165.926 2     -1632.469          33.000  
C10  36364829.951 4 189361171.94923      -369.696          28.000  
C13  36994155.773 8 192638206.48623      -877.098          31.000  
C 3  36819432.606 8 191728416.11624      -752.312          30.000  
G17  22176248.222 8 116537004.590 3      -115.367          30.000  
C 1  37830509.721 8 196993359.19834      -775.173          29.000  
C 2  37512062.390 8 195335121.84224      -756.249          30.000  
C21  24335366.749 4 126720608.768 2      -143.442          34.000  
C12  23935159.808 4 124636605.12324     -1732.371          27.000  
G 3  22694132.486 4 119258444.79123     -2553.570          28.000  
G19  22487169.640 4 118170893.648 2       647.945          32.000  
> 2021  5 21  6 30 20.0010000  0 17                     
G14  20636878.590 8 108447526.09523     -1297.226          30.000  
G28  20969123.773 4 110193520.564 4       290.083          27.000  
C 7  36167024.700 8 188331144.60323      -802.350          30.000  
G 6  22069747.187 8 115977311.44423       265.712          30.000  
C11  23514975.317 4 122448618.95323      -487.532          29.000  
C 8  36944132.612 8 192377749.651 3     -1241.529          30.000  
C25  23698986.554 4 123406798.072 2     -1632.952          32.000  
C10  36364902.108 4 189361541.48523      -369.186          28.000  
C13  36994329.210 8 192639084.91323      -880.149          31.000  
C 3  36819577.024 8 191729168.69524      -752.888          30.000  
G17  22176272.844 8 116537119.985 3      -114.813          29.000  
C 1  37830658.467 8 196994134.10424      -775.178          29.000  
C 2  37512207.437 9                      -756.741          30.000  
C21  24335394.302 4 126720752.664 2      -144.401          34.000  
C12  23935492.060 4 124638337.79124     -1732.520          27.000  
G 3  22694620.062 4 119260998.66323     -2553.825          28.000  
G19  22487048.658 8 118170244.717 3       647.301          31.000  
> 2021  5 21  6 30 21.0010000  0 17                     
G14  20637125.214 4 108448825.11323     -1300.374          30.000  
G28  20969068.665 4 110193231.439 3       288.782          28.000  
C 7  36167175.139 8 188331945.65313      -801.794          30.000  
G 6  22069696.058 8 115977045.59324       265.445          30.000  
C11  23515068.937 4 122449107.27423      -488.126          29.000  
C 8  36944370.825 8 192378990.108 3     -1240.147          30.000  
C25  23699299.838 4 123408430.736 2     -1633.553          32.000  
C10  36364973.688 4 189361910.78513      -369.980          28.000  
C13  36994499.385 8 192639962.91213      -878.363          31.000  
C 3  36819721.669 8 191729921.35223      -752.300          30.000  
G17  22176292.580 4 116537235.616 3      -116.374          30.000  
C 1  37830807.230 8 196994909.19924      -777.106          29.000  
C 2  37512352.483 8 195336632.14535      -755.615          30.000  
C21  24335422.031 2 126720897.162 1      -145.495          34.000  
C12  23935823.684 4 124640070.01113     -1732.708          27.000  
G 3  22695105.492 4 119263553.21624     -2554.107          28.000  
G19  22486923.173 8 118169595.812 3       648.640          31.000  
> 2021  5 21  6 30 22.0010000  0 18                     
G14  20637372.850 8 108450124.22523     -1299.156          30.000  
G28  20969015.442 4 110192942.467 4       288.761          28.000  
C 7  36167330.498 8 188332747.001 3      -801.068          30.000  
G 6  22069649.204 8 115976779.77623       265.421          30.000  
C11  23515163.064 4 122449595.19523      -487.533          29.000  
C 8  36944607.293 8 192380230.430 4     -1240.674          30.000  
C25  23699613.366 4 123410063.564 2     -1633.053          32.000  
C10  36365044.292 4 189362280.353 3      -369.601          28.000  
C13  36994668.478 4 192640841.261 2      -878.204          32.000  
C 3  36819866.104 4 191730673.73523      -752.700          31.000  
G17  22176311.828 8 116537350.810 3      -116.001          30.000  
C 1  37830955.348 9                      -775.343          30.000  
C 2  37512497.145 9 195337385.12435      -756.375          30.000  
C21  24335449.480 4 126721041.717 2      -145.056          34.000  
C 4  38760518.639 9                      -763.184          27.000  
C12  23936155.866 4 124641802.376 4     -1732.779          27.000  
G 3  22695588.375 4 119266108.08524     -2554.600          28.000  
G19  22486799.242 8 118168946.682 3       648.676          31.000  
> 2021  5 21  6 30 23.0020000  0 17                     
G14  20637619.980 8 108451425.25223     -1299.483          30.000  
G28  20968961.853 4 110192653.555 4       289.051          28.000  
C 7  36167485.648 8 188333549.253 3      -801.845          30.000  
G 6  22069601.495 8 115976514.01423       265.001          30.000  
C11  23515255.637 8 122450083.51124      -487.591          30.000  
C 8  36944845.209 8 192381471.958 3     -1240.814          30.000  
C25  23699926.929 4 123411698.436 2     -1634.173          32.000  
C10  36365116.204 4 189362650.271 3      -369.336          28.000  
C13  36994837.047 4 192641720.580 2      -879.006          32.000  
C 3  36820010.731 8 191731426.70623      -751.528          31.000  
G17  22176332.908 8 116537465.991 3      -115.000          30.000  
C 1  37831104.268 9 196996455.13034      -773.702          30.000  
C 2  37512642.383 8 195338141.15824      -754.764          30.000  
C21  24335477.278 4 126721186.786 2      -144.775          34.000  
C12  23936488.991 4 124643536.272 3     -1731.999          27.000  
G 3  22696080.192 4 119268665.96324     -2554.987          28.000  
G19  22486675.345 8 118168296.814 2       649.051          31.000  
> 2021  5 21  6 30 24.0020000  0 17                     
G14  20637867.599 8 108452725.79124     -1301.095          30.000  
G28  20968907.932 4 110192365.755 3       286.925          28.000  
C 7  36167638.529 8 188334350.982 3      -802.382          30.000  
G 6  22069550.314 8 115976249.16523       263.772          31.000  
C11  23515349.188 8 122450571.60523      -488.980          30.000  
C 8  36945085.446 8 192382712.564 3     -1240.364          30.000  
C25  23700240.143 4 123413332.284 2     -1633.809          32.000  
C10  36365185.342 2 189363020.140 3      -370.386          28.000  
C13  36995005.371 4 192642599.251 2      -878.821          33.000  
C 3  36820155.341 8 191732179.24023      -752.769          31.000  
G17  22176354.511 8 116537581.312 3      -116.265          30.000  
C 1  37831252.996 8 196997229.98323      -775.543          30.000  
C 2  37512787.377 9                      -758.545          30.000  
C21  24335505.094 4 126721332.454 2      -146.729          34.000  
C12  23936821.191 4 124645268.683 4     -1733.087          27.000  
G 3  22696562.132 4 119271222.04723     -2556.417          28.000  
G19  22486552.356 4 118167647.816 2       648.396          31.000  
> 2021  5 21  6 30 25.0020000  0 17                     
G14  20638112.722 8 108454027.469 4     -1301.862          31.000  
G28  20968853.312 4 110192078.818 3       287.086          28.000  
C 7  36167792.772 8 188335153.381 3      -803.261          30.000  
G 6  22069503.844 4 115975985.195 2       263.346          35.000  
C11  23515444.396 8 122451060.16024      -489.135          30.000  
C 8  36945325.614 8 192383953.862 3     -1241.127          30.000  
C25  23700553.496 4 123414967.210 3     -1635.849          32.000  
C10  36365255.213 4 189363390.653 3      -370.813          28.000  
C13  36995173.958 4 192643478.640 2      -879.096          33.000  
C 3  36820299.986 8 191732932.24523      -752.718          31.000  
G17  22176382.013 8 116537697.136 3      -115.999          31.000  
C 1  37831401.584 9                      -776.889          30.000  
C 2  37512932.668 9 195339652.75534      -756.106          30.000  
C21  24335533.259 4 126721479.082 2      -147.186          34.000  
C12  23937154.699 4 124647001.541 4     -1733.132          28.000  
G 3  22697052.727 4 119273779.264 3     -2557.544          28.000  
G19  22486430.693 4 118166999.352 2       648.223          32.000  
> 2021  5 21  6 30 26.0020000  0 18                     
G14  20638357.828 8 108455329.795 3     -1302.634          31.000  
G28  20968798.903 4 110191792.487 3       286.811          28.000  
C 7  36167946.578 8 188335955.905 3      -802.885          30.000  
G 6  22069452.994 8 115975721.629 3       263.497          32.000  
C11  23515539.430 8 122451548.68324      -489.097          30.000  
C 8  36945565.589 8 192385195.143 3     -1238.241          30.000  
C25  23700867.251 4 123416602.500 2     -1634.858          32.000  
C10  36365328.399 4 189363761.224 3      -370.306          28.000  
C13  36995343.068 4 192644358.146 2      -878.928          33.000  
C 3  36820444.736 8 191733685.31223      -753.483          30.000  
G17  22176402.953 8 116537812.988 3      -115.470          31.000  
C 1  37831550.574 9 196998779.61135      -773.245          30.000  
C 2  37513077.749 9                      -753.809          30.000  
C21  24335561.545 4 126721626.166 2      -147.711          34.000  
C 4  38761134.283 9                      -815.332          27.000  
C12  23937488.784 4 124648734.344 3     -1732.549          27.000  
G 3  22697540.391 4 119276337.033 3     -2557.498          28.000  
G19  22486307.530 4 118166350.956 2       647.703          32.000  
> 2021  5 21  6 30 27.0020000  0 18                     
G14  20638612.950 8 108456632.672 4     -1303.491          30.000  
G28  20968744.597 4 110191506.576 3       285.904          28.000  
C 7  36168101.676 8 188336758.586 3      -803.983          30.000  
G 6  22069404.657 8 115975458.417 2       262.664          32.000  
C11  23515635.982 8 122452037.174 4      -487.915          30.000  
C 8  36945802.668 8 192386436.688 3     -1240.984          30.000  
C25  23701181.076 4 123418238.334 2     -1636.373          32.000  
C10  36365398.846 4 189364131.917 3      -370.868          27.000  
C13  36995512.039 4 192645237.808 2      -879.439          33.000  
C 3  36820589.032 9                      -752.755          30.000  
G17  22176425.342 4 116537928.784 3      -115.753          30.000  
C 1  37831699.721 9                      -774.498          29.000  
C 2  37513222.760 9 195341163.40735      -756.965          30.000  
C21  24335589.954 4 126721773.643 2      -147.400          34.000  
C 4  38761279.050 9                      -770.605          27.000  
C12  23937821.734 4 124650467.117 4     -1732.488          27.000  
G 3  22698032.226 4 119278895.361 3     -2558.309          28.000  
G19  22486184.418 8 118165702.498 3       648.465          31.000  
> 2021  5 21  6 30 28.0020000  0 18                     
G14  20638859.312 8 108457936.150 3     -1303.627          30.000  
G28  20968691.060 4 110191221.201 4       285.097          27.000  
C 7  36168256.023 8 188337561.319 3      -801.727          30.000  
G 6  22069353.388 8 115975195.583 3       263.513          32.000  
C11  23515728.782 8 122452525.720 4      -487.651          30.000  
C 8  36946039.554 8 192387678.263 3     -1241.447          29.000  
C25  23701495.058 4 123419874.587 2     -1636.137          31.000  
C10  36365469.903 4 189364502.668 3      -370.581          27.000  
C13  36995681.166 4 192646117.624 2      -880.637          33.000  
C 3  36820733.642 9 191735190.85435      -752.969          30.000  
G17  22176445.008 4 116538044.636 3      -115.909          30.000  
C 1  37831848.799 9                      -764.697          29.000  
C 2  37513367.894 9 195341919.51625      -756.114          30.000  
C21  24335618.695 4 126721921.663 2      -148.102          34.000  
C 4  38761425.807 9                      -776.807          27.000  
C12  23938152.381 4                     -1732.917          27.000  
G 3  22698518.179 4 119281454.334 3     -2559.555          28.000  
G19  22486060.731 8 118165054.083 3       649.675          31.000  
> 2021  5 21  6 30 29.0020000  0 19                     
G14  20639106.250 4 108459240.408 3     -1304.643          30.000  
G28  20968636.650 4 110190936.398 3       284.605          28.000  
C 7  36168410.387 8 188338364.379 3      -802.992          30.000  
G 6  22069308.384 8 115974933.297 2       262.092          32.000  
C11  23515823.746 8 122453014.421 3      -489.119          30.000  
C 8  36946276.249 4 192388920.012 3     -1241.671          30.000  
C25  23701808.970 4 123421511.412 2     -1636.508          32.000  
C10  36365540.611 4 189364873.654 3      -370.496          27.000  
C13  36995850.486 4 192646997.613 2      -879.883          33.000  
C 3  36820878.199 8 191735943.94124      -752.717          30.000  
G17  22176467.257 4 116538160.553 3      -115.847          30.000  
C 1  37831997.666 9 197001108.33535      -775.751          30.000  
C 2  37513513.149 8 195342675.62224      -755.333          30.000  
C21  24335647.139 4 126722070.242 2      -148.981          34.000  
C 4  38761573.156 9                      -766.748          27.000  
C12  23938485.941 9                     -1733.248          27.000  
G 3  22699006.855 4 119284013.917 3     -2559.782          28.000  
G19  22485936.782 8 118164405.903 3       647.695          31.000  
G 4  26021982.245 9                       606.075          18.000  
> 2021  5 21  6 30 30.0020000  0 19                     
G14  20639355.003 8 108460545.225 3     -1305.030          30.000  
G28  20968582.642 4 110190652.040 3       284.313          28.000  
C 7  36168564.787 4 188339167.510 3      -802.692          30.000  
G 6  22069255.353 8 115974671.369 2       261.709          32.000  
C11  23515915.761 8 122453503.003 3      -488.076          30.000  
C 8  36946516.975 8 192390161.918 3     -1242.627          30.000  
C25  23702123.144 4 123423148.705 2     -1637.407          32.000  
C10  36365612.157 4 189365244.809 4      -371.497          27.000  
C13  36996019.596 4 192647877.689 2      -879.973          34.000  
C 3  36821022.966 9 191736697.59435      -753.129          31.000  
G17  22176489.646 4 116538276.444 3      -115.572          29.000  
C 1  37832146.150 9                      -772.998          30.000  
C 2  37513658.422 8 195343431.78524      -755.988          30.000  
C21  24335675.583 2 126722219.231 2      -149.536          34.000  
C 4  38761728.027 9                      -811.963          27.000  
C12  23938820.497 8                     -1732.861          27.000  
G 3  22699496.491 4 119286574.069 3     -2560.403          28.000  
G19  22485813.270 4 118163757.541 3       649.433          31.000  
G 4  26021870.093 9                       606.075          20.000  
> 2021  5 21  6 30 32.0020000  0 18                     
G14  20639850.886 4 108463156.780 3     -1306.101          30.000  
G28  20968474.398 4 110190084.900 4       283.820          28.000  
C 7  36168873.551 4 188340774.385 3      -803.685          30.000  
G 6  22069154.159 4 115974148.728 2       261.025          32.000  
C11  23516102.392 8 122454480.346 3      -488.517          30.000  
C 8  36946998.182 4 192392645.989 3     -1241.924          30.000  
C25  23702751.823 4 123426424.802 2     -1638.789          32.000  
C10  36365754.952 4 189365987.323 3      -370.709          27.000  
C13  36996357.903 4 192649638.464 2      -880.919          34.000  
C 3  36821312.204 9                      -753.613          31.000  
G17  22176534.039 8 116538508.427 4      -116.864          30.000  
C 1  37832443.781 9                      -778.801          30.000  
C 2  37513949.282 8                      -756.214          30.000  
C21  24335733.046 4 126722518.763 2      -150.214          34.000  
C12  23939486.380 8 124659154.40934     -1732.098          27.000  
G 3  22700477.734 4 119291696.194 3     -2561.186          29.000  
G19  22485566.663 4 118162461.194 3       649.456          31.000  
G 4  26021636.766 9                       606.075          18.000  
> 2021  5 21  6 30 33.0020000  0 18                     
G14  20640099.551 8 108464463.265 3     -1306.203          30.000  
G28  20968421.018 4 110189801.870 3       282.799          28.000  
C 7  36169027.985 8 188341577.760 3      -803.444          30.000  
G 6  22069104.810 4 115973887.812 2       259.966          32.000  
C11  23516200.340 8 122454968.776 3      -488.461          30.000  
C 8  36947232.853 8 192393888.007 3     -1242.163          30.000  
C25  23703066.310 4 123428063.300 2     -1639.608          32.000  
C10  36365825.783 4 189366358.628 4      -371.942          27.000  
C13  36996527.188 4 192650518.820 2      -880.760          34.000  
C 3  36821456.534 9 191738956.45635      -753.437          31.000  
G17  22176555.782 8                      -116.132          30.000  
C 1  37832592.492 9                      -776.377          30.000  
C 2  37514094.782 9 195345703.70235      -754.898          30.000  
C21  24335761.787 4 126722668.970 2      -150.061          34.000  
C12  23939818.440 4 124660886.94524     -1732.468          27.000  
G 3  22700963.792 8 119294257.936 3     -2562.586          30.000  
G19  22485444.093 8 118161812.839 3       648.906          31.000  
G 4  26021521.629 9                       606.075          17.000  
> 2021  5 21  6 30 34.0020000  0 18                     
G14  20640343.994 8 108465770.517 4     -1307.360          31.000  
G28  20968365.544 4 110189519.489 3       282.313          28.000  
C 7  36169182.594 4 188342381.451 3      -804.074          30.000  
G 6  22069053.558 8 115973627.433 3       259.834          32.000  
C11  23516288.027 8 122455457.384 4      -488.792          30.000  
C 8  36947466.162 4 192395130.259 3     -1242.450          30.000  
C25  23703380.746 8 123429702.410 3     -1639.573          31.000  
C10  36365897.381 4 189366730.097 4      -371.960          27.000  
C13  36996696.367 4 192651399.415 2      -880.804          34.000  
C 3  36821601.284 8 191739709.57824      -753.225          31.000  
G17  22176573.633 8 116538702.50534      -115.410          30.000  
C 1  37832741.499 9 197004980.47535      -774.196          30.000  
C 2  37514239.811 9                      -757.125          30.000  
C21  24335790.754 4 126722819.814 2      -150.806          33.000  
C12  23940151.094 4 124662619.52524     -1732.604          27.000  
G 3  22701452.137 8 119296820.394 4     -2563.189          29.000  
G19  22485320.406 8 118161164.688 3       648.031          31.000  
G 4  26021408.674 9                       606.075          16.000  
> 2021  5 21  6 30 35.0020000  0 18                     
G14  20640600.617 8 108467078.317 4     -1307.808          30.000  
G28  20968313.472 4 110189237.516 3       281.617          28.000  
C 7  36169332.701 8 188343185.172 3      -803.205          30.000  
G 6  22069005.483 4 115973367.295 3       259.270          32.000  
C11  23516386.237 8 122455945.856 3      -488.139          30.000  
C 8  36947706.748 4 192396372.476 2     -1242.384          30.000  
C25  23703695.391 4 123431341.917 2     -1640.346          32.000  
C10  36365967.374 4 189367101.582 4      -371.832          27.000  
C13  36996865.617 4 192652280.028 2      -880.673          34.000  
C 3  36821745.824 8 191740462.62524      -753.307          30.000  
G17  22176593.370 8 116538818.30923      -115.875          30.000  
C 1  37832890.472 8 197005755.85424      -776.662          29.000  
C 2  37514385.049 9 195347215.94834      -756.098          30.000  
C21  24335819.809 4 126722971.017 2      -151.172          33.000  
C12  23940483.101 4 124664351.94124     -1732.331          27.000  
G 3  22701942.104 8 119299383.274 3     -2562.915          29.000  
G19  22485194.415 8 118160516.419 3       647.384          31.000  
G 4  26021292.944 9                       606.075          17.000  
> 2021  5 21  6 30 37.0020000  0 18                     
G14  20641098.000 8 108469696.644 3     -1310.212          31.000  
G28  20968206.311 4 110188675.904 3       279.801          28.000  
C 7  36169647.782 8 188344793.921 4      -804.356          30.000  
G 6  22068907.203 4 115972849.145 3       258.116          32.000  
C11  23516572.274 8 122456923.718 4      -489.270          30.000  
C 8  36948185.286 8 192398858.182 3     -1243.303          30.000  
C25  23704325.396 4 123434623.183 2     -1640.936          32.000  
C10  36366110.082 4 189367845.781 3      -372.418          27.000  
C13  36997204.343 4 192654042.632 2      -881.461          35.000  
C 3  36822035.149 8 191741968.67834      -754.598          31.000  
G17  22176645.057 8 116539050.84624      -117.258          29.000  
C 1  37833189.063 9                      -767.285          30.000  
C 2  37514675.753 8 195348729.04524      -757.565          30.000  
C21  24335877.988 4 126723275.781 2      -153.595          33.000  
C12  23941147.012 4 124667817.64224     -1732.653          27.000  
G 3  22702916.070 4 119304511.793 3     -2565.184          29.000  
G19  22484943.586 8 118159220.816 3       647.500          31.000  
G 4  26021061.851 9                       606.075          16.000  
> 2021  5 21  6 30 38.0020000  0 18                     
G14  20641344.869 8 108471006.777 3     -1310.448          31.000  
G28  20968153.593 4 110188395.870 3       279.835          28.000  
C 7  36169799.704 8 188345598.645 3      -805.579          30.000  
G 6  22068858.535 8 115972590.741 3       257.349          32.000  
C11  23516664.236 8 122457412.725 3      -489.279          30.000  
C 8  36948427.146 4 192400101.289 3     -1243.246          29.000  
C25  23704640.425 4 123436264.612 2     -1641.868          32.000  
C10  36366182.797 4 189368218.094 3      -372.089          27.000  
C13  36997373.959 2 192654924.195 1      -881.691          35.000  
C 3  36822179.706 8 191742722.22524      -754.133          31.000  
G17  22176662.141 8 116539167.08024      -115.659          29.000  
C 1  37833338.053 9                      -775.787          30.000  
C 2  37514821.392 9                      -762.549          30.000  
C21  24335907.356 4 126723428.901 3      -153.693          32.000  
C12  23941477.851 4 124669550.55924     -1733.064          26.000  
G 3  22703402.443 8 119307077.026 3     -2566.636          29.000  
G19  22484820.422 8 118158573.162 3       647.429          32.000  
G 4  26020945.755 9                       606.075          18.000  
> 2021  5 21  6 30 39.0020000  0 19                     
G14  20641595.750 8 108472317.315 3     -1309.748          31.000  
G28  20968101.138 4 110188116.200 3       279.269          29.000  
C 7  36169955.761 8 188346403.219 3      -805.066          30.000  
G 6  22068813.862 8 115972332.499 3       258.719          32.000  
C11  23516758.799 4 122457901.531 3      -488.628          30.000  
C 8  36948664.102 8 192401344.261 4     -1242.493          30.000  
C25  23704955.523 4 123437906.345 2     -1642.344          32.000  
C10  36366252.388 4 189368590.348 3      -372.284          27.000  
C13  36997543.331 4 192655805.673 2      -881.404          35.000  
C 3  36822324.089 8 191743475.62723      -753.650          31.000  
G17  22176683.901 8 116539283.24924      -116.070          29.000  
C 1  37833486.920 9 197008863.14135      -775.932          30.000  
C 2  37514966.456 9                      -756.621          30.000  
C21  24335936.620 4 126723582.340 2      -154.236          33.000  
C12  23941810.033 4 124671282.70714     -1732.814          27.000  
G 3  22703882.533 8 119309642.532 3     -2565.635          30.000  
C22  26955438.381 9                     -2427.547          10.000  
G19  22484703.279 4 118157925.322 2       647.278          32.000  
G 4  26020828.576 9                       606.075          18.000  
> 2021  5 21  6 30 40.0020000  0 18                     
G14  20641846.318 8 108473628.616 3     -1311.991          31.000  
G28  20968049.311 2 110187837.082 3       278.978          29.000  
C 7  36170109.986 8 188347208.011 3      -804.013          30.000  
G 6  22068763.675 4 115972074.839 2       257.086          33.000  
C11  23516851.843 4 122458390.402 3      -488.463          30.000  
C 4  38763216.443 9                      -778.467          27.000  
C 8  36948902.926 8 192402587.471 4     -1241.981          30.000  
C25  23705270.971 4 123439548.575 2     -1642.068          32.000  
C10  36366323.725 4 189368962.826 3      -372.614          27.000  
C13  36997712.808 4 192656687.438 2      -882.078          35.000  
C 3  36822468.699 9 191744226.15035      -753.661          30.000  
G17  22176707.337 8 116539399.43923      -114.977          29.000  
C 1  37833635.945 9                      -773.535          30.000  
C 2  37515111.450 8 195351000.62634      -756.631          30.000  
C21  24335966.198 4 126723736.339 2      -155.072          33.000  
C12  23942143.647 4 124673015.391 4     -1732.435          27.000  
G 3  22704370.441 8 119312208.752 4     -2566.065          30.000  
G19  22484579.208 4 118157277.595 2       647.819          32.000  
> 2021  5 21  6 30 41.0020000  0 18                     
G14  20642097.025 8 108474940.414 3     -1311.783          31.000  
G28  20967995.599 4 110187558.297 3       279.287          28.000  
C 7  36170264.037 8 188348012.867 3      -803.641          30.000  
G 6  22068713.768 4 115971817.335 2       258.457          33.000  
C11  23516947.314 4 122458879.214 3      -488.365          29.000  
C 4  38763368.277 9                      -793.408          27.000  
C 8  36949141.872 8 192403830.743 3     -1244.183          30.000  
C25  23705586.384 4 123441191.204 3     -1642.384          31.000  
C10  36366396.527 4 189369335.220 4      -372.186          27.000  
C13  36997882.528 2 192657569.180 1      -881.560          35.000  
C 3  36822613.431 8 191744979.59624      -753.964          30.000  
G17  22176733.355 8 116539519.65035      -116.192          29.000  
C 1  37833784.656 9                      -781.028          29.000  
C 2  37515256.251 9 195351752.53735      -755.211          30.000  
C21  24335995.916 4 126723890.615 2      -154.498          33.000  
C12  23942475.585 4 124674747.978 3     -1732.280          27.000  
G 3  22704857.878 8 119314775.514 4     -2567.218          29.000  
G19  22484456.637 4 118156629.766 2       647.692          32.000  
> 2021  5 21  6 30 42.0020000  0 18                     
G14  20642346.232 8 108476252.406 3     -1311.717          31.000  
G28  20967942.341 4 110187279.913 4       278.002          28.000  
C 7  36170415.819 8 188348817.649 4      -805.302          30.000  
G 6  22068664.296 4 115971559.880 2       258.546          32.000  
C11  23517042.662 8 122459367.982 3      -487.869          30.000  
C 4  38763521.595 9                      -820.020          27.000  
C 8  36949381.533 8 192405073.735 3     -1242.206          29.000  
C25  23705901.918 8 123442833.738 3     -1641.401          31.000  
C10  36366467.130 4 189369707.647 4      -372.693          26.000  
C13  36998052.110 4 192658450.632 2      -881.567          34.000  
C 3  36822757.867 9                      -753.662          30.000  
G17  22176758.536 8 116539635.76723      -116.138          30.000  
C 1  37833933.402 9                      -776.651          29.000  
C 2  37515401.577 9                      -757.748          30.000  
C21  24336025.582 4 126724045.119 2      -153.339          33.000  
C12  23942808.483 4 124676480.656 4     -1732.723          26.000  
G 3  22705351.144 4 119317342.740 3     -2567.246          29.000  
G19  22484332.950 4 118155981.988 2       647.805          32.000  
> 2021  5 21  6 30 43.0020000  0 17                     
G14  20642592.280 8 108477564.029 3     -1311.652          31.000  
G28  20967890.217 4 110187002.446 4       276.691          28.000  
C 7  36170574.651 8 188349621.378 4      -803.595          28.000  
G 6  22068612.749 4 115971301.634 2       259.907          35.000  
C11  23517137.364 8 122459859.400 5      -492.651          28.000  
C 8  36949618.280 8 192406317.485 4     -1244.989          27.000  
C25  23706216.075 8 123444475.129 4     -1640.652          25.000  
C10  36366539.392 8                      -373.779          25.000  
C13  36998220.277 9                      -879.717          25.000  
C 3  36822901.988 9                      -766.064          28.000  
G17  22176781.762 8 116539755.17223      -122.337          30.000  
C 1  37834075.028 9                      -666.165          27.000  
C 2  37515545.733 9                      -728.463          27.000  
C21  24336055.561 4 126724200.179 3      -155.896          31.000  
C12  23943142.201 4 124678216.545 4     -1739.922          25.000  
G 3  22705837.324 4 119319913.206 3     -2573.684          29.000  
G19  22484209.699 8 118155337.099 3       642.920          31.000  
> 2021  5 21  6 30 44.0020000  0 15                     
G14  20642843.022 8 108478875.533 3     -1311.219          31.000  
G28  20967836.017 4 110186727.141 3       274.162          28.000  
C 7  36170722.035 4 188350425.027 3      -803.361          28.000  
G 6  22068563.085 4 115971041.134 2       260.833          33.000  
C11  23517229.309 9                      -497.276          27.000  
C 8  36949857.767 4 192407562.279 4     -1245.406          27.000  
C25  23706524.804 8 123446113.142 4     -1635.477          27.000  
C10  36366612.630 9                      -376.571          24.000  
C13  36998386.246 9                      -876.242          25.000  
C 3  36823046.179 9                      -744.512          28.000  
G17  22176801.743 8 116539880.56624      -128.255          29.000  
C21  24336085.610 4 126724358.433 3      -160.168          31.000  
C12  23943476.616 4 124679959.758 5     -1746.332          25.000  
G 3  22706328.303 8 119322490.621 3     -2580.083          30.000  
G19  22484087.740 8 118154696.693 3       637.730          30.000  
> 2021  5 21  6 30 45.0020000  0 18                     
G14  20643093.136 8 108480187.452 3     -1312.104          31.000  
G28  20967782.794 4 110186453.611 5       272.920          28.000  
C 7  36170880.727 8 188351229.080 4      -804.436          27.000  
G 6  22068515.464 8 115970777.907 3       266.854          33.000  
C11  23517327.728 9                      -499.115          26.000  
C 4  38763971.793 9                      -809.109          27.000  
C 8  36950095.980 8 192408808.145 4     -1245.620          27.000  
C25  23706845.295 8 123447747.835 5     -1631.327          31.000  
C10  36366684.106 9                      -376.626          24.000  
C13  36998555.426 9                      -870.768          28.000  
C 3  36823188.887 9                      -739.390          28.000  
G17  22176827.272 8 116540011.61924      -132.784          29.000  
C 2  37515827.310 9                      -712.000          28.000  
C21  24336118.068 8 126724520.550 3      -164.954          31.000  
C12  23943813.336 4 124681710.388 4     -1754.231          25.000  
G 3  22706817.520 8 119325075.482 4     -2588.980          30.000  
G 2  24671920.795 9                      1052.609          14.000  
G19  22483968.433 8 118154060.050 3       635.854          31.000  
> 2021  5 21  6 30 46.0020000  0 17                     
G14  20643344.768 8 108481499.814 3     -1311.995          32.000  
G28  20967731.228 4 110186181.512 5       272.053          28.000  
C 7  36171037.919 8 188352033.781 4      -804.974          28.000  
G 6  22068463.200 8 115970511.688 4       267.963          33.000  
C11  23517425.554 9                      -500.950          27.000  
C 8  36950336.618 4 192410054.479 4     -1246.672          27.000  
C25  23707160.027 8                     -1628.914          31.000  
C10  36366756.647 9                      -376.860          25.000  
C13  36998720.401 8 192662014.12835      -871.376          29.000  
C 3  36823331.072 9                      -738.135          28.000  
G17  22176855.228 8 116540147.08023      -137.920          31.000  
C 2  37515971.798 9                      -728.223          28.000  
C21  24336149.845 9                      -178.862          26.000  
C12  23944148.869 4 124683467.687 5     -1760.029          25.000  
G 3  22707313.229 8 119327667.324 4     -2595.548          30.000  
G 2  24671720.588 9                      1068.220          15.000  
G19  22483850.033 9                       633.289          32.000  
> 2021  5 21  6 30 47.0020000  0 17                     
G14  20643592.492 8 108482812.281 3     -1312.773          31.000  
G28  20967678.302 4 110185910.309 4       270.295          28.000  
C 7  36171188.165 4 188352838.710 3      -804.883          28.000  
G 6  22068411.897 8 115970242.113 3       271.548          33.000  
C11  23517523.398 9                      -503.746          28.000  
C 8  36950578.025 4 192411300.838 3     -1246.644          28.000  
C25  23707474.270 8                     -1626.663          31.000  
C10  36366831.508 9                      -377.350          27.000  
C13  36998887.504 8 192662884.06124      -869.325          31.000  
C 3  36823472.157 9 191749451.03935      -736.825          29.000  
G17  22176878.053 8 116540286.01423      -141.133          31.000  
C 2  37516111.033 9                      -725.049          29.000  
C21  24336187.328 9                      -178.862          22.000  
C12  23944486.286 4 124685230.615 5     -1765.760          26.000  
G 3  22707807.262 8 119330265.175 3     -2600.275          29.000  
G 2  24671521.569 9                      1080.601          18.000  
G19  22483730.482 9                       629.232          32.000  
> 2021  5 21  6 30 48.0020000  0 17                     
G14  20643843.007 8 108484125.104 3     -1313.773          31.000  
G28  20967626.597 4 110185639.512 4       269.803          28.000  
C 7  36171342.338 8 188353644.116 3      -805.693          29.000  
G 6  22068359.441 8 115969970.202 3       270.975          34.000  
C11  23517619.513 9                      -498.383          28.000  
C 8  36950817.162 8 192412546.902 4     -1244.247          29.000  
C25  23707783.924 8 123452630.951 4     -1625.217          32.000  
C10  36366903.543 8 189371981.09635      -377.393          28.000  
C13  36999056.789 9                      -869.467          31.000  
C 3  36823613.556 8 191750187.31024      -735.613          30.000  
G17  22176904.228 8 116540426.83824      -139.650          31.000  
C 2  37516251.525 9                      -723.096          30.000  
C21  24336216.818 9                      -178.862          14.000  
C12  23944827.351 4 124686997.219 4     -1767.446          26.000  
G 3  22708299.585 4 119332867.528 4     -2604.034          29.000  
G 2  24671319.792 9                      1084.571          20.000  
G19  22483605.887 9                       635.257          31.000  
> 2021  5 21  6 30 49.0020000  0 17                     
G14  20644094.308 8 108485439.032 3     -1315.525          31.000  
G28  20967574.159 8 110185368.608 4       269.838          30.000  
C 7  36171501.135 8 188354450.576 3      -807.080          31.000  
G 6  22068310.598 8 115969696.416 4       273.878          36.000  
C11  23517716.415 9                      -498.582          32.000  
C 8  36951056.056 9                     -1244.883          29.000  
C25  23708096.597 9                     -1622.957          35.000  
C10  36366975.769 8 189372358.23123      -376.733          30.000  
C13  36999224.939 9                      -867.559          32.000  
C 3  36823755.007 8 191750924.28024      -737.007          31.000  
G17  22176934.609 8 116540566.33913      -139.703          35.000  
C 2  37516392.138 9 195357667.62035      -728.555          31.000  
C21  24336249.904 9                      -178.862          10.000  
C12  23945167.228 4 124688764.612 4     -1767.996          26.000  
G 3  22708797.090 8 119335471.915 3     -2605.279          31.000  
G 2  24671116.270 9                      1073.248          20.000  
G19  22483488.726 9                       637.709          32.000  
> 2021  5 21  6 30 50.0020000  0 14                     
G14  20644339.692 8 108486753.805 3     -1314.755          32.000  
G28  20967523.361 8 110185097.241 3       270.762          32.000  
C 7  36171652.079 8 188355258.038 3      -807.817          31.000  
G 6  22068257.131 9 115969473.35435       277.466          36.000  
C11  23517812.042 9                      -499.428          31.000  
C 8  36951292.803 9 192415046.51035     -1243.247          29.000  
C25  23708406.391 8 123455870.65334     -1620.112          35.000  
C10  36367047.891 8 189372734.43024      -375.873          31.000  
C13  36999387.627 9                      -864.709          31.000  
C 3  36823896.790 8 191751661.64134      -736.648          31.000  
G17  22176961.133 4 116540704.767 2      -137.905          35.000  
C 2  37516531.095 9 195358395.31725      -726.041          30.000  
G 2  24670910.636 9                      1101.794          20.000  
G19  22483367.500 9                       639.325          33.000  
> 2021  5 21  6 30 51.0020000  0 15                     
G14  20644592.913 8 108488069.820 2     -1316.688          32.000  
G28  20967469.754 8 110184825.835 3       272.166          34.000  
C 7  36171809.847 8 188356066.642 3      -809.362          31.000  
G 6  22068201.988 8 115969196.48523       277.369          37.000  
C11  23517913.323 9                      -508.177          31.000  
C 8  36951534.157 8 192416290.31324     -1243.553          28.000  
C25  23708717.843 8 123457491.55822     -1620.849          36.000  
C10  36367119.943 8 189373110.17123      -375.470          31.000  
C13  36999553.143 9 192666350.63834      -863.036          31.000  
C 3  36824038.626 8 191752399.59623      -737.257          30.000  
G17  22176983.626 4 116540842.420 2      -137.030          34.000  
C 2  37516671.831 8 195359122.32424      -725.913          30.000  
G 3  22709792.538 9                     -2613.029          31.000  
G 2  24670708.354 9                      1079.136          20.000  
G19  22483251.438 9                       634.180          33.000  
> 2021  5 21  6 30 52.0020000  0 16                     
G14  20644844.545 4 108489386.826 2     -1317.130          32.000  
G28  20967421.051 4 110184554.138 2       272.262          33.000  
C 7  36171966.428 8 188356876.100 3      -809.073          31.000  
G 6  22068151.888 9                       274.372          25.000  
C11  23518005.442 9                      -494.279          30.000  
C 8  36951768.810 8 192417533.18824     -1242.360          29.000  
C25  23709029.556 4 123459111.91221     -1620.464          36.000  
C10  36367191.419 8 189373485.18623      -374.823          31.000  
C13  36999716.616 8 192667214.90624      -865.219          32.000  
C 3  36824180.583 4 191753138.58323      -738.641          31.000  
G17  22177010.988 8 116540978.241 2      -135.298          33.000  
C 2  37516811.886 8 195359849.09923      -726.282          31.000  
G 3  22710294.563 9                     -2608.975          29.000  
C12  23946187.455 9                     -1767.879          26.000  
G 2  24670508.496 9                      1081.637          23.000  
G19  22483127.943 9                       644.848          34.000  
> 2021  5 21  6 30 53.0020000  0 14                     
G14  20645094.659 4 108490704.788 2     -1317.676          35.000  
G28  20967368.212 4 110184282.212 2       272.547          34.000  
C 7  36172120.531 4 188357686.266 2      -808.964          32.000  
G 6  22068097.287 9                       281.985          24.000  
C11  23518107.683 9                      -497.949          34.000  
C 8  36952011.351 8 192418775.37124     -1241.033          32.000  
C25  23709342.525 8 123460732.65223     -1618.833          33.000  
C10  36367263.646 8 189373859.51424      -373.492          32.000  
C13  36999884.068 8 192668078.91422      -862.491          33.000  
C 3  36824322.698 4 191753878.57923      -739.008          33.000  
G17  22177038.699 8 116541112.150 3      -132.706          35.000  
C 2  37516951.523 4 195360576.27223      -725.766          32.000  
G 2  24670314.956 9                      1088.379          31.000  
G19  22482999.352 9                       646.294          33.000  
> 2021  5 21  6 30 54.0020000  0 15                     
G14  20645344.598 4 108492023.520 2     -1319.281          33.000  
G28  20967317.903 4 110184010.425 2       271.200          33.000  
C 7  36172275.471 4 188358497.035 2      -811.382          31.000  
G 6  22068047.885 9                       250.735          20.000  
C11  23518198.110 9                      -504.199          32.000  
C 8  36952248.063 8 192420017.18823     -1241.345          31.000  
C25  23709652.092 8 123462352.70023     -1618.614          36.000  
C10  36367336.483 8 189374233.58423      -374.738          31.000  
C13  37000049.374 8 192668942.51822      -864.117          33.000  
C 3  36824464.603 4 191754618.79323      -740.292          32.000  
G17  22177064.177 9 116541258.18035      -135.028          33.000  
C 2  37517091.386 8 195361302.93124      -727.405          31.000  
G30  24141677.763 9                     -3430.791          30.000  
G 2  24670118.606 9                      1083.987          30.000  
G19  22482873.466 9 118148297.29535       645.499          32.000  
> 2021  5 21  6 30 56.0020000  0 19                     
G14  20645848.927 4 108494663.583 2     -1320.462          36.000  
G28  20967214.964 4 110183468.671 2       270.915          33.000  
C 7  36172588.074 8 188360120.253 3      -811.400          32.000  
G 6  22067947.442 9                       291.633          18.000  
C11  23518417.128 9                      -487.762          27.000  
C 8  36952726.722 8 192422501.12823     -1242.272          32.000  
C25  23710275.083 4 123465591.36022     -1618.365          42.000  
C10  36367479.295 8 189374982.35823      -373.901          31.000  
C13  37000380.771 4 192670668.07722      -862.178          34.000  
C 3  36824748.797 4 191756098.73422      -740.833          34.000  
G17  22177123.263 9                      -131.133          36.000  
G 3  22712277.100 9                     -2606.982          30.000  
C 2  37517370.956 9                      -716.602          28.000  
C21  24336489.548 9                      -124.720          13.000  
C24  25010093.238 9                     -3668.994          35.000  
G30  24142983.912 9                     -3432.488          22.000  
G 2  24669706.222 8                      1085.190          29.000  
G22  25254923.356 9                     -3830.798          15.000  
G19  22482652.407 9                       631.581          25.000  
> 2021  5 21  6 30 57.0020000  0 17                     
G14  20646099.512 2 108495985.449 1     -1322.766          36.000  
G28  20967163.800 4 110183198.438 2       269.980          33.000  
C 7  36172745.318 8 188360933.109 3      -814.101          31.000  
G 6  22067890.554 9                       278.491          21.000  
C11  23518516.856 9                      -486.212          26.000  
C 8  36952962.963 8 192423743.140 3     -1242.120          32.000  
C25  23710586.028 4 123467211.57712     -1620.839          40.000  
C10  36367551.312 4 189375356.745 3      -374.518          31.000  
C13  37000546.409 4 192671531.85422      -864.799          33.000  
C 3  36824891.610 4 191756840.40822      -742.545          34.000  
G17  22177138.061 9 116541646.97535      -132.666          36.000  
C21  24336515.898 9                      -124.720          11.000  
C24  25010795.487 9 130237743.22034     -3670.808          34.000  
G30  24143637.230 9                     -3432.488          19.000  
G 2  24669502.875 8 129639112.37934      1081.995          32.000  
G22  25255656.684 9                     -3898.791          16.000  
G19  22482563.376 9                       611.171          26.000  
> 2021  5 21  6 30 58.0020000  0 19                     
G14  20646351.755 4 108497308.412 2     -1323.023          37.000  
G28  20967112.705 4 110182928.545 2       270.028          33.000  
C 7  36172900.328 8 188361746.236 4      -811.556          31.000  
G 6  22067833.492 9 115967247.59735       275.863          36.000  
C11  23518602.694 9                      -483.771          23.000  
C 8  36953199.780 4 192424985.273 2     -1241.700          33.000  
C25  23710896.973 8 123468835.037 3     -1624.497          42.000  
C10  36367622.981 8 189375731.143 4      -374.329          31.000  
C13  37000713.338 4 192672397.21422      -865.883          36.000  
C 3  36825034.405 4 191757583.74622      -743.121          34.000  
G17  22177170.902 9 116541778.20625      -136.129          32.000  
C21  24336540.625 9                      -124.720          10.000  
C12  23948286.368 9                     -1710.449          30.000  
C 4  38765998.322 9                      -751.750          28.000  
C24  25011503.582 8 130241416.58423     -3673.631          37.000  
G30  24144311.402 9                     -3435.619          21.000  
G 2  24669295.619 9                      1078.966          27.000  
G22  25256391.460 9                     -3881.213          16.000  
G19  22482464.713 9                       611.945          25.000  
> 2021  5 21  6 30 59.0020000  0 19                     
G14  20646603.108 2 108498632.176 1     -1323.955          37.000  
G28  20967060.547 4 110182659.034 2       270.019          33.000  
C 7  36173058.637 8 188362559.294 3      -811.677          30.000  
G 6  22067779.378 8 115966974.04322       271.969          38.000  
C11  23518662.443 9                      -489.355          31.000  
C 1  37836507.047 9                      -789.203          29.000  
C 8  36953438.970 4 192426227.736 2     -1242.976          33.000  
C25  23711210.624 4 123470461.454 1     -1628.870          36.000  
C10  36367694.771 8 189376105.476 4      -374.603          31.000  
C13  37000879.516 4 192673264.63023      -868.207          32.000  
C 3  36825176.973 9                      -735.645          30.000  
G17  22177207.408 9                      -127.096          38.000  
G 3  22713766.912 9                     -2608.398          30.000  
C 4  38766142.914 9                      -752.197          27.000  
C24  25012211.520 9                     -3671.859          21.000  
G30  24144978.681 9                     -3443.963          22.000  
G 2  24669091.067 8                      1073.318          27.000  
G22  25257126.097 9                     -3844.348          17.000  
G19  22482325.093 9                       621.568          23.000  
> 2021  5 21  6 31  1.0020000  0 17                     
G14  20647107.803 2 108501281.642 1     -1326.494          37.000  
G28  20966959.178 8 110182121.213 3       268.254          33.000  
C 7  36173366.685 9                      -813.314          31.000  
G 6  22067676.998 4 115966437.37021       263.354          39.000  
C11  23518846.456 8 122468791.26834      -488.121          30.000  
C 1  37836792.864 9                      -769.564          30.000  
C 8  36953918.031 4 192428713.853 2     -1242.837          35.000  
C25  23711834.818 4 123473725.940 2     -1636.674          36.000  
C10  36367838.718 9 189376847.85035      -375.116          31.000  
C13  37001214.473 4 192675006.79722      -874.900          35.000  
G17  22177236.271 9 116542162.96034      -125.144          35.000  
G 3  22714757.631 9                     -2607.275          30.000  
C12  23949244.960 9                     -1750.417          26.000  
C24  25013643.363 9 130252573.04335     -3704.316          34.000  
G30  24146296.068 9                     -3452.185          19.000  
G 2  24668687.008 9 129634824.86235      1062.631          29.000  
G22  25258593.328 9                     -3844.348          17.000  
> 2021  5 21  6 31  2.0020000  0 16                     
G14  20647360.186 2 108502607.392 1     -1326.276          37.000  
G28  20966902.797 8 110181853.352 3       267.819          33.000  
C 7  36173523.755 9                      -811.093          30.000  
G 6  22067627.317 2 115966176.38621       258.634          39.000  
C11  23518951.907 9                      -483.451          22.000  
C 1  37836938.364 9                      -688.477          27.000  
C 8  36954156.349 4 192429958.247 2     -1244.713          32.000  
C25  23712150.126 2 123475365.973 1     -1642.506          37.000  
C10  36367911.345 8 189377222.83824      -375.421          31.000  
C13  37001383.356 4 192675883.06622      -878.584          35.000  
G17  22177263.720 8 116542306.99035      -122.329          34.000  
G 3  22715255.346 9                     -2589.384          30.000  
C24  25014350.969 9                     -3700.095          25.000  
G30  24146954.430 9                     -3471.101          18.000  
G 2  24668481.479 9                      1052.625          28.000  
G22  25259327.267 9                     -3844.348          17.000  
> 2021  5 21  6 31  4.0020000  0 16                     
G14  20647863.136 8 108505260.619 3     -1326.890          29.000  
G28  20966804.831 8 110181319.281 3       265.549          32.000  
C 7  36173831.978 9                      -807.722          20.000  
G 6  22067531.341 2 115965669.27621       249.315          38.000  
C11  23519150.473 9                      -493.949          18.000  
C 8  36954634.677 2 192432449.215 1     -1246.484          36.000  
C25  23712783.586 4 123478661.627 2     -1650.627          37.000  
C10  36368054.926 8 189377973.56922      -376.080          34.000  
C13  37001722.082 4 192677645.14611      -883.339          37.000  
G17  22177304.449 4 116542546.38122      -118.463          35.000  
G 3  22716236.520 9                     -2585.045          29.000  
C12  23950247.982 9                     -1734.331          25.000  
G30  24148275.359 9                     -3479.060          21.000  
G 2  24668083.405 9                      1043.101          27.000  
G22  25260798.059 9                     -3844.348          20.000  
G19  22481705.541 9                       643.364          19.000  
> 2021  5 21  6 31  5.0020000  0 16                     
G14  20648118.153 8 108506588.157 3     -1328.289          30.000  
G28  20966753.423 8 110181053.275 3       265.331          32.000  
C 7  36173996.760 9                      -812.648          27.000  
G 6  22067483.737 2 115965420.04221       247.979          40.000  
C11  23519245.752 9                      -493.949          16.000  
C 8  36954873.884 4 192433695.444 2     -1246.050          35.000  
C25  23713101.285 2 123480314.053 1     -1653.534          37.000  
C10  36368127.745 4 189378349.25521      -375.824          35.000  
C13  37001891.384 2 192678529.421 1      -885.272          38.000  
G17  22177327.849 4 116542664.57822      -117.986          35.000  
G 3  22716727.202 9 119377212.60535     -2584.596          31.000  
C12  23950578.454 9                     -1735.544          26.000  
G30  24148935.291 9 126903510.93135     -3467.720          33.000  
G 2  24667884.332 9                      1040.680          25.000  
G22  25261531.439 9                     -3844.348          20.000  
G19  22481583.267 9                       646.233          21.000  
> 2021  5 21  6 31  6.0020000  0 16                     
G14  20648365.964 8 108507916.226 5     -1328.525          27.000  
G28  20966705.889 4 110180787.836 2       265.702          34.000  
C 7  36174153.394 9                      -812.648          21.000  
G 6  22067436.796 1 115965172.59521       246.721          40.000  
C11  23519350.139 9                      -494.669          17.000  
C 8  36955113.388 4 192434942.209 2     -1246.658          34.000  
C25  23713418.879 1 123481968.385 1     -1654.970          39.000  
C10  36368202.240 4 189378725.25222      -376.611          30.000  
C13  37002062.431 2 192679414.824 1      -885.911          35.000  
G17  22177349.121 2 116542782.27021      -117.966          36.000  
G 3  22717220.345 8 119379796.02824     -2582.369          26.000  
G30  24149594.665 8 126906978.27123     -3468.246          30.000  
G 2  24667681.352 9                      1039.502          25.000  
G22  25262264.156 9                     -3844.348          21.000  
G 1  24794547.576 9                     -3916.747          20.000  
G19  22481459.667 9                       650.376          21.000  
> 2021  5 21  6 31  8.0020000  0 18                     
G14  20648873.434 9                     -1330.383          25.000  
G28  20966602.444 4 110180258.216 2       264.363          35.000  
C 7  36174460.657 9                      -809.288          25.000  
G 6  22067342.791 2 115964677.74411       246.777          36.000  
C11  23519542.335 9                      -494.669          14.000  
C 8  36955591.996 4 192437435.755 3     -1247.374          31.000  
C25  23714054.276 2 123485277.840 2     -1655.384          35.000  
C10  36368342.558 8 189379477.64823      -376.599          33.000  
C13  37002402.292 2 192681185.622 1      -886.279          36.000  
G17  22177392.869 4 116543017.57422      -117.833          35.000  
G 3  22718201.309 8 119384964.58524     -2583.055          33.000  
C12  23951572.575 9                     -1738.236          24.000  
G30  24150914.408 8 126913911.43734     -3467.830          31.000  
G 2  24667279.421 9                      1040.226          24.000  
C23  25901900.297 9                       816.839          23.000  
G22  25263736.693 9                     -3854.479          21.000  
G 1  24796056.810 9                     -3938.231          19.000  
G19  22481210.408 9                       648.702          23.000  
> 2021  5 21  6 31  9.0020000  0 17                     
G14  20649130.161 9                     -1329.933          26.000  
G28  20966553.129 4 110179994.297 2       263.418          34.000  
C 7  36174614.620 8 188370679.10435      -809.447          27.000  
G 6  22067295.554 2 115964432.060 1       245.823          34.000  
C11  23519636.514 9                      -494.669          12.000  
C 8  36955831.552 4 192438682.869 3     -1246.985          32.000  
C25  23714372.446 4 123486934.235 2     -1656.719          33.000  
C10  36368415.465 4 189379853.58212      -376.416          32.000  
C13  37002572.414 2 192682071.831 1      -885.627          35.000  
G17  22177416.008 2 116543134.98721      -117.540          37.000  
G 3  22718692.236 8 119387549.04424     -2583.967          30.000  
G30  24151573.886 8 126917378.26923     -3465.809          31.000  
G 2  24667085.095 9                      1036.100          25.000  
C23  25901751.237 9                       816.386          25.000  
G22  25264466.583 9                     -3854.479          28.000  
G 1  24796808.269 9                     -3938.231          18.000  
G19  22481086.058 9                       652.589          22.000  
> 2021  5 21  6 31 11.0020000  0 16                     
G14  20649646.478 9                     -1331.742          25.000  
G28  20966454.745 4 110179467.913 2       263.115          34.000  
C 7  36174926.822 4 188372299.03823      -810.194          28.000  
G 6  22067202.143 2 115963942.505 1       244.386          34.000  
C 8  36956310.613 4 192441177.511 2     -1246.683          32.000  
C25  23715008.751 4 123490248.955 2     -1658.262          34.000  
C10  36368557.963 8 189380606.733 2      -376.611          32.000  
C13  37002912.257 4 192683845.114 2      -886.908          34.000  
G17  22177461.483 2 116543369.54121      -117.187          37.000  
G 3  22719677.737 8 119392718.61623     -2585.368          30.000  
G30  24152892.861 8 126924311.01723     -3466.744          31.000  
G 2  24666693.058 9                      1036.627          26.000  
C23  25901444.008 9                       815.703          26.000  
G22  25265932.750 9                     -3859.879          28.000  
G 1  24798315.095 9                     -3938.231          18.000  
G19  22480841.284 9                       649.897          21.000  
> 2021  5 21  6 31 12.0020000  0 18                     
G14  20649900.152 9                     -1333.289          25.000  
G28  20966405.117 4 110179205.504 2       261.835          34.000  
C 7  36175082.164 8 188373109.14924      -809.678          29.000  
G 6  22067155.428 2 115963698.336 1       243.531          35.000  
C11  23519924.914 9                      -494.669          11.000  
C 8  36956550.274 4 192442425.092 2     -1248.442          34.000  
C25  23715327.130 4 123491907.040 2     -1658.760          34.000  
C10  36368632.144 4 189380983.453 2      -376.782          32.000  
C13  37003082.589 4 192684731.977 2      -887.363          35.000  
G17  22177484.640 2 116543486.80921      -117.141          37.000  
G 3  22720168.490 8 119395304.28424     -2586.364          30.000  
C12  23952900.903 9                     -1732.074          26.000  
G30  24153553.509 8 126927777.29723     -3466.688          31.000  
G 2  24666496.534 9                      1036.887          26.000  
C23  25901289.853 8 134874781.84435       813.766          27.000  
G22  25266667.300 9 132777232.50335     -3860.466          28.000  
G 1  24799065.699 9                     -3938.231          17.000  
G19  22480716.358 9                       643.577          20.000  
> 2021  5 21  6 31 13.0020000  0 18                     
G14  20650151.889 9                     -1332.861          23.000  
G28  20966355.314 4 110178943.244 2       262.338          34.000  
C 7  36175236.633 4 188373919.31823      -810.051          29.000  
G 6  22067108.941 2 115963453.883 1       244.969          38.000  
C11  23520020.437 9                      -486.212          14.000  
C 8  36956789.656 4 192443672.268 2     -1246.493          33.000  
C25  23715645.614 4 123493564.884 2     -1657.463          34.000  
C10  36368704.911 4 189381360.096 2      -377.161          32.000  
C13  37003252.885 4 192685618.376 2      -884.860          34.000  
G17  22177507.203 2 116543603.43211      -116.974          36.000  
G 3  22720661.441 4 119397890.74523     -2587.456          29.000  
C12  23953233.138 9                     -1732.219          27.000  
G30  24154211.487 4 126931243.66122     -3466.508          34.000  
G 2  24666300.219 9                      1037.874          26.000  
C23  25901132.662 4 134873967.77524       813.753          28.000  
G22  25267402.984 8 132781092.83624     -3859.780          28.000  
G 1  24799817.122 9                     -3938.231          19.000  
G19  22480592.252 9                       649.344          19.000  
> 2021  5 21  6 31 14.0020000  0 18                     
G14  20650404.184 9                     -1332.755          25.000  
G28  20966305.319 4 110178681.428 3       261.882          33.000  
C 7  36175391.940 8                      -815.359          18.000  
G 6  22067062.576 1 115963208.878 1       245.087          41.000  
C11  23520114.371 9                      -489.051          16.000  
C 8  36957029.143 4 192444919.330 2     -1247.161          36.000  
C25  23715964.011 2 123495222.197 1     -1657.772          35.000  
C10  36368778.307 4 189381736.479 2      -376.471          36.000  
C13  37003423.077 4 192686504.375 2      -885.311          28.000  
G17  22177529.818 1 116543720.493 1      -117.260          39.000  
G 3  22721156.347 8                     -2589.252          29.000  
C12  23953568.828 8 124732472.49835     -1733.014          32.000  
G30  24154871.925 8 126934711.50223     -3468.654          30.000  
G 2  24666104.742 8                      1038.341          26.000  
C23  25900967.425 4 134873153.76624       813.689          27.000  
G22  25268141.337 9                     -3860.451          18.000  
G 1  24800569.838 9                     -3938.231          21.000  
G19  22480467.779 9                       645.720          22.000  
> 2021  5 21  6 31 15.0020000  0 19                     
G14  20650657.683 9                     -1334.520          26.000  
G28  20966253.404 4 110178419.544 3       262.363          36.000  
C 7  36175549.341 9                      -810.031          23.000  
G 6  22067016.054 2 115962962.879 1       247.476          39.000  
C11  23520209.614 9                      -491.151          18.000  
C 3  36827500.609 9                      -750.047          28.000  
C 8  36957270.480 4 192446165.886 3     -1247.147          31.000  
C25  23716282.076 4 123496878.787 2     -1655.330          34.000  
C10  36368851.441 4 189382112.957 3      -375.482          30.000  
C13  37003593.287 4 192687389.582 2      -885.176          33.000  
G17  22177552.015 2 116543837.243 1      -118.318          38.000  
G 3  22721647.623 8                     -2591.224          29.000  
C12  23953903.226 8 124734206.29424     -1734.745          30.000  
G30  24155532.835 8                     -3471.661          28.000  
G 2  24665907.589 9                      1034.929          26.000  
C23  25900807.686 9                       814.967          26.000  
G22  25268875.642 9                     -3864.941          28.000  
G 1  24801322.849 9                     -3938.231          21.000  
G19  22480344.982 9                       653.729          20.000  
> 2021  5 21  6 31 16.0020000  0 19                     
G14  20650908.181 8 108521272.89734     -1334.965          28.000  
G28  20966202.118 8 110178156.606 3       264.417          33.000  
C 7  36175702.519 8 188376344.39534      -813.333          35.000  
G 6  22066968.851 4 115962714.243 3       246.226          35.000  
C11  23520303.270 9                      -491.177          19.000  
C 3  36827654.084 9                      -756.152          27.000  
C 8  36957510.490 9                     -1243.320          31.000  
C25  23716599.931 2 123498533.412 2     -1655.174          40.000  
C10  36368923.039 8                      -374.626          32.000  
C13  37003762.327 4 192688272.936 2      -883.615          34.000  
G17  22177573.531 4 116543951.594 2      -113.523          35.000  
G 3  22722143.191 8 119405654.52934     -2591.231          33.000  
C12  23954236.857 9                     -1733.920          29.000  
G30  24156193.500 9                     -3473.237          25.000  
G 2  24665709.756 9                      1038.871          24.000  
C23  25900648.348 9                       816.557          26.000  
G22  25269609.651 9                     -3860.747          27.000  
G 1  24802074.064 9                     -3938.231          21.000  
G19  22480219.620 9                       651.935          21.000  
> 2021  5 21  6 31 17.0020000  0 19                     
G14  20651157.789 8 108522608.59124     -1336.189          30.000  
G28  20966149.401 8 110177893.452 4       263.857          33.000  
C 7  36175857.687 4 188377157.37522      -813.920          32.000  
G 6  22066921.456 4 115962454.78333       246.718          35.000  
C11  23520397.082 9                      -491.177          17.000  
C 3  36827788.346 9                      -696.875          27.000  
C 8  36957747.063 9                     -1244.405          22.000  
C25  23716917.962 4 123500189.433 2     -1656.181          35.000  
C10  36368993.747 8                      -376.509          33.000  
C13  37003929.500 4 192689157.236 2      -886.331          34.000  
G17  22177597.106 8 116544062.558 3      -110.270          37.000  
G 3  22722633.106 8 119408243.59123     -2585.872          33.000  
C12  23954562.932 9                     -1726.532          26.000  
C22  26973019.912 9                     -2412.325          23.000  
G30  24156851.757 9                     -3466.274          22.000  
G 2  24665512.010 9                      1034.872          22.000  
C23  25900479.343 9                       803.110          31.000  
G 1  24802826.866 9                     -3938.231          22.000  
G19  22480096.683 9                       655.043          21.000  
> 2021  5 21  6 31 18.0020000  0 18                     
G14  20651411.009 4 108523945.77622     -1338.530          34.000  
G28  20966106.159 9 110177631.739 5       258.663          36.000  
C 7  36176015.803 4 188377970.38022      -811.340          31.000  
G 6  22066875.178 4 115962211.43922       239.567          37.000  
C11  23520491.470 9                      -493.579          16.000  
C 8  36957991.401 9                     -1252.246          30.000  
C25  23717236.899 8 123501850.790 3     -1665.327          36.000  
C10  36369069.377 9                      -377.100          30.000  
C13  37004102.397 8 192690044.905 3      -888.373          33.000  
G17  22177614.260 8 116544170.354 3      -107.360          35.000  
C 2  37520536.844 9                      -764.047          28.000  
G 3  22723126.529 9                     -2581.683          36.000  
C12  23954893.718 9                     -1722.516          27.000  
G30  24157513.870 9                     -3467.331          18.000  
G 2  24665315.346 9                      1034.563          20.000  
C23  25900329.637 9                       797.323          27.000  
G 1  24803579.355 9                     -3955.236          21.000  
G19  22479972.595 9                       643.278          20.000  
> 2021  5 21  6 31 19.0020000  0 18                     
G14  20651665.050 8 108525283.33423     -1336.955          32.000  
G28  20966053.338 9                       260.336          32.000  
C 7  36176170.639 8 188378782.27023      -811.002          32.000  
G 6  22066830.279 8 115961974.94123       232.812          35.000  
C11  23520587.446 9                      -489.769          18.000  
C 8  36958236.262 9                     -1250.977          30.000  
C25  23717558.105 8 123503518.809 2     -1670.886          36.000  
C10  36369141.394 9                      -395.208          34.000  
C13  37004273.706 4 192690937.303 3      -893.253          34.000  
G17  22177634.170 9                      -118.550          25.000  
C 2  37520684.892 9                      -764.941          30.000  
G 3  22723613.983 8 119413413.54535     -2575.848          33.000  
C12  23955233.683 9                     -1721.532          27.000  
G30  24158174.379 9                     -3471.423          17.000  
G 2  24665120.550 9                      1022.977          21.000  
C23  25900185.952 9                       810.794          31.000  
G 1  24804333.832 9                     -3950.994          21.000  
G19  22479852.415 9                       650.776          19.000  
> 2021  5 21  6 31 20.0020000  0 17                     
G14  20651922.091 4 108526620.61422     -1337.054          35.000  
G28  20966003.098 9 110177094.65934       257.768          31.000  
C 7  36176326.330 9 188379593.07735      -809.432          32.000  
G 6  22066786.234 4 115961744.10223       228.827          35.000  
C11  23520681.643 9                      -503.465          17.000  
C 8  36958474.283 9                     -1248.407          21.000  
C25  23717878.247 8 123505191.838 3     -1675.026          36.000  
C10  36369211.090 9                      -378.882          29.000  
C13  37004445.171 4 192691833.018 3      -897.027          28.000  
G17  22177661.306 9                      -115.671          26.000  
C 2  37520829.886 9                      -761.426          28.000  
G 3  22724103.374 8 119415989.51123     -2575.881          35.000  
C12  23955568.291 9                     -1718.214          32.000  
G30  24158836.108 9                     -3471.423          16.000  
G 2  24664925.997 9                      1022.873          21.000  
G 1  24805084.663 9                     -3938.384          19.000  
G19  22479731.956 9                       631.974          20.000  
> 2021  5 21  6 31 21.0020000  0 17                     
G14  20652175.451 4 108527957.53721     -1337.012          35.000  
G28  20965952.929 8 110176837.08423       257.438          32.000  
C 7  36176481.724 8 188380401.38824      -806.145          32.000  
G 6  22066742.609 4 115961516.03823       226.208          31.000  
C11  23520774.984 9                      -503.465          17.000  
C 8  36958710.489 9                     -1256.690          22.000  
C25  23718200.605 8 123506867.036 3     -1675.041          34.000  
C10  36369280.053 9 189384372.15334      -378.656          29.000  
C13  37004616.864 4 192692730.001 3      -898.077          30.000  
G17  22177688.336 9                      -115.898          32.000  
C 2  37520984.059 9                      -784.717          27.000  
G 3  22724593.342 8 119418564.72122     -2574.126          35.000  
C12  23955894.732 8 124744616.60333     -1716.788          35.000  
G30  24159498.850 9                     -3463.108          15.000  
G 2  24664732.998 9                      1013.882          19.000  
G 1  24805833.975 9                     -3938.384          17.000  
G19  22479611.340 9                       645.793          18.000  
> 2021  5 21  6 31 22.0020000  0 17                     
G14  20652430.364 4 108529294.89522     -1337.383          33.000  
G28  20965906.267 8 110176580.36923       256.297          32.000  
C 7  36176637.467 9                      -804.411          31.000  
G 6  22066697.919 8 115961290.92225       221.649          24.000  
C11  23520859.094 9                      -483.368          27.000  
C 8  36958949.522 9                     -1251.270          25.000  
C25  23718524.132 8 123508545.436 3     -1681.126          30.000  
C10  36369354.356 9 189384750.88625      -378.046          29.000  
C13  37004790.389 8 192693628.749 3      -898.517          31.000  
G17  22177701.703 9 116544608.42635      -111.119          36.000  
C 2  37521138.196 9                      -798.730          27.000  
G 3  22725084.635 4 119421137.81922     -2570.229          32.000  
C12  23956215.363 8 124746332.44624     -1713.593          31.000  
G30  24160158.695 9                     -3463.108          14.000  
G 2  24664540.469 9                      1014.260          18.000  
G 1  24806582.886 9                     -3938.384          13.000  
G19  22479487.095 9                       663.384          18.000  
> 2021  5 21  6 31 23.0020000  0 16                     
G14  20652687.004 4 108530632.53522     -1338.510          34.000  
G28  20965859.064 8 110176324.09022       256.376          33.000  
C 7  36176794.536 9 188382020.15134      -807.028          30.000  
G 6  22066659.040 9                       223.808          25.000  
C11  23520935.212 9                      -492.894          25.000  
C 8  36959186.601 9                     -1251.188          26.000  
C25  23718845.879 8 123510227.414 4     -1683.281          30.000  
C10  36369424.646 8 189385129.85724      -378.479          29.000  
C13  37004962.815 8 192694529.908 3      -901.464          30.000  
G17  22177716.570 9 116544718.41825      -110.687          37.000  
G 3  22725571.915 4 119423707.22322     -2568.627          35.000  
C12  23956544.579 8 124748044.37024     -1710.586          30.000  
G30  24160819.552 9                     -3463.108          14.000  
G 2  24664347.784 9                      1009.218          19.000  
G 1  24807332.914 9                     -3938.384          13.000  
G19  22479360.458 9                       672.781          17.000  
> 2021  5 21  6 31 24.0020000  0 16                     
G14  20652940.922 4 108531970.51322     -1338.038          35.000  
G28  20965808.738 4 110176068.15822       255.938          33.000  
C 7  36176946.842 8 188382826.55523      -806.760          30.000  
G 6  22066625.273 9                       218.405          26.000  
C11  23521012.604 9 122480142.27434      -491.095          31.000  
C 8  36959425.965 9                     -1251.275          27.000  
C25  23719168.080 8 123511911.717 3     -1685.207          31.000  
C10  36369500.589 8 189385508.84623      -379.181          29.000  
C13  37005138.521 8 192695432.474 4      -902.854          30.000  
G17  22177740.023 8 116544810.12434      -106.952          35.000  
G 3  22726060.957 4 119426274.56522     -2567.434          34.000  
C12  23956872.625 8 124749753.65224     -1707.628          30.000  
G30  24161480.881 9                     -3475.160          14.000  
G 2  24664154.977 9                      1003.071          19.000  
G 1  24808076.258 9                     -3907.134          13.000  
G19  22479235.462 9                       680.217          18.000  
> 2021  5 21  6 31 26.0020000  0 16                     
G14  20653451.044 2 108534648.95111     -1340.785          35.000  
G28  20965712.395 8 110175556.65323       255.334          32.000  
C 7  36177255.170 8 188384440.48324      -807.043          30.000  
G 6  22066544.392 9                       223.922          23.000  
C11  23521196.075 9                      -481.609          19.000  
C 8  36959906.335 8 192459887.64635     -1251.688          27.000  
C25  23719814.715 8 123515285.183 3     -1687.325          32.000  
C10  36369641.918 4 189386265.87823      -378.815          28.000  
C13  37005483.267 4 192697240.238 3      -904.281          29.000  
G17  22177780.560 8 116545022.04623      -105.734          35.000  
G 3  22727036.721 4 119431404.64713     -2565.149          33.000  
C12  23957526.432 9 124753095.14735     -1706.003          30.000  
C24  25031379.973 9                     -3710.530          22.000  
G30  24162807.987 9                     -3487.982          18.000  
G 1  24809555.286 9                     -3903.700          17.000  
G19  22478984.441 9                       665.273          20.000  
> 2021  5 21  6 31 27.0020000  0 16                     
G14  20653706.324 4 108535989.911 2     -1341.188          35.000  
G28  20965661.894 8 110175301.40223       254.215          31.000  
C 7  36177413.042 8 188385248.58523      -809.523          30.000  
G 6  22066505.600 9                       215.213          23.000  
C11  23521296.658 9                      -481.609          16.000  
C 8  36960147.445 8 192461138.97225     -1251.470          27.000  
C25  23720139.481 8 123516972.156 3     -1686.362          31.000  
C10  36369717.356 4 189386643.61414      -377.911          28.000  
C13  37005658.695 8 192698144.049 4      -902.278          29.000  
G17  22177801.431 8 116545127.40424      -111.265          30.000  
G 3  22727525.222 4 119433971.172 2     -2567.294          34.000  
C12  23957857.254 9                     -1707.027          28.000  
C24  25032090.442 9                     -3711.433          23.000  
G30  24163473.137 9                     -3487.982          16.000  
G 1  24810295.350 9                     -3900.186          17.000  
G19  22478859.550 9                       677.124          19.000  
> 2021  5 21  6 31 28.0020000  0 16                     
G14  20653961.777 4 108537332.193 2     -1342.402          33.000  
G28  20965613.557 8 110175046.59124       254.685          30.000  
C 7  36177565.801 9                      -808.893          30.000  
G 6  22066463.527 9                       217.737          22.000  
C11  23521396.770 9                      -481.609          15.000  
C 8  36960383.267 8 192462390.14724     -1250.530          27.000  
C25  23720469.308 8 123518658.812 4     -1686.835          25.000  
C10  36369790.298 4 189387022.074 4      -378.125          28.000  
C13  37005834.907 8 192699047.609 4      -902.987          28.000  
G17  22177825.530 9                      -121.008          21.000  
G 3  22728012.118 8 119436539.940 3     -2570.228          30.000  
C12  23958182.665 9                     -1706.262          27.000  
C24  25032804.016 9                     -3714.183          25.000  
G30  24164137.013 9                     -3487.982          14.000  
G 1  24811034.454 9                     -3913.146          18.000  
G19  22478736.910 9                       660.345          20.000  
> 2021  5 21  6 31 29.0020000  0 15                     
G14  20654217.161 4 108538675.433 2     -1342.172          33.000  
G28  20965567.803 8 110174792.24724       254.827          28.000  
C 7  36177725.663 8 188386879.79035      -810.239          28.000  
G 6  22066419.902 9                       229.726          22.000  
C11  23521485.609 9                      -486.970          17.000  
C 8  36960627.064 9                     -1248.824          25.000  
C25  23720795.365 9                     -1698.985          22.000  
C10  36369863.763 9                      -378.732          26.000  
C13  37006004.680 8 192699950.530 4      -902.986          27.000  
G17  22177843.329 9                      -106.104          30.000  
G 3  22728505.000 8 119439110.749 4     -2572.125          31.000  
C12  23958511.934 9                     -1709.111          27.000  
G30  24164796.178 9                     -3480.937          14.000  
G 1  24811775.163 9                     -3900.104          18.000  
G19  22478615.369 9                       649.762          20.000  
> 2021  5 21  6 31 30.0020000  0 17                     
G14  20654470.469 8 108540019.604 3     -1344.217          33.000  
G28  20965519.291 8 110174538.37924       253.090          28.000  
C 7  36177877.148 8 188387690.55125      -811.558          27.000  
G 6  22066379.888 9                       218.915          20.000  
C11  23521574.640 9                      -486.558          29.000  
C 8  36960870.774 9                     -1251.123          25.000  
C25  23721118.369 9                     -1698.985          18.000  
C10  36369934.960 9                      -378.814          25.000  
C13  37006176.896 8                      -901.742          26.000  
G17  22177860.360 9 116545442.04735      -106.610          35.000  
G 3  22728995.037 8 119441684.102 3     -2574.653          34.000  
C12  23958840.277 9                     -1711.380          27.000  
G30  24165454.208 9                     -3480.130          19.000  
G 2  24663020.311 9                      1002.103          21.000  
G22  25279838.393 9                     -3838.804          26.000  
G 1  24812512.278 9                     -3909.691          22.000  
G19  22478459.800 9                       647.779          36.000  
> 2021  5 21  6 31 34.0020000  0 17                     
G14  20655496.507 4 108545401.448 2     -1345.582          35.000  
G28  20965325.821 8 110173527.414 4       253.106          31.000  
C 7  36178501.831 8 188390938.94523      -813.758          31.000  
G 6  22066206.294 9                       233.422          24.000  
C11  23521946.365 8 122484916.09335      -490.061          27.000  
C 8  36961827.901 4 192469903.17033     -1250.337          30.000  
C25  23722414.920 9                     -1685.690          14.000  
C10  36370228.647 8 189389296.56833      -378.943          30.000  
C13  37006864.871 8 192704442.594 3      -893.834          31.000  
G17  22177943.737 8 116545882.29123      -114.879          34.000  
G 3  22730960.717 4 119452015.659 2     -2592.030          34.000  
C12  23960158.972 4 124766805.97132     -1726.152          33.000  
G30  24168091.809 9                     -3479.028          24.000  
G 2  24662253.898 9                      1002.103          14.000  
G22  25282749.089 9                     -3860.686          27.000  
G 1  24815473.004 9                     -3930.639          26.000  
G19  22477965.104 9                       647.849          28.000  
> 2021  5 21  6 31 35.0020000  0 17                     
G14  20655753.566 4 108546747.613 2     -1346.167          34.000  
G28  20965279.420 8 110173276.181 3       250.740          30.000  
C 7  36178659.337 8 188391752.02023      -813.417          31.000  
G 6  22066160.784 9                       234.365          25.000  
C11  23522039.915 9                      -488.614          26.000  
C 8  36962070.808 4 192471152.97322     -1249.573          30.000  
C25  23722737.295 9                     -1667.721          15.000  
C10  36370297.750 8 189389675.47423      -378.735          30.000  
C13  37007039.007 8 192705334.220 4      -893.524          31.000  
G17  22177963.613 8 116545997.44022      -115.626          34.000  
G 3  22731454.889 8 119454610.888 3     -2595.879          35.000  
C21  24337880.592 9                      -184.727          25.000  
C12  23960488.781 8 124768534.06323     -1729.894          32.000  
G30  24168750.362 9                     -3465.969          25.000  
G 2  24662064.318 9                      1002.103          13.000  
G 1  24816231.164 9                     -3941.135          24.000  
G19  22477853.388 9                       641.800          27.000  
> 2021  5 21  6 31 36.0020000  0 19                     
G14  20656008.147 4 108548094.098 2     -1347.285          34.000  
G28  20965230.159 8 110173025.471 3       250.409          30.000  
C 7  36178812.445 8 188392565.26123      -813.190          29.000  
G 6  22066115.064 9                       228.569          24.000  
C11  23522139.661 8 122485891.79834      -489.323          27.000  
C 3  36830552.199 9                      -742.180          28.000  
C 8  36962305.077 4 192472402.76523     -1249.538          29.000  
C25  23723056.704 9                     -1671.630          16.000  
C10  36370375.613 8 189390054.59124      -379.443          29.000  
C13  37007207.855 8 192706224.087 4      -890.028          30.000  
G17  22177986.229 4 116546114.30122      -117.371          34.000  
G 3  22731946.846 4 119457209.662 2     -2599.374          34.000  
C21  24337915.370 9                      -180.446          25.000  
C12  23960822.813 8 124770265.08523     -1731.686          29.000  
G30  24169405.531 9                     -3463.854          24.000  
G 2  24661874.826 9                      1002.103          14.000  
G22  25284235.097 9                     -3865.917          26.000  
G 1  24816974.299 9                     -3936.727          21.000  
G19  22477751.409 9 118121380.34235       645.249          29.000  
> 2021  5 21  6 31 37.0020000  0 19                     
G14  20656264.735 4 108549441.102 2     -1347.636          34.000  
G28  20965179.832 8 110172775.130 4       250.772          30.000  
C 7  36178969.183 4 188393378.65523      -813.103          29.000  
G 6  22066070.391 9                       211.692          23.000  
C11  23522235.602 4 122486381.22324      -489.074          28.000  
C 3  36830699.862 9                      -763.916          29.000  
C 8  36962548.158 4 192473652.51922     -1249.569          28.000  
C25  23723375.659 9                     -1671.630          17.000  
C10  36370446.513 9                      -380.188          28.000  
C13  37007377.384 4 192707113.887 3      -889.828          30.000  
G17  22178006.401 4 116546231.33921      -117.257          35.000  
G 3  22732442.607 4 119459809.382 2     -2599.801          34.000  
C21  24337949.660 9                      -181.343          26.000  
C12  23961156.427 4 124771996.44823     -1731.211          29.000  
G30  24170063.736 9                     -3466.133          23.000  
G 2  24661685.020 9                      1002.103          11.000  
G22  25284979.768 9 132873417.63635     -3865.472          26.000  
G 1  24817720.418 9                     -3948.468          19.000  
G19  22477635.155 9 118120734.61124       645.659          29.000  
> 2021  5 21  6 31 38.0020000  0 18                     
G14  20656521.061 4 108550788.743 2     -1348.285          34.000  
G28  20965127.935 8 110172525.455 4       248.992          30.000  
C 7  36179124.420 4 188394192.24323      -813.862          29.000  
G 6  22066024.113 9                       236.005          22.000  
C11  23522335.976 4 122486870.73324      -489.772          28.000  
C 3  36830847.823 9 191787858.24235      -755.361          30.000  
C 8  36962787.506 4 192474902.48423     -1249.793          28.000  
C25  23723696.848 9                     -1670.523          17.000  
C10  36370516.279 8 189390806.99334      -379.590          29.000  
C13  37007549.548 4 192708003.841 3      -890.280          30.000  
G17  22178030.256 4 116546348.42222      -117.463          35.000  
G 3  22732937.163 4 119462409.716 2     -2600.716          34.000  
C21  24337982.309 9                      -182.403          26.000  
C12  23961485.677 4 124773727.85223     -1731.921          30.000  
G30  24170722.150 9                     -3465.173          23.000  
G22  25285721.332 8 132877284.20525     -3867.130          27.000  
G 1  24818473.569 9                     -3938.379          18.000  
G19  22477518.117 8 118120088.93523       645.249          30.000  
> 2021  5 21  6 31 39.0020000  0 18                     
G14  20656777.649 4 108552137.119 2     -1348.788          35.000  
G28  20965085.880 8 110172276.300 3       248.956          30.000  
C 7  36179282.868 4 188395006.100 3      -813.769          29.000  
G 6  22065977.835 9                       231.129          21.000  
C11  23522426.612 4 122487360.38724      -490.043          28.000  
C 3  36830989.972 9 191788613.05425      -754.970          30.000  
C 8  36963022.543 4 192476152.21812     -1250.557          28.000  
C25  23724016.640 9                     -1672.828          17.000  
C10  36370592.222 8 189391186.53623      -379.663          29.000  
C13  37007720.804 8 192708894.102 3      -891.217          29.000  
G17  22178054.197 4 116546465.65321      -117.284          35.000  
G 3  22733432.174 2 119465010.794 2     -2602.674          34.000  
C21  24338014.365 9                      -182.844          25.000  
C12  23961819.692 8 124775459.35223     -1731.758          30.000  
G30  24171381.820 9                     -3466.073          23.000  
G22  25286458.621 8 132881151.02524     -3866.557          27.000  
G 1  24819222.480 9                     -3943.316          18.000  
G19  22477393.592 8 118119443.38624       646.296          30.000  
> 2021  5 21  6 31 40.0020000  0 18                     
G14  20657034.412 4 108553486.082 2     -1348.816          34.000  
G28  20965040.195 8 110172027.662 4       248.637          30.000  
C 7  36179440.565 8 188395820.103 4      -814.406          29.000  
G 6  22065932.971 9                       233.011          21.000  
C11  23522517.964 4 122487849.98623      -489.477          27.000  
C 3  36831135.577 8 191789367.89524      -755.330          29.000  
C 8  36963266.409 4 192477402.452 2     -1250.341          28.000  
C25  23724335.177 9                     -1667.539          17.000  
C10  36370661.971 4 189391566.11823      -379.108          29.000  
C13  37007891.816 8 192709784.442 3      -890.117          30.000  
G17  22178076.429 2 116546582.86421      -117.201          35.000  
G 3  22733927.376 4 119467612.316 2     -2601.138          34.000  
C21  24338047.922 9                      -183.012          24.000  
C12  23962152.380 8 124777190.28613     -1731.010          30.000  
G30  24172040.200 9                     -3464.330          23.000  
G22  25287194.253 4 132885018.17824     -3867.166          27.000  
G 1  24819974.637 9                     -3942.594          18.000  
G19  22477266.869 8 118118797.87623       646.991          31.000  
> 2021  5 21  6 31 41.0020000  0 18                     
G14  20657291.262 2 108554835.422 1     -1349.980          35.000  
G28  20964994.703 8 110171779.207 4       247.926          30.000  
C 7  36179594.145 4 188396633.856 3      -814.026          29.000  
G 6  22065884.721 9                       231.062          21.000  
C11  23522607.885 4 122488339.29524      -489.440          27.000  
C 3  36831281.496 8 191790122.36824      -754.662          29.000  
C 8  36963504.832 4 192478652.512 2     -1250.221          28.000  
C25  23724653.730 9                     -1673.175          17.000  
C10  36370735.157 4 189391945.57523      -379.785          29.000  
C13  37008061.589 8 192710674.643 3      -890.255          30.000  
G17  22178098.800 2 116546699.77321      -117.125          36.000  
G 3  22734422.438 4 119470214.228 2     -2602.483          35.000  
C21  24338083.486 9                      -183.021          23.000  
C12  23962482.678 8 124778921.370 3     -1730.424          29.000  
G30  24172697.811 9                     -3464.171          23.000  
G22  25287931.123 4 132888885.23524     -3867.672          28.000  
G 1  24820727.492 9                     -3935.650          20.000  
G19  22477149.324 8 118118152.09023       646.257          31.000  
> 2021  5 21  6 31 42.0020000  0 18                     
G14  20657547.919 2 108556185.447 1     -1350.637          35.000  
G28  20964945.388 8 110171531.341 4       247.736          30.000  
C 7  36179750.254 8 188397447.954 3      -815.774          30.000  
G 6  22065835.651 9                       227.925          20.000  
C11  23522698.120 4 122488828.71724      -489.487          27.000  
C 3  36831426.053 9 191790869.12635      -756.551          30.000  
C 8  36963743.795 4 192479902.738 3     -1249.728          29.000  
C25  23724974.727 9                     -1671.625          17.000  
C10  36370808.657 4 189392325.22623      -380.994          30.000  
C13  37008233.980 8 192711565.114 3      -891.570          31.000  
G17  22178121.066 2 116546816.78521      -117.419          35.000  
G 3  22734917.745 2 119472816.755 1     -2602.893          35.000  
C21  24338117.932 9                      -183.943          23.000  
C12  23962812.767 8 124780652.634 3     -1732.138          30.000  
G30  24173355.126 9                     -3474.485          23.000  
G22  25288667.627 4 132892752.66224     -3867.802          28.000  
G 1  24821480.713 9                     -3938.742          21.000  
G19  22477031.011 8 118117506.45723       645.319          31.000  
> 2021  5 21  6 31 43.0020000  0 18                     
G14  20657804.856 2 108557535.968 2     -1350.642          35.000  
G28  20964895.934 8 110171283.897 3       246.904          30.000  
C 7  36179910.325 8 188398261.963 3      -814.162          30.000  
G 6  22065790.577 9                       236.207          20.000  
C11  23522786.732 4 122489318.06424      -489.349          26.000  
C 3  36831571.134 9 191791623.64225      -754.980          30.000  
C 8  36963984.434 8 192481153.043 4     -1250.668          30.000  
C25  23725297.486 9                     -1698.553          16.000  
C10  36370879.156 8 189392704.83423      -379.315          30.000  
C13  37008402.584 8 192712455.544 3      -889.823          31.000  
G17  22178143.577 2 116546933.20211      -116.909          35.000  
G 3  22735413.157 2 119475419.739 1     -2603.350          35.000  
C21  24338154.473 9                      -183.933          24.000  
C12  23963147.025 8 124782383.625 4     -1730.732          30.000  
G30  24174012.179 9                     -3464.438          24.000  
G22  25289403.625 4 132896620.23823     -3867.955          28.000  
G 1  24822232.224 9                     -3934.192          22.000  
G19  22476907.010 8 118116860.20613       645.976          31.000  
> 2021  5 21  6 31 44.0020000  0 18                     
G14  20658062.107 4 108558887.091 2     -1351.543          34.000  
G28  20964847.685 8 110171036.886 4       246.669          29.000  
C 7  36180065.737 8 188399076.182 3      -814.491          29.000  
G 6  22065746.341 9                       232.253          19.000  
C11  23522880.231 9                      -487.478          25.000  
C 3  36831715.779 9                      -759.131          28.000  
C 8  36964226.782 8 192482403.335 3     -1250.053          28.000  
C25  23725617.872 9                     -1667.303          15.000  
C10  36370955.082 8 189393084.51123      -379.681          28.000  
C13  37008575.621 8 192713346.126 3      -890.852          30.000  
G17  22178165.844 2 116547050.056 1      -116.990          35.000  
G 3  22735908.429 2 119478023.276 1     -2603.857          35.000  
C21  24338190.194 9                      -184.362          24.000  
C12  23963480.569 8 124784114.547 3     -1730.616          29.000  
G30  24174673.560 9                     -3464.920          24.000  
G22  25290137.912 4 132900488.05723     -3867.822          27.000  
G 1  24822987.033 9                     -3934.544          21.000  
G19  22476781.718 8 118116214.459 3       645.582          30.000  
> 2021  5 21  6 31 45.0020000  0 18                     
G14  20658319.393 4 108560238.601 2     -1351.415          34.000  
G28  20964804.059 8 110170790.158 3       247.061          29.000  
C 7  36180218.479 4 188399890.295 3      -813.855          29.000  
G 6  22065702.680 9                       232.253          17.000  
C11  23522971.897 9                      -489.110          24.000  
C 3  36831860.598 9                      -760.205          29.000  
C 8  36964464.157 4 192483653.594 3     -1249.779          28.000  
C25  23725937.316 9                     -1667.303          16.000  
C10  36371030.485 4 189393463.63513      -379.248          29.000  
C13  37008747.575 4 192714236.539 3      -889.951          30.000  
G17  22178188.005 4 116547166.739 2      -116.541          34.000  
G 3  22736404.103 2 119480627.184 2     -2603.602          34.000  
C21  24338225.688 9                      -184.631          25.000  
C12  23963814.182 4 124785845.304 3     -1730.652          29.000  
G30  24175334.678 9                     -3464.062          25.000  
G22  25290872.253 4 132904355.96624     -3868.151          27.000  
G 1  24823741.772 9                     -3929.071          21.000  
G19  22476651.958 8 118115568.508 4       646.205          29.000  
> 2021  5 21  6 31 46.0020000  0 18                     
G14  20658576.924 4 108561590.814 2     -1352.202          33.000  
G28  20964755.547 4 110170544.072 3       245.527          28.000  
C 7  36180375.862 4 188400704.620 3      -814.600          29.000  
G 6  22065659.037 9                       232.253          15.000  
C11  23523064.819 9                      -489.731          24.000  
C 3  36832005.959 9                      -752.637          29.000  
C 8  36964710.973 4 192484903.968 3     -1250.597          28.000  
C25  23726257.789 9                     -1675.888          15.000  
C10  36371100.983 4 189393843.453 3      -380.048          28.000  
C13  37008916.877 4 192715127.221 2      -890.721          29.000  
G17  22178210.394 2 116547283.470 2      -116.384          34.000  
G 3  22736899.968 2 119483231.743 1     -2604.508          34.000  
C21  24338262.263 9                      -186.478          26.000  
C12  23964142.386 4 124787576.017 3     -1730.410          29.000  
G30  24175996.792 9                     -3477.186          24.000  
G22  25291609.245 4 132908224.11124     -3868.407          26.000  
G 1  24824494.156 9                     -3937.474          22.000  
G19  22476528.253 4 118114922.663 3       646.037          29.000  
> 2021  5 21  6 31 47.0020000  0 18                     
G14  20658834.506 4 108562943.588 2     -1353.544          33.000  
G28  20964703.616 4 110170298.349 3       245.039          28.000  
C 7  36180532.949 4 188401519.022 2      -814.605          30.000  
G 6  22065612.882 9                       232.253          14.000  
C11  23523158.038 9                      -488.496          25.000  
C 3  36832151.755 9                      -760.449          30.000  
C 8  36964946.830 4 192486154.462 3     -1251.051          29.000  
C25  23726579.170 9                     -1679.786          17.000  
C10  36371175.810 4 189394223.255 3      -380.158          29.000  
C13  37009089.180 8 192716018.015 3      -892.726          30.000  
G17  22178232.661 2 116547400.169 1      -117.318          33.000  
G 3  22737395.921 2 119485836.809 1     -2605.026          34.000  
C21  24338298.647 9                      -187.152          27.000  
C12  23964473.242 4 124789306.702 3     -1730.772          29.000  
G30  24176662.466 9                     -3459.786          22.000  
G22  25292342.852 4 132912092.56824     -3869.614          26.000  
G 1  24825245.056 9                     -3937.084          22.000  
G19  22476400.064 4 118114276.782 2       645.371          29.000  
> 2021  5 21  6 31 48.0020000  0 17                     
G14  20659092.072 4 108564297.180 2     -1353.972          34.000  
G28  20964659.606 4 110170053.379 2       244.570          29.000  
C 7  36180689.949 4 188402333.793 2      -815.267          29.000  
C11  23523253.700 8                      -489.256          25.000  
C 3  36832296.679 9                      -754.286          29.000  
C 8  36965185.410 4 192487405.157 3     -1250.634          29.000  
C25  23726898.143 9                     -1666.430          16.000  
C10  36371248.316 4 189394603.414 2      -380.457          29.000  
C13  37009258.448 8 192716909.000 3      -890.308          30.000  
G17  22178254.700 4 116547517.043 2      -116.923          33.000  
G 3  22737891.716 2 119488442.689 1     -2606.302          35.000  
C21  24338333.530 8 126736062.35035      -187.006          27.000  
C12  23964807.012 4 124791037.558 3     -1731.459          29.000  
G30  24177322.590 9                     -3466.514          24.000  
G22  25293077.018 4 132915961.29325     -3868.659          27.000  
G 1  24825997.353 9                     -3937.548          22.000  
G19  22476279.884 4 118113631.065 2       645.822          29.000  
> 2021  5 21  6 31 49.0020000  0 18                     
G14  20659349.951 4 108565651.643 2     -1355.114          34.000  
G28  20964609.856 4 110169809.121 2       243.920          29.000  
C 7  36180845.866 2 188403148.923 2      -814.891          29.000  
G 6  22065527.829 9                       232.253          10.000  
C11  23523349.083 8 122492203.82134      -489.462          26.000  
C 3  36832441.743 9 191796157.55935      -753.701          29.000  
C 8  36965426.903 4 192488656.324 3     -1251.173          28.000  
C25  23727217.953 9                     -1672.876          17.000  
C10  36371321.327 4 189394983.899 3      -380.719          29.000  
C13  37009428.692 8 192717800.537 3      -892.155          30.000  
G17  22178276.949 4 116547634.231 2      -117.332          34.000  
G 3  22738388.053 2 119491049.361 1     -2606.337          35.000  
C21  24338370.524 8 126736249.40224      -187.317          27.000  
C12  23965139.945 8 124792768.602 4     -1730.652          29.000  
G30  24177982.732 9                     -3471.036          24.000  
G22  25293811.009 4 132919830.725 4     -3869.410          27.000  
G 1  24826747.886 9                     -3934.905          22.000  
G19  22476150.596 4 118112985.723 3       645.667          30.000  
> 2021  5 21  6 31 51.0020000  0 17                     
G14  20659864.697 4 108568362.320 2     -1357.105          32.000  
G28  20964519.481 4 110169321.994 3       243.049          28.000  
C 7  36181158.696 2 188404779.440 2      -815.506          29.000  
C11  23523542.466 4 122493182.62024      -489.065          27.000  
C 3  36832731.748 9                      -755.495          29.000  
C 8  36965910.344 4 192491158.697 3     -1251.157          29.000  
C25  23727861.778 9                     -1685.448          17.000  
C10  36371465.675 4 189395745.102 3      -380.939          29.000  
C13  37009773.526 4 192719583.625 2      -891.395          30.000  
G17  22178321.255 4 116547868.373 2      -117.579          32.000  
G 3  22739380.656 2 119496264.332 1     -2608.469          34.000  
C21  24338443.135 4 126736624.63224      -187.708          27.000  
C12  23965800.314 8 124796230.450 3     -1730.869          29.000  
G30  24179300.206 9                     -3464.610          24.000  
G22  25295279.898 4 132927570.093 4     -3869.979          26.000  
G 1  24828246.092 9                     -3930.637          21.000  
G19  22475913.168 8                       645.486          28.000  
> 2021  5 21  6 31 52.0020000  0 19                     
G14  20660122.839 8 108569718.435 3     -1357.080          32.000  
G28  20964473.168 4 110169079.036 4       243.635          27.000  
C 7  36181315.556 2 188405594.860 2      -815.221          29.000  
G 6  22065395.103 9                       232.253          10.000  
C11  23523639.228 4 122493672.01324      -489.247          28.000  
C 3  36832876.672 8 191798422.82534      -754.236          29.000  
C 8  36966150.843 2 192492410.039 3     -1251.396          29.000  
C25  23728183.072 9                     -1680.634          18.000  
C10  36371538.338 4 189396125.824 3      -381.140          29.000  
C13  37009944.189 4 192720475.411 3      -891.813          30.000  
G17  22178343.644 4 116547985.415 2      -117.382          32.000  
C 2  37525535.686 9                      -763.379          27.000  
G 3  22739877.272 4 119498872.601 2     -2609.088          34.000  
C21  24338479.257 4 126736813.04324      -188.989          27.000  
C12  23966131.344 4 124797961.324 3     -1730.847          29.000  
G30  24179957.800 9                     -3465.396          23.000  
G22  25296012.301 4 132931440.114 4     -3870.342          26.000  
G 1  24828991.880 9                     -3938.148          21.000  
G19  22475788.556 8 118111074.97035       644.823          28.000  
> 2021  5 21  6 31 53.0020000  0 19                     
G14  20660379.078 4 108571075.014 2     -1356.511          33.000  
G28  20964429.822 4 110168836.546 3       242.297          28.000  
C 7  36181472.259 2 188406410.295 2      -815.652          29.000  
G 6  22065352.315 9                       228.101          14.000  
C11  23523732.744 4 122494161.11624      -488.356          28.000  
C 3  36833021.352 9                      -754.830          29.000  
C 8  36966390.592 2 192493661.216 2     -1251.360          29.000  
C25  23728505.395 9                     -1673.482          19.000  
C10  36371611.088 4 189396506.397 3      -380.511          29.000  
C13  37010117.958 8 192721367.081 3      -891.246          30.000  
G17  22178365.684 4 116548102.248 2      -116.550          33.000  
C 2  37525678.272 9                      -706.641          27.000  
G 3  22740373.731 2 119501481.268 1     -2609.316          35.000  
C21  24338514.698 4 126737001.53224      -188.190          27.000  
C12  23966462.776 4 124799691.904 3     -1730.079          29.000  
G30  24180617.191 9                     -3463.234          23.000  
G22  25296745.280 4 132935310.180 4     -3870.159          26.000  
G 1  24829740.965 9                     -3953.162          21.000  
G19  22475669.004 8 118110429.37524       645.033          29.000  
> 2021  5 21  6 31 54.0020000  0 19                     
G14  20660638.807 4 108572432.092 2     -1357.208          33.000  
G28  20964383.736 4 110168594.328 3       242.211          28.000  
C 7  36181630.201 4 188407225.690 3      -814.885          29.000  
G 6  22065309.387 9                       226.377          17.000  
C11  23523829.173 2 122494650.16123      -488.353          28.000  
C 3  36833166.224 9 191799930.90035      -755.862          30.000  
C 8  36966629.398 2 192494912.403 3     -1250.975          29.000  
C25  23728827.613 9                     -1671.923          20.000  
C10  36371684.588 4 189396887.039 3      -380.707          29.000  
C13  37010287.557 8 192722258.751 3      -891.689          29.000  
G17  22178387.793 4 116548218.986 2      -116.360          33.000  
C 2  37525831.642 9                      -911.279          27.000  
G 3  22740870.085 4 119504090.363 2     -2609.686          35.000  
C21  24338551.169 4 126737190.52625      -189.172          26.000  
C12  23966796.616 4 124801422.344 3     -1730.018          29.000  
G30  24181274.122 9                     -3466.886          22.000  
G22  25297478.381 8 132939180.494 5     -3870.819          26.000  
G 1  24830490.051 9                     -3937.750          20.000  
G19  22475548.092 8 118109783.63524       645.757          28.000  
> 2021  5 21  6 31 55.0020000  0 19                     
G14  20660897.262 4 108573789.578 2     -1357.234          33.000  
G28  20964337.842 4 110168352.453 3       241.578          28.000  
C 7  36181785.840 4 188408041.012 3      -815.681          29.000  
G 6  22065266.634 9                       228.400          18.000  
C11  23523927.191 4 122495139.07823      -489.128          29.000  
C 3  36833311.026 9                      -754.953          30.000  
C 8  36966870.228 2 192496163.475 3     -1251.082          29.000  
C25  23729151.489 9                     -1675.388          20.000  
C10  36371760.567 8 189397267.509 3      -381.348          29.000  
C13  37010456.056 8 192723150.262 4      -891.551          29.000  
G17  22178409.763 4 116548335.510 2      -116.132          33.000  
C 2  37526026.456 9                     -1085.400          26.000  
G 3  22741366.543 4 119506699.804 2     -2609.816          35.000  
C21  24338585.546 4 126737379.74624      -189.636          26.000  
C12  23967128.136 4 124803152.564 3     -1730.323          28.000  
G30  24181931.297 9                     -3453.552          21.000  
G22  25298212.215 4 132943050.632 4     -3870.183          26.000  
G 1  24831237.182 9                     -3934.030          20.000  
G19  22475424.283 4 118109137.72523       645.653          28.000  
> 2021  5 21  6 31 56.0020000  0 18                     
G14  20661156.816 4 108575147.779 2     -1358.877          34.000  
G28  20964293.204 4 110168111.038 3       241.400          29.000  
C 7  36181942.019 4 188408856.528 3      -815.563          29.000  
G 6  22065226.324 9                       227.340          21.000  
C11  23524023.150 4 122495627.90723      -488.677          29.000  
C 3  36833455.636 9                      -757.080          29.000  
C 8  36967111.129 4 192497414.639 3     -1250.559          29.000  
C25  23729472.434 9                     -1672.440          21.000  
C10  36371833.596 8 189397648.156 4      -380.505          29.000  
C13  37010629.738 8 192724042.027 4      -891.145          30.000  
G17  22178431.628 4 116548452.046 2      -116.157          33.000  
G 3  22741863.368 2 119509309.867 1     -2610.132          36.000  
C21  24338620.865 4 126737569.47524      -190.155          26.000  
C12  23967461.068 4 124804882.693 4     -1729.968          28.000  
G30  24182588.053 9                     -3463.070          21.000  
G22  25298942.926 4 132946921.220 4     -3870.939          27.000  
G 1  24831986.389 9                     -3927.185          21.000  
G19  22475304.818 4 118108491.86523       645.922          28.000  
> 2021  5 21  6 31 58.0020000  0 18                     
G14  20661674.948 4 108577866.129 2     -1359.791          35.000  
G28  20964203.772 4 110167629.982 3       240.446          29.000  
C 7  36182255.338 8 188410488.100 3      -816.018          29.000  
G 6  22065140.103 9                       235.963          22.000  
C11  23524212.223 4 122496605.817 3      -488.814          29.000  
C 3  36833745.344 9 191802945.66235      -754.943          29.000  
C 8  36967592.790 2 192499917.627 3     -1251.467          29.000  
C25  23730119.767 9                     -1681.278          20.000  
C10  36371978.956 4 189398409.954 3      -381.012          29.000  
C13  37010973.054 4 192725826.157 3      -892.426          29.000  
G17  22178475.760 4 116548685.461 2      -117.170          35.000  
G 3  22742857.071 2 119514531.953 1     -2612.119          35.000  
C21  24338694.470 4 126737950.406 3      -190.363          26.000  
C12  23968128.417 2 124808343.224 3     -1730.195          28.000  
G30  24183901.287 9                     -3460.923          22.000  
G22  25300413.787 4 132954663.314 4     -3871.706          26.000  
G 1  24833481.681 9                     -3935.716          22.000  
G19  22475063.377 4 118107200.47524       645.566          26.000  
> 2021  5 21  6 31 59.0020000  0 18                     
G14  20661933.508 4 108579226.491 2     -1360.135          35.000  
G28  20964161.298 4 110167390.539 3       239.538          30.000  
C 7  36182412.756 8 188411304.456 4      -816.526          30.000  
G 6  22065101.102 9                       225.509          24.000  
C11  23524306.873 4 122497095.079 3      -488.786          29.000  
C 3  36833890.303 8 191803700.30024      -754.238          30.000  
C 8  36967836.587 8 192501169.638 3     -1252.461          29.000  
C25  23730445.824 9                     -1682.688          21.000  
C10  36372053.015 4 189398791.337 3      -381.055          29.000  
C13  37011141.640 8 192726718.664 3      -892.317          29.000  
G17  22178497.817 4 116548802.446 2      -116.667          34.000  
G 3  22743354.158 2 119517144.153 1     -2612.099          36.000  
C21  24338733.925 4 126738141.972 3      -191.504          27.000  
C12  23968462.083 2 124810073.727 3     -1730.167          28.000  
G30  24184559.125 9                     -3472.621          22.000  
G22  25301147.761 4 132958534.994 4     -3870.895          26.000  
G 1  24834229.807 9                     -3932.556          22.000  
G19  22474940.981 8 118106555.13025       645.785          26.000  
> 2021  5 21  6 32  0.0020000  0 18                     
G14  20662192.173 4 108580587.423 2     -1361.144          35.000  
G28  20964110.919 8 110167151.417 3       239.784          30.000  
C 7  36182572.234 8 188412120.763 3      -815.657          31.000  
G 6  22065058.453 9                       227.367          25.000  
C11  23524394.142 8 122497584.238 3      -489.508          32.000  
C 3  36834035.070 8 191804454.84124      -752.581          31.000  
C 8  36968074.782 8 192502421.556 3     -1252.213          31.000  
C25  23730770.992 9                     -1688.993          22.000  
C10  36372125.660 8 189399172.677 3      -380.389          31.000  
C13  37011315.375 8 192727611.226 3      -892.824          33.000  
G17  22178520.031 4 116548919.338 2      -116.946          34.000  
G 3  22743851.088 2 119519756.814 1     -2612.774          36.000  
C21  24338775.875 8 126738333.860 4      -192.371          29.000  
C12  23968795.364 8 124811804.101 3     -1730.634          30.000  
G30  24185217.557 9                     -3458.919          23.000  
G22  25301882.520 4 132962406.942 4     -3872.387          27.000  
G 1  24834977.392 9                     -3934.489          22.000  
G19  22474818.795 8                       644.415          25.000  
> 2021  5 21  6 32  1.0020000  0 18                     
G14  20662450.785 4 108581948.786 2     -1361.476          35.000  
G28  20964071.290 8 110166912.674 3       239.422          31.000  
C 7  36182727.384 8 188412937.120 3      -816.551          31.000  
G 6  22065015.840 9                       226.983          26.000  
C11  23524492.229 8 122498073.217 3      -488.550          31.000  
C 3  36834180.081 8 191805209.37625      -753.884          31.000  
C 8  36968312.681 8 192503673.411 3     -1251.993          31.000  
C25  23731096.996 9                     -1698.224          23.000  
C10  36372195.985 8 189399554.011 3      -380.457          31.000  
C13  37011487.975 8 192728503.775 3      -893.398          32.000  
G17  22178542.280 4 116549036.029 2      -115.997          35.000  
G 3  22744348.314 2 119522369.873 1     -2612.776          36.000  
C21  24338809.188 8 126738526.036 4      -192.072          29.000  
C12  23969131.054 8 124813534.274 3     -1730.140          30.000  
G30  24185880.927 9                     -3463.473          25.000  
G22  25302615.028 4 132966278.893 4     -3871.960          27.000  
G 1  24835728.973 9                     -3933.688          23.000  
G19  22474693.642 9                       645.717          24.000  
> 2021  5 21  6 32  2.0020000  0 19                     
G14  20662709.676 4 108583310.604 2     -1361.752          35.000  
G28  20964023.110 8 110166674.245 5       238.597          30.000  
C 7  36182884.837 8 188413753.445 3      -815.396          31.000  
G 6  22064972.808 9                       225.331          25.000  
C11  23524580.859 8 122498562.048 3      -488.661          31.000  
C 3  36834324.883 8 191805963.69024      -754.060          32.000  
C 8  36968555.972 8 192504925.208 3     -1251.685          31.000  
C25  23731419.773 9                     -1682.007          23.000  
C10  36372272.574 8 189399935.308 3      -381.146          31.000  
C13  37011659.057 8 192729396.260 3      -891.814          32.000  
C 2  37526981.716 9                      -723.926          27.000  
G17  22178564.494 2 116549152.647 1      -116.411          35.000  
G 3  22744845.872 2 119524983.361 1     -2613.365          35.000  
C21  24338846.462 8 126738718.589 4      -192.590          28.000  
C12  23969461.108 8 124815264.236 3     -1729.422          30.000  
G30  24186541.418 9                     -3462.027          25.000  
G22  25303349.245 4 132970150.861 4     -3871.410          27.000  
G 1  24836479.559 9                     -3918.486          22.000  
G19  22474571.717 9                       646.256          23.000  
> 2021  5 21  6 32  3.0020000  0 18                     
G14  20662968.882 2 108584673.039 1     -1362.767          34.000  
G28  20963978.734 8 110166436.330 4       237.925          30.000  
C 7  36183038.835 8 188414569.923 3      -816.915          31.000  
G 6  22064928.170 9                       225.203          24.000  
C11  23524672.804 8 122499050.857 3      -489.208          30.000  
C 3  36834469.807 9 191806718.55735      -754.860          32.000  
C 8  36968793.993 8 192506177.212 3     -1253.127          31.000  
C25  23731743.702 9                     -1682.145          23.000  
C10  36372342.566 8 189400316.716 3      -382.080          31.000  
C13  37011827.678 8 192730288.901 2      -892.682          31.000  
G17  22178586.673 2 116549269.226 1      -116.694          34.000  
G 3  22745343.448 4 119527597.394 2     -2614.318          34.000  
C21  24338879.251 8                      -193.622          27.000  
C12  23969796.082 8 124816994.105 2     -1728.818          32.000  
G30  24187201.577 9                     -3463.513          25.000  
G22  25304089.257 4 132974023.068 4     -3871.778          27.000  
G 1  24837224.474 9                     -3927.717          21.000  
G19  22474445.797 9                       645.498          21.000  
> 2021  5 21  6 32  4.0020000  0 18                     
G14  20663228.506 4 108586036.222 2     -1363.394          34.000  
G28  20963933.468 8 110166198.892 3       237.831          30.000  
C 7  36183199.569 8 188415386.486 3      -816.338          31.000  
G 6  22064887.389 9                       220.017          23.000  
C11  23524762.481 8 122499539.391 3      -487.829          28.000  
C 3  36834614.854 8 191807473.48923      -755.043          31.000  
C 8  36969036.062 8 192507429.206 3     -1251.290          30.000  
C25  23732064.943 9                     -1678.751          20.000  
C10  36372416.869 8 189400698.139 3      -381.458          30.000  
C13  37012002.145 4 192731182.363 2      -893.816          32.000  
G17  22178608.887 2 116549385.003 1      -114.926          34.000  
G 3  22745840.622 4 119530210.538 2     -2611.168          34.000  
C21  24338921.271 8 126739094.44935      -196.576          25.000  
C12  23970127.933 4 124818722.710 2     -1728.100          32.000  
G30  24187859.031 9                     -3465.861          25.000  
G22  25304829.076 9                     -3870.251          26.000  
G 1  24837969.423 9                     -3934.355          20.000  
G19  22474318.968 9                       644.386          23.000  
> 2021  5 21  6 32  5.0020000  0 18                     
G14  20663487.939 4 108587399.952 2     -1364.586          34.000  
G28  20963885.619 8 110165961.487 4       237.091          29.000  
C 7  36183353.410 8 188416202.687 3      -815.194          31.000  
G 6  22064851.738 9                       221.217          25.000  
C11  23524855.595 8 122500026.659 4      -485.071          30.000  
C 3  36834760.092 9                      -758.887          31.000  
C 8  36969276.177 8 192508681.197 3     -1251.466          29.000  
C25  23732389.621 9                     -1687.249          19.000  
C10  36372488.468 8 189401079.242 3      -381.433          30.000  
C13  37012173.890 4 192732077.467 2      -896.080          31.000  
G17  22178630.560 4 116549498.561 2      -111.484          33.000  
G 3  22746337.151 4 119532820.960 2     -2608.051          33.000  
C21  24338953.868 8 126739292.62225      -201.251          26.000  
C12  23970459.592 4 124820447.681 2     -1722.818          32.000  
G30  24188518.545 9                     -3472.549          25.000  
G22  25305566.575 8                     -3862.251          28.000  
G 1  24838711.075 9                     -3919.569          21.000  
G19  22474191.442 9                       653.796          23.000  
> 2021  5 21  6 32  6.0020000  0 18                     
G14  20663747.755 4 108588764.747 2     -1365.537          34.000  
G28  20963838.905 4 110165724.225 3       236.822          29.000  
C 7  36183509.171 8 188417018.906 3      -817.112          31.000  
G 6  22064834.811 9                       219.847          31.000  
C11  23524948.745 8 122500512.892 4      -487.762          30.000  
C 3  36834906.028 8 191808990.22234      -759.372          31.000  
C 8  36969512.959 4 192509933.339 3     -1252.069          30.000  
C25  23732715.836 9                     -1687.249          17.000  
C10  36372562.212 4 189401460.148 2      -381.238          30.000  
C13  37012346.525 8 192732975.508 3      -899.521          31.000  
G17  22178651.413 4 116549608.758 2      -109.226          34.000  
G 3  22746832.894 4 119535426.405 2     -2603.656          37.000  
C21  24338991.735 4 126739496.67224      -206.055          27.000  
C12  23970790.500 4 124822167.048 2     -1717.152          33.000  
G30  24189177.692 9                     -3478.626          24.000  
G22  25306303.724 8 132985509.73933     -3858.402          32.000  
G 1  24839449.324 9                     -3918.763          25.000  
G19  22474065.870 9                       641.697          26.000  
> 2021  5 21  6 32  7.0020000  0 18                     
G14  20664005.023 4 108590130.991 2     -1367.383          33.000  
G28  20963794.878 8 110165487.613 4       235.869          29.000  
C 7  36183667.985 8 188417835.546 3      -818.221          30.000  
G 6  22064779.407 9                       211.526          25.000  
C11  23525039.974 9                      -483.902          22.000  
C 3  36835052.278 9                      -771.875          30.000  
C 8  36969758.536 4 192511186.030 3     -1253.490          29.000  
C25  23733040.567 9                     -1687.392          18.000  
C10  36372636.760 4 189401841.195 3      -381.366          29.000  
C13  37012519.335 8 192733876.271 3      -902.047          31.000  
G17  22178672.162 8 116549716.531 4      -106.554          29.000  
G 3  22747328.236 4 119538028.525 2     -2600.776          33.000  
C21  24339033.371 9                      -206.330          24.000  
C12  23971121.967 8 124823882.320 3     -1713.855          31.000  
G30  24189841.934 9                     -3483.716          23.000  
G22  25307037.995 8 132989365.31023     -3851.656          31.000  
G 1  24840187.905 9 130536102.18434     -3913.210          28.000  
G19  22473946.336 9                       662.587          24.000  
> 2021  5 21  6 32  8.0020000  0 18                     
G14  20664268.801 8 108591498.389 3     -1367.878          31.000  
G28  20963747.396 9                       235.379          28.000  
C 7  36183823.711 8 188418652.467 5      -817.637          28.000  
G 6  22064744.384 9                       225.559          25.000  
C11  23525134.153 9                      -485.481          23.000  
C 3  36835196.975 9                      -768.066          28.000  
C 8  36969996.103 4 192512438.625 4     -1252.308          28.000  
C25  23733364.443 9                     -1694.331          18.000  
C10  36372709.056 4 189402222.099 4      -381.665          28.000  
C13  37012693.907 4 192734779.058 3      -903.524          30.000  
G17  22178692.962 8 116549821.440 3      -103.960          30.000  
G 3  22747822.304 4 119540627.531 2     -2597.687          33.000  
C21  24339075.164 9                      -225.872          22.000  
C12  23971448.897 8 124825593.595 4     -1710.360          30.000  
G30  24190504.606 9                     -3475.557          21.000  
G22  25307767.222 9                     -3849.680          26.000  
G 1  24840928.998 8 130540013.18524     -3909.340          27.000  
G19  22473821.131 9                       646.882          22.000  
> 2021  5 21  6 32  9.0020000  0 18                     
G14  20664526.907 8 108592866.804 3     -1369.196          31.000  
G28  20963704.678 9                       236.457          27.000  
C 7  36183979.821 4 188419469.743 4      -817.781          27.000  
G 6  22064702.294 9                       208.679          26.000  
C11  23525225.837 9 122501992.71135      -481.628          30.000  
C 3  36835345.302 9                      -754.199          28.000  
C 8  36970234.927 4 192513691.017 3     -1252.458          27.000  
C25  23733690.710 9                     -1702.245          19.000  
C10  36372781.823 8 189402602.447 4      -380.005          27.000  
C13  37012865.722 4 192735683.196 3      -904.900          30.000  
G17  22178709.418 8 116549923.963 3      -100.967          33.000  
G 3  22748316.354 4 119543224.423 3     -2595.183          32.000  
C21  24339119.226 9                      -225.872          18.000  
C12  23971777.292 4 124827301.865 3     -1706.854          29.000  
G30  24191167.121 9                     -3475.557          19.000  
G22  25308504.860 9                     -3845.576          26.000  
G 1  24841672.499 8 130543920.41824     -3905.347          27.000  
G19  22473663.992 9 118099900.88635       653.186          31.000  
> 2021  5 21  6 32 10.0020000  0 18                     
G14  20664789.271 8 108594236.617 3     -1370.502          30.000  
G28  20963658.016 8 110164774.34634       236.049          27.000  
C 7  36184137.344 4 188420287.831 4      -818.543          27.000  
G 6  22064643.278 9                       213.770          32.000  
C11  23525318.951 9 122502472.61324      -478.448          30.000  
C 3  36835491.221 9                      -776.465          27.000  
C 8  36970477.363 4 192514943.072 3     -1251.410          27.000  
C25  23734008.513 9                     -1701.546          31.000  
C10  36372857.243 4 189402982.564 4      -378.949          27.000  
C13  37013041.061 4 192736588.441 3      -905.190          30.000  
G17  22178732.278 8 116550024.199 3       -98.240          32.000  
G 3  22748810.824 4 119545819.904 3     -2593.718          32.000  
C21  24339161.804 9                      -225.872          15.000  
C12  23972102.861 4 124829007.544 3     -1704.379          29.000  
G30  24191828.555 9                     -3475.557          14.000  
G22  25309234.541 8 133000935.43735     -3844.072          27.000  
G 1  24842414.535 9                     -3902.981          24.000  
G19  22473521.581 9 118099246.58524       656.007          33.000  
> 2021  5 21  6 32 11.0020000  0 17                     
G14  20665047.552 4 108595607.611 3     -1371.702          29.000  
G28  20963615.577 8 110164537.87925       235.868          27.000  
C 7  36184295.827 4 188421106.751 4      -819.453          27.000  
G 6  22064599.513 9 115950252.19635       208.695          31.000  
C11  23525410.128 9                      -476.311          29.000  
C 3  36835637.768 9                      -734.131          28.000  
C 8  36970719.205 4 192516194.680 4     -1251.263          26.000  
C10  36372930.429 8                      -380.053          26.000  
C13  37013211.934 8 192737494.381 4      -906.080          29.000  
G17  22178745.732 8 116550121.971 3       -96.550          32.000  
G 3  22749303.775 8 119548414.275 3     -2593.140          31.000  
C21  24339204.976 9                      -225.872          11.000  
C12  23972432.618 4 124830711.010 4     -1702.777          29.000  
G30  24192489.394 9                     -3475.557          13.000  
G22  25309966.106 9                     -3840.454          26.000  
G 1  24843157.914 9                     -3902.981          21.000  
G19  22473395.642 8 118098589.72025       658.243          24.000  
> 2021  5 21  6 32 12.0020000  0 18                     
G14  20665307.002 4 108596979.471 4     -1372.611          28.000  
G28  20963568.688 8 110164300.99624       237.119          27.000  
C 7  36184452.617 4 188421926.220 4      -819.832          28.000  
G 6  22064559.290 9                       210.791          34.000  
C11  23525499.055 8 122503427.64234      -474.360          28.000  
C 3  36835776.584 9                      -700.342          27.000  
C 8  36970959.198 4 192517445.279 4     -1249.805          26.000  
C10  36373002.813 9                      -378.270          26.000  
C13  37013385.616 8 192738399.749 4      -905.369          29.000  
G17  22178767.510 8 116550217.993 3       -95.636          32.000  
C25  23734660.837 9                     -1702.588          29.000  
G 3  22749800.635 8 119551009.091 3     -2595.221          32.000  
C21  24339249.509 9                      -225.872          12.000  
C12  23972758.396 4 124832413.617 4     -1702.030          29.000  
G30  24193152.869 9                     -3475.557          11.000  
G22  25310697.759 9                     -3840.919          26.000  
G 1  24843900.351 9                     -3902.981          16.000  
G19  22473269.250 9                       659.985          31.000  
> 2021  5 21  6 32 13.0020000  0 18                     
G14  20665565.439 4 108598352.257 4     -1372.993          27.000  
G28  20963521.084 4 110164064.09824       236.936          26.000  
C 7  36184609.582 4 188422746.543 4      -820.580          27.000  
G 6  22064521.405 9                       209.436          29.000  
C11  23525595.275 8 122503901.27025      -473.571          28.000  
C 3  36835912.016 9                      -736.670          27.000  
C 8  36971198.284 4 192518695.273 5     -1249.519          26.000  
C10  36373074.463 9                      -377.761          25.000  
C13  37013563.504 9                      -905.174          29.000  
G17  22178787.333 8 116550312.685 3       -94.197          30.000  
C25  23734987.470 9                     -1701.541          29.000  
G 3  22750289.921 8 119553604.504 3     -2596.329          31.000  
C21  24339292.507 9                      -210.975          13.000  
C12  23973085.413 4 124834115.892 4     -1703.025          28.000  
G30  24193814.477 9                     -3475.557          11.000  
G22  25311428.644 8 133012455.53435     -3842.062          27.000  
G 1  24844643.294 9                     -3902.981          14.000  
G19  22473143.452 9 118097165.75335       661.883          30.000  
> 2021  5 21  6 32 16.0020000  0 15                     
G14  20666357.417 4 108602474.841 4     -1374.758          28.000  
G28  20963390.749 4 110163355.30424       235.441          28.000  
C 7  36185084.437 4 188425210.559 3      -821.439          28.000  
G 6  22064394.315 9                       214.304          27.000  
C11  23525864.602 4 122505319.19123      -474.011          29.000  
C 8  36971919.048 9                     -1249.637          26.000  
C10  36373291.736 9                      -377.866          25.000  
C13  37014077.500 4 192742014.82834      -901.510          28.000  
G17  22178841.568 8 116550599.068 4       -97.701          31.000  
C25  23735965.729 8                     -1698.572          28.000  
G 3  22751779.175 8 119561404.646 4     -2604.803          30.000  
C12  23974069.274 4 124839231.312 4     -1708.971          27.000  
G30  24195797.659 9                     -3474.616          11.000  
G22  25313624.579 9                     -3841.915          18.000  
G19  22472762.758 9 118095182.40225       661.234          29.000  
> 2021  5 21  6 32 17.0020000  0 14                     
G14  20666616.937 4 108603849.852 4     -1375.257          28.000  
G28  20963345.238 4 110163120.35623       234.474          28.000  
C 7  36185242.518 4 188426032.327 3      -821.901          28.000  
G 6  22064355.716 9                       212.701          25.000  
C11  23525954.505 4 122505793.12523      -474.573          30.000  
C 8  36972158.936 9                     -1248.915          26.000  
C10  36373363.666 9                      -377.682          25.000  
C13  37014252.927 4 192742915.53123      -900.035          29.000  
G17  22178858.443 8 116550697.572 4       -99.222          31.000  
C25  23736290.652 8 123601071.26234     -1696.695          32.000  
G 3  22752272.092 8 119564010.483 3     -2607.741          31.000  
C12  23974396.483 4 124840941.136 3     -1710.313          28.000  
G30  24196458.062 9                     -3474.616          13.000  
G19  22472636.244 9 118094521.18524       660.587          29.000  
> 2021  5 21  6 32 18.0020000  0 15                     
G14  20666877.120 4 108605225.496 3     -1376.577          28.000  
G28  20963299.309 4 110162886.41623       233.244          28.000  
C 7  36185399.850 4 188426854.263 3      -822.094          29.000  
G 6  22064312.456 9                       213.055          24.000  
C11  23526047.288 8 122506268.26123      -475.570          31.000  
C 3  36836669.058 9                      -752.617          29.000  
C 8  36972400.604 9                     -1249.783          26.000  
C10  36373435.997 9                      -380.190          26.000  
C13  37014427.411 4 192743815.83923      -899.462          30.000  
G17  22178877.690 8 116550797.723 3      -101.315          31.000  
C25  23736616.553 8 123602767.50423     -1695.086          32.000  
G 3  22752768.393 8 119566618.649 3     -2609.272          31.000  
C12  23974724.355 4 124842653.129 3     -1713.547          27.000  
G30  24197118.344 9                     -3474.616          12.000  
G19  22472512.487 8 118093861.39824       658.405          29.000  
> 2021  5 21  6 32 19.0020000  0 15                     
G14  20667140.077 8 108606600.824 4     -1375.277          28.000  
G28  20963254.794 4 110162653.453 4       232.607          28.000  
C 7  36185557.826 4 188427675.652 3      -820.607          28.000  
G 6  22064267.016 9                       216.949          24.000  
C11  23526138.780 8 122506745.86724      -479.597          31.000  
C 3  36836824.226 9                      -749.854          29.000  
C 8  36972640.405 9                     -1251.961          25.000  
C10  36373510.701 9                      -380.093          26.000  
C13  37014599.366 9                      -900.511          29.000  
G17  22178891.808 8 116550900.991 3      -104.411          30.000  
C25  23736940.272 8 123604462.25824     -1694.099          30.000  
G 3  22753265.131 8 119569230.513 4     -2613.843          30.000  
C12  23975053.414 4 124844368.531 4     -1717.168          27.000  
G30  24197779.951 9                     -3474.678          14.000  
G19  22472388.067 8 118093204.04924       656.056          29.000  
> 2021  5 21  6 32 20.0020000  0 16                     
G14  20667400.504 9                     -1373.247          27.000  
G28  20963210.558 4 110162421.843 4       230.459          27.000  
C 7  36185716.693 8                      -821.692          27.000  
G 6  22064228.224 9                       215.593          26.000  
C11  23526232.574 8 122507226.60424      -482.999          29.000  
C 3  36836969.830 9                      -756.982          28.000  
C 8  36972878.426 9                     -1253.348          25.000  
C10  36373583.504 9                      -381.596          25.000  
C13  37014772.751 9                      -897.423          29.000  
G17  22178907.827 8 116551008.295 4      -109.198          29.000  
C25  23737268.301 8 123606155.32024     -1693.941          30.000  
G 3  22753762.358 8 119571846.508 4     -2618.088          29.000  
C12  23975383.816 9                     -1722.688          26.000  
G30  24198442.431 9                     -3474.678          15.000  
G22  25316546.740 9                     -3841.915          11.000  
G19  22472262.478 8                       652.828          27.000  
> 2021  5 21  6 32 21.0020000  0 16                     
G14  20667661.525 9                     -1376.045          25.000  
G28  20963166.566 9                       232.521          25.000  
C 7  36185874.042 9                      -820.231          26.000  
G 6  22064188.857 9                       217.703          26.000  
C11  23526327.556 8 122507709.81214      -485.564          28.000  
C 3  36837122.607 9                      -841.699          27.000  
C 8  36973120.600 9                     -1259.839          23.000  
C10  36373656.341 9                      -382.086          24.000  
C13  37014941.983 9 192746494.92935      -896.285          27.000  
G17  22178928.732 8 116551119.124 4      -112.512          28.000  
C25  23737589.559 8 123607847.07624     -1691.574          29.000  
G 3  22754262.149 8 119574466.103 4     -2621.563          28.000  
C12  23975715.039 9                     -1723.228          24.000  
G30  24199104.440 9                     -3467.251          14.000  
G 1  24850583.785 9                     -3907.486          12.000  
G19  22472134.759 9                       646.246          24.000  
> 2021  5 21  6 32 22.0020000  0 16                     
G14  20667925.791 9                     -1374.119          25.000  
G28  20963122.923 9                       226.787          24.000  
C 7  36186030.675 9                      -820.487          26.000  
G 6  22064148.128 8 115947880.26835       217.119          26.000  
C11  23526417.774 8 122508196.142 4      -487.743          27.000  
C 8  36973361.413 9                     -1253.382          23.000  
C10  36373729.265 9                      -382.628          24.000  
C13  37015117.480 8 192747391.20524      -895.783          27.000  
G17  22178956.182 8 116551232.971 4      -115.087          28.000  
C25  23737913.680 8 123609537.94114     -1691.481          30.000  
G 3  22754760.406 8 119577088.845 4     -2624.017          27.000  
C12  23976044.045 9                     -1713.983          22.000  
G30  24199764.512 9                     -3467.251          14.000  
G22  25318008.947 9                     -3841.915          11.000  
G 1  24851328.071 9                     -3907.486          11.000  
G19  22472013.428 9                       652.596          22.000  
> 2021  5 21  6 32 23.0020000  0 16                     
G14  20668185.188 9                     -1374.330          24.000  
G28  20963078.931 9                       220.263          23.000  
C 7  36186185.127 9                      -817.673          25.000  
G 6  22064106.422 8                       218.821          25.000  
C11  23526514.151 9                      -488.920          25.000  
C 8  36973601.214 9                     -1244.776          22.000  
C10  36373803.342 9                      -382.908          23.000  
C13  37015287.411 8 192748287.04424      -895.705          27.000  
G17  22178983.055 9                      -116.736          27.000  
C25  23738239.894 8 123611228.967 5     -1691.251          29.000  
G 3  22755261.995 9                     -2626.645          25.000  
C12  23976374.482 9                     -1735.219          20.000  
G30  24200422.961 9                     -3467.251          13.000  
G22  25318740.599 9                     -3841.915          10.000  
G 1  24852070.212 9                     -3907.486          11.000  
G19  22471889.846 9                       652.596          18.000  
> 2021  5 21  6 32 24.0020000  0 14                     
G14  20668451.356 9                     -1376.046          25.000  
G28  20963035.427 9                       234.073          24.000  
C 7  36186342.109 9                      -812.926          25.000  
G 6  22064064.838 4 115947442.73334       216.033          27.000  
C11  23526606.602 9                      -488.745          25.000  
C 8  36973841.939 9                     -1254.521          23.000  
C10  36373876.458 9                      -383.741          24.000  
C13  37015460.953 4 192749182.84723      -895.465          27.000  
G17  22179001.046 9                      -116.724          27.000  
C25  23738565.219 8 123612920.175 3     -1691.935          30.000  
G 3  22755765.433 9 119582354.03035     -2626.520          27.000  
C12  23976707.520 9                     -1734.300          20.000  
G30  24201082.388 9                     -3467.251          11.000  
G19  22471768.392 9                       647.603          17.000  
> 2021  5 21  6 32 25.0020000  0 13                     
G14  20668714.924 9                     -1377.708          25.000  
G28  20962992.988 9                       219.614          24.000  
C 7  36186499.021 9                      -822.050          24.000  
G 6  22064023.429 8 115947226.22725       216.702          26.000  
C11  23526699.752 9                      -488.458          24.000  
C 8  36974081.095 9                     -1251.458          23.000  
C10  36373952.698 9                      -381.474          24.000  
C13  37015633.553 4 192750078.59924      -895.585          27.000  
G17  22179024.325 9 116551553.20235      -115.920          27.000  
C25  23738893.318 8 123614611.549 3     -1690.287          30.000  
G 3  22756265.783 8 119584980.88225     -2626.635          26.000  
C12  23977041.098 9                     -1726.459          20.000  
G19  22471645.857 9                       647.394          17.000  
> 2021  5 21  6 32 26.0020000  0 14                     
G14  20668975.631 9                     -1376.511          26.000  
G28  20962951.055 9                       224.418          25.000  
C 7  36186657.434 9                      -812.845          25.000  
G 6  22063984.357 4 115947010.13424       216.033          27.000  
C11  23526793.564 9                      -488.828          24.000  
C 8  36974321.838 9                     -1259.296          23.000  
C10  36374025.884 9                      -384.976          24.000  
C13  37015805.176 4 192750974.33224      -895.950          27.000  
G17  22179043.974 8 116551670.09924      -117.104          27.000  
C25  23739216.408 8 123616303.386 4     -1691.178          30.000  
G 3  22756767.599 4 119587608.21824     -2627.902          27.000  
C12  23977373.071 9                     -1731.857          20.000  
G22  25320933.900 9                     -3841.915           7.000  
G19  22471522.728 9                       651.662          17.000  
> 2021  5 21  6 32 27.0020000  0 13                     
G14  20669238.710 9                     -1377.466          25.000  
G28  20962907.412 9                       226.837          25.000  
C 7  36186814.417 9                      -820.859          25.000  
G 6  22063942.634 4 115946794.41324       216.102          27.000  
C11  23526888.022 8                      -489.042          24.000  
C 8  36974563.296 9                     -1261.643          23.000  
C10  36374097.762 9                      -385.112          24.000  
C13  37015978.003 4 192751869.77914      -897.082          27.000  
G17  22179065.350 8 116551786.91924      -116.464          27.000  
C25  23739539.429 8 123617995.694 3     -1692.299          30.000  
G 3  22757267.199 4 119590236.14023     -2628.353          27.000  
C12  23977707.522 9                     -1733.128          21.000  
G19  22471397.941 9                       646.255          17.000  
> 2021  5 21  6 32 28.0020000  0 13                     
G14  20669501.877 8                     -1378.402          25.000  
G28  20962864.031 9                       225.058          25.000  
C 7  36186972.149 9                      -820.318          25.000  
G 6  22063902.603 4 115946579.06723       215.712          27.000  
C11  23526980.002 9                      -489.000          25.000  
C 8  36974804.162 9                     -1257.094          23.000  
C10  36374172.326 9                      -385.367          24.000  
C13  37016148.701 4 192752765.812 3      -896.386          27.000  
G17  22179088.629 4 116551903.91124      -117.416          27.000  
C25  23739866.394 8 123619688.487 3     -1692.616          30.000  
G 3  22757768.544 4 119592864.72324     -2629.145          27.000  
C12  23978038.291 9                     -1727.520          21.000  
G19  22471276.244 9                       641.552          17.000  
> 2021  5 21  6 32 29.0020000  0 13                     
G14  20669764.590 9                     -1378.389          24.000  
G28  20962823.424 9                       217.023          24.000  
C 7  36187129.899 9                      -820.000          24.000  
G 6  22063862.555 9                       214.588          26.000  
C11  23527073.797 9                      -489.417          24.000  
C 8  36975045.725 9                     -1257.763          23.000  
C10  36374245.530 9                      -383.398          24.000  
C13  37016321.301 4 192753662.032 4      -896.315          26.000  
G17  22179109.569 4 116552020.86524      -117.198          26.000  
C25  23740193.149 4 123621381.808 3     -1693.437          30.000  
G 3  22758268.301 4 119595506.82434     -2630.000          26.000  
C12  23978370.787 9                     -1733.751          20.000  
G19  22471154.005 9                       638.448          17.000  
> 2021  5 21  6 32 30.0020000  0 14                     
G14  20670025.802 9                     -1380.177          22.000  
G28  20962778.159 9                       225.562          22.000  
C 7  36187288.295 9                      -821.989          23.000  
G 6  22063822.821 9                       227.716          24.000  
C11  23527167.522 9                      -489.486          23.000  
C 8  36975284.968 9                     -1246.046          22.000  
C10  36374320.444 9                      -390.351          22.000  
C13  37016494.564 9                      -896.451          25.000  
G17  22179132.202 9                      -116.660          24.000  
C25  23740518.195 8 123623075.563 3     -1693.824          28.000  
G 3  22758770.204 9                     -2626.653          24.000  
C12  23978704.680 9                     -1721.843          19.000  
C24  25076948.983 9                     -3701.000          13.000  
G19  22471032.220 9                       638.448          17.000  
> 2021  5 21  6 32 31.0020000  0 14                     
G14  20670286.962 9                     -1377.037          22.000  
G28  20962737.744 9                       230.043          22.000  
C 7  36187446.306 9                      -821.397          23.000  
G 6  22063780.975 9                       213.175          25.000  
C11  23527262.434 9                      -490.929          23.000  
C 8  36975527.020 9                     -1255.960          23.000  
C10  36374393.054 9                      -381.611          22.000  
C13  37016664.791 9                      -898.641          25.000  
G17  22179154.433 9                      -108.913          25.000  
C25  23740841.634 8 123624769.750 3     -1694.921          29.000  
G 3  22759270.851 9                     -2628.435          24.000  
C12  23979036.356 9                     -1720.567          19.000  
C24  25077665.420 9                     -3701.000          14.000  
G19  22470912.354 9                       642.806          17.000  
> 2021  5 21  6 32 32.0020000  0 13                     
G14  20670549.815 9                     -1384.046          22.000  
G28  20962694.153 9                       223.666          22.000  
C 7  36187603.184 9                      -822.312          24.000  
G 6  22063742.044 9                       212.959          26.000  
C11  23527356.403 9                      -490.306          23.000  
C 8  36975770.084 9                     -1256.735          23.000  
C10  36374467.724 9                      -383.202          23.000  
C13  37016836.030 9                      -897.316          26.000  
G17  22179177.747 9                      -117.741          25.000  
C25  23741167.639 8 123626464.611 3     -1695.189          30.000  
G 3  22759770.189 9                     -2631.648          25.000  
C12  23979366.462 9                     -1715.185          19.000  
G19  22470789.330 9                       639.808          17.000  
> 2021  5 21  6 32 33.0020000  0 13                     
G14  20670810.818 9                     -1376.235          23.000  
G28  20962651.959 9                       230.034          23.000  
C 7  36187761.388 9                      -823.672          24.000  
G 6  22063699.169 8 115945533.49035       212.609          26.000  
C11  23527451.053 9                      -492.377          24.000  
C 8  36976012.048 9                     -1254.292          24.000  
C10  36374540.910 9                      -387.062          24.000  
C13  37017007.670 8                      -897.496          27.000  
G17  22179201.392 9                      -117.597          26.000  
C25  23741494.098 9                     -1692.822          30.000  
G 3  22760267.275 9                     -2631.830          26.000  
C12  23979699.133 9                     -1721.846          20.000  
G19  22470666.673 9                       645.027          17.000  
> 2021  5 21  6 32 34.0020000  0 13                     
G14  20671074.857 9                     -1386.645          22.000  
G28  20962609.014 9                       227.092          23.000  
C 7  36187916.572 9                      -823.630          23.000  
G 6  22063657.585 8                       212.573          25.000  
C11  23527544.778 9                      -506.330          24.000  
C 8  36976252.896 9                     -1256.666          24.000  
C10  36374617.604 9                      -385.404          23.000  
C13  37017183.010 8 192758138.08535      -897.401          26.000  
G17  22179223.379 9                      -118.003          25.000  
C25  23741822.057 9                     -1696.245          29.000  
G 3  22760765.148 9                     -2630.921          25.000  
C12  23980030.076 9                     -1733.640          20.000  
G19  22470548.378 9                       633.818          17.000  
> 2021  5 21  6 32 35.0020000  0 13                     
G14  20671340.013 9                     -1391.771          21.000  
G28  20962566.156 9                       229.277          21.000  
C 7  36188075.334 9                      -821.555          23.000  
G 6  22063617.397 9                       203.832          23.000  
C11  23527640.824 9                      -492.822          23.000  
C 8  36976494.338 9                     -1254.903          23.000  
C10  36374689.586 9                      -383.000          22.000  
C13  37017353.691 8 192759035.36725      -896.722          26.000  
G17  22179245.977 9                      -117.083          23.000  
C25  23742144.904 8 123631562.52834     -1696.498          29.000  
G 3  22761265.061 9                     -2628.852          23.000  
C12  23980361.456 9                     -1720.947          20.000  
G19  22470428.407 9                       633.818          14.000  
> 2021  5 21  6 32 36.0020000  0 13                     
G14  20671603.424 9                     -1379.959          21.000  
G28  20962524.886 9                       223.837          21.000  
C 7  36188233.032 9                      -821.825          23.000  
G 6  22063580.106 9                       214.982          23.000  
C11  23527733.555 9                      -478.495          23.000  
C 8  36976734.749 9                     -1252.288          22.000  
C10  36374761.603 9                      -383.725          22.000  
C13  37017526.204 8 192759932.51225      -897.455          26.000  
G17  22179266.307 9                      -116.235          23.000  
C25  23742477.226 8 123633258.95224     -1695.477          30.000  
G 3  22761765.761 9                     -2636.827          23.000  
C12  23980694.511 9                     -1723.425          19.000  
G19  22470308.716 9                       633.818          13.000  
> 2021  5 21  6 32 37.0020000  0 13                     
G14  20671868.039 9                     -1385.553          22.000  
G28  20962484.838 9                       217.136          22.000  
C 7  36188391.183 9                      -820.769          23.000  
G 6  22063539.621 9                       212.089          25.000  
C11  23527824.418 9                      -494.333          23.000  
C 8  36976974.027 9                     -1252.932          23.000  
C10  36374837.319 9                      -387.092          23.000  
C13  37017699.031 4 192760829.81924      -897.568          27.000  
G17  22179289.812 9                      -116.953          25.000  
C25  23742799.235 8 123634956.04623     -1697.686          30.000  
G 3  22762266.285 9                     -2635.056          25.000  
C12  23981025.576 9                     -1726.462          20.000  
G19  22470185.989 9                       643.350          14.000  
> 2021  5 21  6 32 38.0020000  0 13                     
G14  20672131.607 9                     -1383.502          23.000  
G28  20962440.759 9                       213.438          23.000  
C 7  36188548.340 9                      -822.086          24.000  
G 6  22063496.851 9                       210.905          26.000  
C11  23527919.435 9                      -494.630          24.000  
C 8  36977214.543 9                     -1258.616          23.000  
C10  36374912.512 9                      -388.326          23.000  
C13  37017871.613 4 192761727.49424      -897.797          27.000  
G17  22179314.766 9                      -117.586          25.000  
C25  23743122.448 8 123636653.72723     -1697.125          30.000  
G 3  22762768.537 9                     -2633.852          26.000  
C12  23981359.277 9                     -1730.070          20.000  
G19  22470062.738 9                       646.591          15.000  
> 2021  5 21  6 32 39.0020000  0 13                     
G14  20672395.594 9                     -1385.044          24.000  
G28  20962399.890 9                       219.116          23.000  
C 7  36188707.486 9                      -821.896          25.000  
G 6  22063459.001 8                       210.767          26.000  
C11  23528013.544 9                      -484.929          25.000  
C 8  36977456.002 9                     -1258.303          24.000  
C10  36374986.763 9                      -383.182          23.000  
C13  37018044.370 4 192762625.31324      -897.093          27.000  
G17  22179337.783 9                      -116.943          26.000  
C25  23743451.262 8                     -1698.034          30.000  
G 3  22763270.371 8                     -2634.635          26.000  
C12  23981691.215 9                     -1731.664          20.000  
G19  22469943.152 9                       646.324          16.000  
> 2021  5 21  6 32 40.0020000  0 13                     
G14  20672659.633 9                     -1395.117          22.000  
G28  20962357.713 9                       224.682          22.000  
C 7  36188867.033 9                      -822.491          23.000  
G 6  22063418.080 9                       205.337          25.000  
C11  23528108.246 9                      -487.866          23.000  
C 8  36977696.710 9                     -1246.493          22.000  
C10  36375061.659 9                      -394.875          23.000  
C13  37018216.203 9                      -896.838          26.000  
G17  22179359.875 9                      -122.637          24.000  
C25  23743777.197 8                     -1699.409          29.000  
G 3  22763773.914 9                     -2636.182          25.000  
C12  23982021.460 9                     -1724.959          19.000  
G19  22469823.007 9                       640.856          16.000  
> 2021  5 21  6 32 41.0020000  0 13                     
G14  20672922.312 9                     -1384.002          22.000  
G28  20962316.705 9                       212.825          21.000  
C 7  36189026.703 9                      -822.298          24.000  
G 6  22063380.371 9                       211.117          25.000  
C11  23528203.995 9                      -489.999          24.000  
C 8  36977938.186 9                     -1254.794          22.000  
C10  36375136.451 9                      -399.383          22.000  
C13  37018390.740 9                      -897.712          26.000  
G17  22179381.757 9                      -125.133          24.000  
C25  23744101.562 8 123641746.30934     -1700.350          29.000  
G 3  22764275.643 9                     -2636.466          25.000  
C12  23982355.230 9                     -1725.584          19.000  
G19  22469700.663 9                       640.856          15.000  
> 2021  5 21  6 32 42.0020000  0 13                     
G14  20673184.763 9                     -1391.353          23.000  
G28  20962275.156 9                       211.619          22.000  
C 7  36189183.441 9                      -822.521          24.000  
G 6  22063340.444 9                       208.698          26.000  
C11  23528300.321 9                      -489.629          25.000  
C 8  36978180.238 9                     -1262.793          22.000  
C10  36375209.236 9                      -387.979          23.000  
C13  37018562.677 8                      -898.832          26.000  
G17  22179403.274 9                      -116.507          26.000  
C25  23744426.555 8 123643445.99724     -1700.843          29.000  
G 3  22764780.565 9 119629728.51535     -2636.629          26.000  
C12  23982690.432 9                     -1731.366          20.000  
G19  22469576.959 9                       651.902          16.000  
> 2021  5 21  6 32 43.0020000  0 13                     
G14  20673449.081 9                     -1383.717          23.000  
G28  20962232.246 9                       218.201          22.000  
C 7  36189341.766 9                      -824.045          24.000  
G 6  22063298.564 9 115943427.31835       208.071          26.000  
C11  23528392.702 9                      -488.655          25.000  
C 8  36978423.162 9                     -1264.413          22.000  
C10  36375282.038 9                      -388.384          24.000  
C13  37018734.247 8 192766237.35735      -898.409          27.000  
G17  22179424.318 9 116553666.57235      -116.058          26.000  
C25  23744751.391 8 123645146.72424     -1701.812          30.000  
G 3  22765279.536 9 119632364.87225     -2636.143          25.000  
C12  23983021.358 9                     -1727.737          21.000  
G19  22469454.738 9                       651.902          15.000  
> 2021  5 21  6 32 44.0020000  0 13                     
G14  20673711.812 9                     -1393.897          24.000  
G28  20962192.494 9                       218.673          25.000  
C 7  36189497.806 9                      -824.996          25.000  
G 6  22063257.242 8                       208.173          26.000  
C11  23528484.769 9                      -483.878          26.000  
C 8  36978663.871 9                     -1259.460          22.000  
C10  36375355.940 9                      -390.782          24.000  
C13  37018907.685 4 192767136.90224      -899.295          27.000  
G17  22179446.410 9                      -112.125          27.000  
C25  23745078.530 8 123646848.64325     -1702.216          30.000  
G 3  22765781.719 8 119635000.08825     -2633.750          26.000  
C12  23983353.104 9                     -1726.572          22.000  
G19  22469330.160 9                       639.883          19.000  
> 2021  5 21  6 32 45.0020000  0 13                     
G14  20673974.804 9                     -1395.639          24.000  
G28  20962150.352 9                       218.884          25.000  
C 7  36189657.179 9                      -824.839          25.000  
G 6  22063215.239 8                       206.302          25.000  
C11  23528576.418 8 122519440.15635      -481.144          27.000  
C 8  36978904.614 9                     -1254.561          22.000  
C10  36375430.208 9                      -393.124          24.000  
C13  37019078.784 4 192768037.04724      -900.297          27.000  
G17  22179472.725 9                      -108.769          27.000  
C25  23745406.140 8                     -1702.099          30.000  
G 3  22766282.645 9                     -2633.070          25.000  
C12  23983682.721 9                     -1719.762          22.000  
G19  22469203.245 9                       650.573          22.000  
> 2021  5 21  6 32 46.0020000  0 13                     
G14  20674240.187 9                     -1394.906          23.000  
G28  20962106.482 9                       219.123          24.000  
C 7  36189814.615 9                      -822.723          24.000  
G 6  22063179.170 9                       210.097          24.000  
C11  23528669.532 8 122519918.93625      -476.703          27.000  
C 8  36979143.787 9                     -1256.406          22.000  
C10  36375504.563 9                      -384.603          23.000  
C13  37019250.791 9                      -900.398          26.000  
G17  22179487.314 9                      -104.146          27.000  
C25  23745735.635 9                     -1704.479          28.000  
G 3  22766783.448 9                     -2638.434          25.000  
C12  23984013.106 9                     -1718.244          21.000  
G19  22469077.115 9                       656.682          23.000  
> 2021  5 21  6 32 47.0020000  0 13                     
G14  20674506.355 9                     -1391.446          23.000  
G28  20962064.619 9                       219.899          23.000  
C 7  36189971.580 9                      -828.197          22.000  
G 6  22063139.156 9                       209.597          25.000  
C11  23528760.012 4 122520394.18624      -473.945          28.000  
C 8  36979384.390 9                     -1247.152          22.000  
C10  36375578.831 9                      -378.717          23.000  
C13  37019424.072 9                      -901.074          26.000  
G17  22179510.470 9                      -102.686          26.000  
C25  23746063.403 9                     -1704.691          27.000  
G 3  22767284.741 9                     -2631.165          25.000  
C12  23984344.294 9                     -1713.133          19.000  
G19  22468948.611 9                       664.143          23.000  
> 2021  5 21  6 32 48.0020000  0 13                     
G14  20674770.569 9                     -1393.702          21.000  
G28  20962025.304 9                       223.682          21.000  
C 7  36190131.651 9                      -821.965          21.000  
G 6  22063101.237 9                       205.002          23.000  
C11  23528851.084 9                      -466.791          26.000  
C 8  36979624.767 9                     -1256.129          21.000  
C10  36375652.140 9                      -375.989          22.000  
C13  37019594.369 9                      -893.755          24.000  
G17  22179531.707 9                       -97.611          24.000  
C25  23746389.216 9                     -1708.901          25.000  
G 3  22767784.777 9                     -2626.823          22.000  
C12  23984672.619 9                     -1713.627          18.000  
G19  22468824.226 9                       666.185          22.000  
> 2021  5 21  6 32 49.0020000  0 13                     
G14  20675037.801 9                     -1401.142          21.000  
G28  20961983.249 9                       223.806          22.000  
C 7  36190292.001 9                      -827.966          21.000  
G 6  22063058.257 9                       215.721          22.000  
C11  23528939.819 9                      -468.650          24.000  
C 8  36979864.620 9                     -1254.893          20.000  
C10  36375724.488 9                      -378.096          22.000  
C13  37019767.702 9                      -899.755          23.000  
G17  22179550.466 9                      -102.363          23.000  
C25  23746713.702 9                     -1700.427          25.000  
G 3  22768283.155 9                     -2626.231          20.000  
C12  23985003.947 9                     -1723.076          17.000  
G19  22468696.473 9                       665.256          22.000  
> 2021  5 21  6 32 50.0020000  0 14                     
G14  20675303.621 9                     -1397.256          23.000  
G28  20961941.229 9                       221.283          24.000  
C 7  36190453.328 9                      -830.476          24.000  
G 6  22063017.005 9                       211.783          26.000  
C11  23529027.977 9                      -465.934          26.000  
C 8  36980106.410 9                     -1247.783          23.000  
C10  36375796.820 9                      -379.107          25.000  
C13  37019942.134 9                      -898.233          26.000  
G17  22179564.740 9 116554398.60635       -98.497          30.000  
C25  23747044.244 9 123657059.62235     -1704.074          31.000  
G 3  22768782.633 9                     -2626.231          16.000  
C12  23985335.955 9                     -1714.646          17.000  
C23  25886309.051 9                       780.445          23.000  
G19  22468569.244 9 118073127.44335       669.521          25.000  
> 2021  5 21  6 32 51.0020000  0 16                     
G14  20675570.487 9 108650856.17934     -1399.150          32.000  
G28  20961903.432 9 110155545.86834       218.466          29.000  
C 7  36190612.334 9 188453983.43234      -832.236          32.000  
G 6  22062977.864 9 115941724.32633       212.858          33.000  
C11  23529117.846 9 122522257.94534      -466.562          33.000  
C 8  36980346.962 9 192566339.24835     -1250.342          32.000  
C10  36375870.634 9 189418672.06334      -380.737          32.000  
C13  37020114.594 9 192773419.40133      -898.464          33.000  
G17  22179585.646 8 116554495.60722       -97.352          35.000  
C25  23747370.302 8 123658762.51223     -1702.181          35.000  
G 3  22769283.367 9                     -2632.394          18.000  
C21  24340645.021 9 126748093.86535      -227.948          31.000  
C12  23985662.500 9                     -1717.530          29.000  
C24  25091878.063 9 130659961.98635     -3732.062          31.000  
C23  25886155.628 9                       795.806          31.000  
G19  22468436.640 9 118072457.94923       670.346          32.000  
> 2021  5 21  6 32 52.0020000  0 20                     
G14  20675837.789 8 108652256.25424     -1400.567          27.000  
G28  20961861.743 8 110155326.59823       219.427          29.000  
C 7  36190770.922 8 188454816.33524      -833.584          27.000  
G 6  22062934.709 8 115941511.26623       213.855          30.000  
C11  23529206.667 8 122522722.85424      -463.792          31.000  
C 3  36841623.768 9                      -784.477          30.000  
C 8  36980585.855 9 192567588.40325     -1247.466          30.000  
C 1  37853360.345 9                      -804.359          30.000  
C10  36375944.431 8 189419051.87724      -380.359          30.000  
C13  37020289.149 8 192774317.42624      -898.883          31.000  
C 2  37534324.366 9                      -798.000          28.000  
G17  22179604.213 8 116554592.41623       -95.919          31.000  
C25  23747695.993 8                     -1707.007          32.000  
G 3  22769787.905 9                     -2634.090          18.000  
C21  24340687.948 9                      -230.786          30.000  
C12  23985991.472 9                     -1717.184          28.000  
C24  25092587.415 9                     -3731.943          30.000  
C23  25885999.588 9 134795175.63035       798.510          29.000  
G22  25340116.854 9                     -3872.045          20.000  
G19  22468308.415 8 118071787.13824       672.608          30.000  
> 2021  5 21  6 32 53.0020000  0 20                     
G14  20676105.144 8 108653656.89823     -1400.890          32.000  
G28  20961818.135 8 110155107.03523       220.214          30.000  
C 7  36190934.710 8 188455649.66123      -834.164          29.000  
G 6  22062899.600 8 115941296.56223       214.761          29.000  
C11  23529295.053 8 122523186.14823      -462.427          31.000  
C 3  36841769.565 9                      -775.293          29.000  
C 8  36980825.133 8 192568836.82824     -1247.915          29.000  
C 1  37853513.698 9                      -819.629          28.000  
C10  36376017.669 8 189419430.86723      -378.595          27.000  
C13  37020460.981 8 192775214.02324      -895.963          27.000  
C 2  37534469.796 9                      -718.848          27.000  
G17  22179622.466 4 116554688.44822       -96.479          35.000  
C25  23748023.132 9 123662156.87535     -1700.541          33.000  
G 3  22770289.284 9                     -2640.279          30.000  
C21  24340733.772 8 126748548.67635      -232.678          28.000  
C12  23986319.414 9                     -1711.491          24.000  
C24  25093302.856 9 130667387.08635     -3731.294          30.000  
C23  25885846.585 9                       800.325          28.000  
G22  25340856.028 9                     -3872.045          18.000  
G19  22468177.242 8 118071114.38723       673.990          31.000  
> 2021  5 21  6 32 54.0020000  0 20                     
G14  20676370.824 8 108655058.35622     -1402.225          32.000  
G28  20961775.766 8 110154887.38423       219.921          31.000  
C 7  36191092.983 4 188456483.75222      -835.347          33.000  
G 6  22062854.857 9                       215.058          18.000  
C11  23529383.630 8 122523647.89722      -461.956          33.000  
C 3  36841918.223 9 191845504.50934      -770.260          32.000  
C 8  36981066.696 8 192570084.37023     -1247.812          30.000  
C 1  37853666.230 9                      -800.879          28.000  
C10  36376091.397 4 189419809.35522      -378.961          30.000  
C13  37020630.912 8 192776109.26823      -894.452          30.000  
C 2  37534603.081 9                      -637.158          28.000  
G17  22179637.700 4 116554783.95122       -96.394          34.000  
C25  23748351.859 8 123663856.21322     -1698.602          35.000  
G 3  22770792.374 9 119661321.26834     -2641.714          31.000  
C21  24340774.728 8 126748782.59524      -235.333          29.000  
C12  23986649.014 9                     -1711.491          20.000  
C24  25094019.188 8 130671118.80523     -3732.004          31.000  
C23  25885690.109 8                       803.267          28.000  
G22  25341593.788 9                     -3872.045          13.000  
G19  22468054.061 8 118070439.81523       675.564          32.000  
> 2021  5 21  6 32 55.0020000  0 18                     
G14  20676634.025 4 108656461.00022     -1403.215          32.000  
G28  20961733.170 4 110154668.47822       219.034          32.000  
C 7  36191250.314 4 188457319.02522      -835.401          33.000  
G 6  22062813.500 9                       219.496          16.000  
C11  23529472.068 4 122524109.10722      -460.403          34.000  
C 3  36842066.917 8 191846273.35823      -767.887          32.000  
C 8  36981307.160 8 192571331.82822     -1246.404          31.000  
C 1  37853819.722 9                      -802.120          29.000  
C10  36376162.419 8 189420188.06422      -378.577          31.000  
C13  37020803.878 4 192777003.39022      -893.296          32.000  
G17  22179658.745 4 116554880.23722       -97.515          33.000  
C25  23748677.114 4 123665553.87422     -1696.582          37.000  
G 3  22771298.500 9                     -2646.079          23.000  
C21  24340823.606 8 126749019.93524      -238.928          31.000  
C12  23986978.753 9                     -1711.491          12.000  
C24  25094737.666 8 130674849.86622     -3730.863          32.000  
C23  25885541.433 8 134792758.25834       804.740          28.000  
G19  22467924.249 8 118069764.53323       675.343          32.000  
> 2021  5 21  6 32 56.0020000  0 16                     
G14  20676903.509 4 108657864.73622     -1404.615          35.000  
G28  20961696.995 4 110154450.51522       217.197          33.000  
C 7  36191412.758 4 188458155.46322      -837.820          32.000  
G 6  22062777.815 9                       219.496          14.000  
C11  23529562.076 4 122524570.61822      -461.673          34.000  
C 3  36842213.359 4 191847041.77622      -768.990          32.000  
C 8  36981545.460 4 192572579.63722     -1248.269          32.000  
C 1  37853978.048 9                      -814.209          29.000  
C10  36376234.942 4 189420567.22022      -379.346          32.000  
C13  37020976.234 4 192777896.19422      -892.545          33.000  
G17  22179676.300 8 116554978.53823      -100.684          30.000  
C25  23749002.770 8                     -1699.233          25.000  
G 3  22771810.403 9                     -2650.817          20.000  
C21  24340869.291 8 126749260.62023      -242.096          31.000  
C24  25095454.468 8 130678579.37022     -3729.337          34.000  
G19  22467793.041 8 118069089.30923       675.766          34.000  
> 2021  5 21  6 32 57.0020000  0 17                     
G14  20677168.717 4 108659269.64422     -1405.115          35.000  
G28  20961651.224 4 110154233.49722       216.928          33.000  
C 7  36191573.580 4 188458992.96022      -837.448          33.000  
G 6  22062739.686 9                       219.496          15.000  
C11  23529650.915 4 122525032.19412      -465.291          28.000  
C 3  36842362.436 4 191847809.72522      -767.821          33.000  
C 8  36981784.301 4 192573827.57123     -1247.305          33.000  
C 1  37854134.856 9                      -811.230          30.000  
C10  36376307.954 4 189420946.92622      -379.718          34.000  
C13  37021146.635 4 192778787.74722      -890.209          34.000  
G17  22179698.043 8 116555099.52135      -100.714          36.000  
C25  23749331.759 9                     -1690.397          22.000  
G 3  22772312.567 9                     -2650.817          16.000  
C21  24340916.389 9                      -233.301          33.000  
C24  25096166.734 8 130682307.96424     -3726.868          36.000  
C23  25885230.889 9                       806.702          37.000  
G19  22467665.480 9                       672.333          20.000  
> 2021  5 21  6 32 58.0020000  0 17                     
G14  20677436.822 8                     -1404.884          30.000  
G28  20961607.214 9                       213.022          20.000  
C 7  36191735.448 8 188459831.21423      -837.507          36.000  
G 6  22062698.695 9                       231.121          26.000  
C11  23529741.028 9                      -460.473          37.000  
C 3  36842509.925 8 191848577.19023      -769.747          33.000  
C 8  36982028.255 9                     -1251.847          21.000  
C 1  37854289.342 9                      -810.339          30.000  
C10  36376380.233 9                      -355.654          23.000  
C13  37021319.951 9                      -886.971          23.000  
G17  22179716.086 9                       -94.976          25.000  
C25  23749662.004 9                     -1701.627          19.000  
G 3  22772819.374 9                     -2650.817          14.000  
C21  24340964.604 9                      -242.432          32.000  
C24  25096883.554 9                     -3728.978          31.000  
C23  25885074.779 9 134790345.43833       809.042          37.000  
G19  22467534.533 9                       676.819          36.000  
> 2021  5 21  6 32 59.0020000  0 17                     
G14  20677706.132 9                     -1407.369          36.000  
G28  20961567.777 9 110153782.00035       215.761          33.000  
C 7  36191898.538 9                      -840.922          32.000  
G 6  22062643.675 9 115939974.87334       226.027          36.000  
C11  23529827.110 9 122525952.72433      -460.803          38.000  
C 3  36842655.460 9                      -774.121          32.000  
C 8  36982262.612 9 192576314.93835     -1247.456          34.000  
C 1  37854448.523 9                      -818.408          28.000  
C10  36376450.732 9 189421692.99835      -379.138          34.000  
C13  37021487.996 9 192780571.22335      -888.768          35.000  
C 2  37535339.271 9                      -746.924          32.000  
G17  22179733.868 9                       -80.097          25.000  
C25  23749995.076 9                     -1680.354          17.000  
G 3  22773323.563 9                     -2650.817          11.000  
C21  24341013.587 9                      -253.985          28.000  
C23  25884921.078 8 134789535.88622       810.186          35.000  
G19  22467408.682 9 118067013.13133       677.473          36.000  
> 2021  5 21  6 33  1.0020000  0 16                     
G14  20678241.679 4 108664886.81232     -1409.930          36.000  
G28  20961492.165 8 110153351.24722       215.107          34.000  
C 7  36192219.081 8 188462360.12132      -841.489          34.000  
G 6  22062557.732 8 115939520.15922       227.080          35.000  
C11  23530003.078 4 122526872.53122      -459.512          38.000  
C 3  36842950.351 8 191850878.55734      -765.576          33.000  
C 8  36982742.214 8 192578809.38422     -1247.023          33.000  
C 1  37854760.097 9                      -798.926          31.000  
C10  36376599.564 8 189422452.47922      -379.242          34.000  
C13  37021828.660 8 192782346.55423      -888.552          35.000  
G17  22179773.934 9                      -102.805          36.000  
C25  23750633.615 9                     -1687.549          33.000  
G 3  22774334.472 9                     -2647.625          12.000  
C21  24341112.390 9 126750527.71034      -256.683          37.000  
C23  25884610.970 4 134787913.87322       813.835          34.000  
G19  22467151.797 4 118065657.70721       679.228          39.000  
> 2021  5 21  6 33  2.0020000  0 13                     
G14  20678511.494 4 108666296.39622     -1410.052          36.000  
G28  20961450.232 4 110153135.94122       215.190          33.000  
C 7  36192380.792 8 188463201.98022      -842.474          34.000  
G 6  22062513.548 4 115939290.72922       229.672          37.000  
C11  23530094.412 4 122527330.19422      -457.419          36.000  
C 3  36843098.190 9                      -765.353          34.000  
C 8  36982981.037 4 192580055.63722     -1245.337          33.000  
C10  36376668.824 8 189422831.59823      -378.522          34.000  
C13  37022000.038 8 192783232.50324      -884.791          36.000  
G17  22179793.809 8 116555598.93733      -100.623          38.000  
C25  23750951.959 9                     -1686.456          29.000  
C23  25884453.010 8 134787099.90623       813.330          33.000  
G19  22467020.101 4 118064977.53321       681.364          34.000  
> 2021  5 21  6 33  3.0020000  0 15                     
G14  20678779.128 4 108667707.68621     -1411.922          36.000  
G28  20961405.420 4 110152921.17722       213.700          34.000  
C 7  36192541.404 4 188464029.34632      -843.763          34.000  
G 6  22062474.285 8 115939060.70924       227.954          30.000  
C11  23530182.117 4 122527801.61832      -456.301          38.000  
C 3  36843245.714 8 191852416.73233      -768.442          35.000  
C 8  36983219.896 4 192581301.80022     -1246.411          34.000  
C 1  37855077.342 9                      -827.500          32.000  
C10  36376743.546 4 189423210.69922      -378.510          34.000  
C13  37022171.452 4 192784118.31922      -885.481          36.000  
G17  22179817.071 9                      -100.851          28.000  
C25  23751278.505 9                     -1681.747          28.000  
C21  24341213.165 9                      -262.695          35.000  
C23  25884296.255 4 134786284.21322       815.492          34.000  
G19  22466890.760 8 118064295.78023       683.779          31.000  
> 2021  5 21  6 33  4.0020000  0 16                     
G14  20679045.733 4 108669119.64021     -1412.541          36.000  
G28  20961364.464 4 110152706.43722       214.542          33.000  
C 7  36192703.830 4 188464873.14222      -844.231          34.000  
G 6  22062431.864 8 115938861.85135       230.045          30.000  
C11  23530268.775 4 122528256.78022      -454.860          38.000  
C 3  36843393.482 8 191853185.24024      -768.175          31.000  
C 8  36983460.046 4 192582547.36922     -1244.775          34.000  
C 1  37855229.979 9 197122084.74335      -819.770          32.000  
C10  36376816.732 4 189423589.44622      -378.571          34.000  
C13  37022342.028 4 192785003.52522      -885.393          35.000  
G17  22179834.887 9                       -98.846          35.000  
C25  23751603.707 9                     -1683.734          29.000  
C 4  38784890.050 9                      -837.727          29.000  
C24  25101195.590 9                     -3726.193          29.000  
C23  25884139.413 4 134785467.09722       817.351          35.000  
G19  22466760.092 9                       684.241          30.000  
> 2021  5 21  6 33  5.0020000  0 18                     
G14  20679314.815 4 108670532.70322     -1413.482          36.000  
G28  20961323.229 9                       213.875          32.000  
C 7  36192866.745 4 188465717.61423      -844.451          33.000  
G 6  22062387.034 9                       231.221          30.000  
C11  23530356.480 4 122528711.78921      -455.518          39.000  
C 3  36843541.268 9 191853955.82835      -767.074          30.000  
C 8  36983700.039 4 192583793.14322     -1245.038          33.000  
C 1  37855385.303 9 197122904.20224      -818.889          32.000  
C10  36376889.465 4 189423968.28923      -378.326          34.000  
C13  37022512.167 4 192785889.11622      -886.842          35.000  
G17  22179851.238 9                      -100.049          35.000  
C25  23751930.061 9                     -1685.921          19.000  
G 3  22776362.257 9                     -2647.625          12.000  
C21  24341306.576 9                      -268.213          32.000  
C12  23990279.514 9                     -1745.775          14.000  
C 4  38785046.892 9                      -833.301          28.000  
C23  25883982.779 4 134784649.65723       818.983          33.000  
G19  22466633.840 9 118062957.39835       683.585          35.000  
> 2021  5 21  6 33  6.0020000  0 15                     
G14  20679583.758 4 108671945.75122     -1412.696          36.000  
G28  20961284.594 8 110152282.46433       214.189          35.000  
C 7  36193030.236 4 188466561.62122      -843.175          34.000  
G 6  22062346.602 9                       231.464          23.000  
C11  23530442.649 9                      -457.275          32.000  
C 3  36843691.637 9                      -837.988          27.000  
C 8  36983939.298 4 192585038.30722     -1244.232          34.000  
C10  36376962.442 4 189424346.61622      -377.362          34.000  
C13  37022681.731 8 192786773.97323      -884.584          33.000  
G17  22179869.666 9                       -97.870          36.000  
C25  23752253.361 9                     -1685.921          17.000  
G 3  22776870.076 9                     -2667.199          16.000  
C21  24341365.662 9 126751847.25335      -263.251          35.000  
C 4  38785216.404 9                      -853.418          27.000  
G19  22466499.229 9                       685.329          37.000  
> 2021  5 21  6 33  7.0020000  0 16                     
G14  20679852.840 9                     -1410.059          23.000  
G28  20961242.941 9                       232.487          24.000  
C 7  36193191.651 8 188467405.02524      -846.189          30.000  
G 6  22062302.279 9                       203.711          22.000  
C11  23530539.550 9                      -468.220          17.000  
C 3  36843869.071 9                     -1007.178          27.000  
C 8  36984179.012 9                     -1255.865          19.000  
C 1  37855703.735 9                      -818.984          33.000  
C10  36377035.384 9                      -391.874          24.000  
C13  37022849.462 9                      -883.796          22.000  
G17  22179884.306 9                      -149.128          26.000  
C25  23752578.598 9                     -1685.921          14.000  
G 3  22777382.030 9                     -2665.149          17.000  
C21  24341417.071 9                      -265.695          27.000  
C 4  38785373.089 9                      -807.520          28.000  
G19  22466379.747 9                       618.604          24.000  
> 2021  5 21  6 33  8.0020000  0 13                     
G14  20680124.645 9                     -1423.735          20.000  
G28  20961199.403 9                       232.487          20.000  
C 7  36193359.679 9                      -877.790          21.000  
G 6  22062272.072 9                       188.375          18.000  
C11  23530631.007 9                      -468.220          13.000  
C 8  36984420.296 9                     -1255.865          16.000  
C 1  37855862.863 9                      -843.555          28.000  
C10  36377110.629 9                      -391.874          19.000  
C13  37023020.248 9                      -883.796          18.000  
G17  22179912.401 9                      -149.128          22.000  
C25  23752900.084 9                     -1685.921          10.000  
G 3  22777890.669 9                     -2665.149          16.000  
G19  22466257.770 9                       649.854          20.000  
> 2021  5 21  6 33  9.0020000  0 10                     
G14  20680397.095 9                     -1423.735          17.000  
C 7  36193528.527 9                      -877.790          17.000  
G 6  22062236.299 9                       188.375          14.000  
C 8  36984661.354 9                     -1255.865          12.000  
C10  36377186.834 9                      -391.874          13.000  
C13  37023188.450 9                      -883.796          13.000  
G17  22179944.126 9                      -149.128          16.000  
G 3  22778396.656 9                     -2665.149          13.000  
C23  25883364.361 9                       814.895          29.000  
G19  22466135.846 9                       649.854          15.000  
> 2021  5 21  6 33 10.0020000  0 12                     
G14  20680665.706 9                     -1408.365          24.000  
G28  20961121.103 9                       216.303          33.000  
G 6  22062193.023 9                       229.313          23.000  
C11  23530793.224 9                      -453.650          40.000  
C 8  36984899.863 9                     -1243.611          33.000  
C10  36377258.956 9                      -378.499          32.000  
C13  37023361.434 9                      -883.892          24.000  
G17  22179969.969 9                       -85.009          23.000  
C25  23753551.623 9                     -1689.945          16.000  
G 3  22778904.928 9                     -2665.149          11.000  
C23  25883200.853 9                       809.281          29.000  
G19  22465988.374 9                       681.279          32.000  
> 2021  5 21  6 33 11.0020000  0 12                     
G14  20680930.269 9 108679021.18434     -1411.394          38.000  
G28  20961074.773 9 110151190.48634       216.181          33.000  
C 7  36193839.246 9 188470787.57635      -837.945          36.000  
G 6  22062133.483 9                       227.902          31.000  
C11  23530878.974 9 122531437.68433      -454.200          32.000  
C 8  36985133.731 9 192591264.70134     -1242.520          32.000  
C10  36377324.499 9 189426242.81934      -375.531          32.000  
C13  37023521.610 9                      -883.678          29.000  
C25  23753879.303 9                     -1668.271          21.000  
G 3  22779414.457 9                     -2665.496          28.000  
C21  24341612.827 9                      -254.202          32.000  
G19  22465851.058 9 118058843.48435       683.388          38.000  
> 2021  5 21  6 33 12.0020000  0 17                     
G14  20681196.507 8 108680431.89322     -1410.914          38.000  
G28  20961037.744 8 110150975.62023       213.465          34.000  
C 7  36193999.544 8 188471625.40922      -837.941          35.000  
G 6  22062086.803 9                       225.332          26.000  
C11  23530967.796 9                      -455.678          31.000  
C 3  36844571.407 9                      -761.621          33.000  
C 8  36985372.101 8 192592507.70122     -1243.306          32.000  
G17  22179988.868 9 116556627.40935       -97.937          34.000  
C10  36377396.586 8 189426618.44523      -375.372          32.000  
C13  37023698.922 9 192792045.96933      -884.474          33.000  
C 1  37856484.283 9                      -812.844          33.000  
C25  23754203.388 9                     -1692.495          24.000  
G 3  22779919.903 9                     -2664.307          32.000  
C21  24341664.218 9 126753401.91834      -256.989          39.000  
C 4  38786159.291 9                      -771.852          28.000  
C23  25882891.774 9                       806.125          30.000  
G19  22465719.623 8 118058161.74522       682.651          39.000  
> 2021  5 21  6 33 13.0020000  0 17                     
G14  20681465.973 4 108681842.39121     -1410.422          35.000  
G28  20960996.055 8 110150761.27922       214.389          34.000  
C 7  36194159.388 8 188472462.11522      -835.593          35.000  
G 6  22062036.407 9 115936782.95735       224.857          27.000  
C11  23531056.582 9                      -459.477          31.000  
C 3  36844718.268 9 191860085.37633      -763.094          35.000  
C 8  36985607.539 8 192593751.11522     -1243.005          33.000  
C10  36377468.358 8 189426994.39822      -376.202          33.000  
C13  37023869.864 8 192792931.25322      -885.018          37.000  
C 1  37856633.884 9                      -816.455          33.000  
C25  23754527.892 9                     -1691.613          25.000  
G 3  22780472.534 9                     -2666.628          31.000  
C21  24341713.986 8 126753657.68823      -253.650          37.000  
C12  23993030.663 9                     -1723.969          23.000  
C 4  38786311.178 9                      -822.266          27.000  
C23  25882735.403 9 134778163.46434       805.876          31.000  
G19  22465592.446 9                       669.458          23.000  
> 2021  5 21  6 33 14.0020000  0 16                     
G14  20681733.624 4 108683253.03021     -1410.577          35.000  
G28  20960958.816 8 110150548.05923       210.499          29.000  
C 7  36194318.464 4 188473298.23122      -836.259          36.000  
G 6  22062000.599 9                       227.526          24.000  
C11  23531143.293 9                      -458.776          36.000  
C 3  36844864.937 4 191860847.39122      -762.143          35.000  
C 8  36985848.230 8                     -1247.395          20.000  
C10  36377541.580 8 189427371.19823      -380.084          28.000  
C13  37024038.939 9                      -888.469          23.000  
C 1  37856792.245 9                      -805.664          31.000  
C25  23754851.315 9                     -1688.131          23.000  
G 3  22780990.840 9                     -2664.564          27.000  
C21  24341763.754 8                      -254.134          32.000  
C12  23993367.958 9                     -1718.841          24.000  
C23  25882579.363 8 134777360.29223       801.580          31.000  
G19  22465465.356 9                       677.518          34.000  
> 2021  5 21  6 33 15.0020000  0 16                     
G14  20681999.775 9                     -1404.832          26.000  
G28  20960919.204 9                       211.641          34.000  
C 7  36194480.350 9                      -842.455          26.000  
G 6  22061949.051 9                       220.167          37.000  
C11  23531230.387 9 122533260.40133      -460.554          38.000  
C 3  36845009.512 9                      -766.211          27.000  
C 8  36986089.253 9                     -1245.881          33.000  
G17  22180038.880 9 116556890.15425       -98.346          40.000  
C10  36377615.586 9                      -377.454          33.000  
C13  37024207.718 9                      -887.825          36.000  
C 1  37856943.503 9 197131007.70335      -804.232          35.000  
C25  23755171.840 9                     -1692.926          29.000  
G 3  22781502.951 9                     -2683.065          27.000  
C21  24341811.376 9 126754167.51234      -252.545          38.000  
C23  25882423.917 8 134776559.82823       799.572          34.000  
G19  22465334.881 9 118056139.72933       676.210          39.000  
> 2021  5 21  6 33 16.0020000  0 15                     
G14  20682268.299 9 108686052.71334     -1411.362          38.000  
G28  20960874.863 9 110150140.29633       211.295          35.000  
C 7  36194640.106 9 188474957.30935      -834.898          37.000  
G 6  22061904.222 9                       219.230          31.000  
C11  23531317.254 8 122533720.85123      -461.088          35.000  
C 3  36845157.001 9 191862369.34435      -762.793          37.000  
C 8  36986329.420 9 192597491.14433     -1244.965          34.000  
G17  22180054.812 8 116556989.59523      -101.031          40.000  
C10  36377685.823 9 189428136.62733      -377.051          34.000  
C13  37024380.265 9 192795621.11734      -888.779          38.000  
C25  23755500.672 9                     -1694.927          30.000  
G 3  22782007.577 9                     -2651.196          25.000  
C 4  38786786.958 9                      -805.031          28.000  
C23  25882270.808 8 134775761.30423       797.460          31.000  
G19  22465205.453 8 118055464.35422       673.719          38.000  
> 2021  5 21  6 33 17.0020000  0 17                     
G14  20682539.790 8 108687464.16322     -1411.802          38.000  
G28  20960835.408 8 110149929.88322       209.346          34.000  
C 7  36194802.882 8 188475791.65222      -833.757          36.000  
G 6  22061867.838 9 115935897.51535       216.447          36.000  
C11  23531406.459 8 122534183.39922      -465.327          37.000  
C 3  36845303.670 9                      -758.136          29.000  
C 8  36986567.354 8 192598737.76922     -1248.058          33.000  
G17  22180082.331 9                      -105.026          23.000  
C10  36377759.149 8 189428515.18123      -379.718          33.000  
C13  37024550.056 9 192796516.42234      -891.681          35.000  
C 1  37857257.310 9                      -827.469          31.000  
C25  23755821.861 9                     -1702.660          30.000  
G 3  22782518.449 9                     -2662.774          22.000  
C21  24341906.445 9 126754662.74135      -249.213          37.000  
C 4  38786941.410 9                      -809.717          27.000  
C23  25882119.480 4 134774966.44622       792.337          36.000  
G19  22465076.059 4 118054791.36322       670.099          40.000  
> 2021  5 21  6 33 18.0020000  0 16                     
G14  20682804.422 4 108688876.46922     -1412.509          38.000  
G28  20960799.566 4 110149721.75622       207.455          36.000  
C 7  36194961.121 4 188476625.95021      -833.965          37.000  
G 6  22061825.033 8 115935683.31222       212.013          40.000  
C11  23531500.394 9 122534665.52535      -468.639          37.000  
C 3  36845450.322 9                      -760.484          34.000  
C 8  36986806.003 8 192599986.56122     -1249.972          34.000  
C10  36377833.783 4 189428895.68022      -380.463          33.000  
C13  37024722.255 8 192797407.88524      -891.958          35.000  
C 1  37857407.400 9                      -791.938          33.000  
C25  23756146.819 9                     -1702.144          34.000  
G 3  22783020.736 9                     -2680.405          22.000  
C21  24341955.724 8 126754910.99924      -247.198          36.000  
C 4  38787093.873 9                      -801.025          28.000  
C23  25881967.977 4 134774176.69522       787.772          33.000  
G19  22464947.434 4 118054122.29222       667.181          38.000  
> 2021  5 21  6 33 19.0020000  0 16                     
G14  20683075.372 4 108690289.21521     -1412.559          40.000  
G28  20960756.848 4 110149515.34022       206.351          35.000  
C 7  36195122.430 4 188477459.66722      -833.085          36.000  
G 6  22061784.251 8 115935471.97323       211.151          41.000  
C11  23531586.790 8 122535134.72023      -469.672          35.000  
C 3  36845596.293 9 191864657.61435      -758.716          37.000  
C 8  36987049.835 4 192601236.94322     -1250.388          34.000  
C10  36377906.150 4 189429277.69822      -382.587          33.000  
C13  37024892.918 4 192798301.04522      -893.247          36.000  
C 1  37857559.461 9 197134214.45235      -793.346          33.000  
C25  23756472.492 8 123706163.15734     -1705.407          33.000  
G 3  22783528.922 9                     -2651.251          21.000  
C21  24342002.962 8 126755157.17922      -245.233          38.000  
C 4  38787243.997 9                      -800.837          30.000  
C23  25881815.166 4 134773391.56222       783.342          35.000  
G19  22464823.153 4 118053456.86622       663.529          39.000  
> 2021  5 21  6 33 20.0020000  0 18                     
G14  20683347.805 4 108691702.39221     -1413.394          39.000  
G28  20960716.747 4 110149310.71421       203.300          35.000  
C 7  36195280.843 4 188478292.80621      -831.765          36.000  
G 6  22061746.786 8 115935263.81422       205.457          40.000  
C11  23531675.838 8 122535607.05222      -473.872          35.000  
C 3  36845742.090 8 191865417.44223      -758.871          34.000  
C 8  36987289.077 4 192602489.17322     -1253.319          33.000  
G17  22180133.984 9 116557389.86734      -107.982          38.000  
C10  36377980.051 4 189429661.19522      -384.143          33.000  
C13  37025064.925 8 192799196.37523      -897.645          28.000  
C 1  37857711.365 8 197135007.75723      -792.001          33.000  
C 2  37538361.840 9                      -782.031          28.000  
C25  23756795.897 9                     -1705.537          29.000  
G 3  22784037.927 9                     -2649.791          22.000  
C21  24342049.641 4 126755401.45622      -242.938          38.000  
C 4  38787395.936 9 201976124.64435      -794.944          30.000  
C23  25881668.252 4 134772611.03622       778.407          36.000  
G19  22464696.814 4 118052794.75322       659.505          39.000  
> 2021  5 21  6 33 21.0020000  0 17                     
G14  20683612.804 4 108693115.63921     -1413.147          36.000  
G28  20960678.060 4 110149107.72422       202.327          34.000  
C 7  36195441.665 4 188479131.11131      -832.864          36.000  
G 6  22061705.411 4 115935058.36622       204.324          36.000  
C11  23531768.167 8 122536082.59122      -477.854          35.000  
C 3  36845887.991 9                      -760.400          34.000  
C 8  36987528.163 4 192603742.89022     -1253.560          33.000  
G17  22180153.895 8 116557498.98122      -110.461          38.000  
C10  36378053.237 4 189430046.07922      -385.925          33.000  
C13  37025235.954 8 192800092.70124      -898.646          36.000  
C 1  37857861.227 8 197135797.98124      -788.397          32.000  
C25  23757129.266 9 123709574.75834     -1710.858          39.000  
G 3  22784545.170 9                     -2654.970          20.000  
C21  24342094.802 2 126755643.32521      -240.790          41.000  
C 4  38787552.115 9                      -789.941          29.000  
C23  25881519.891 4 134771835.27322       773.686          34.000  
G19  22464572.376 4 118052136.24922       657.028          39.000  
> 2021  5 21  6 33 22.0020000  0 17                     
G14  20683882.881 2 108694529.25921     -1414.220          36.000  
G28  20960640.106 4 110148906.26522       200.938          33.000  
C 7  36195599.275 4 188479962.76322      -831.454          36.000  
G 6  22061667.998 4 115934855.58421       201.656          40.000  
C11  23531858.019 8 122536560.74423      -478.626          35.000  
C 8  36987769.534 4 192604998.14122     -1256.169          34.000  
G17  22180173.352 4 116557609.75822      -111.195          36.000  
C10  36378127.366 4 189430432.18422      -386.511          34.000  
C13  37025411.643 4 192800990.80322      -898.627          36.000  
C 1  37858014.772 8 197136585.81924      -787.874          32.000  
C 2  37538642.649 9                      -757.906          33.000  
C25  23757459.948 8 123711286.37722     -1713.233          37.000  
G 3  22785051.296 9                     -2666.078          19.000  
C21  24342141.918 2 126755883.56921      -240.790          42.000  
C 4  38787702.257 9                      -777.224          29.000  
C23  25881370.691 4 134771063.681 2       770.823          36.000  
G19  22464447.502 2 118051480.85321       655.058          39.000  
> 2021  5 21  6 33 23.0020000  0 18                     
G14  20684153.062 2 108695943.64621     -1414.910          39.000  
G28  20960602.675 4 110148705.48622       201.283          36.000  
C 7  36195759.800 2 188480794.68421      -832.247          37.000  
G 6  22061628.421 4 115934653.52722       202.528          39.000  
C11  23531951.953 8 122537039.22623      -479.119          35.000  
C 3  36846174.122 9                      -766.953          32.000  
C 8  36988010.330 4 192606253.68922     -1255.161          34.000  
G17  22180196.334 4 116557720.84622      -109.396          38.000  
C10  36378201.425 4 189430818.63222      -385.864          34.000  
C13  37025582.969 4 192801889.27722      -898.066          36.000  
C 1  37858166.345 8 197137373.74224      -789.318          32.000  
C 2  37538789.790 9                      -754.059          33.000  
C25  23757789.303 4 123712998.61921     -1712.492          40.000  
G 3  22785557.335 9                     -2666.357          18.000  
C21  24342188.074 2 126756124.27521      -241.187          41.000  
C 4  38787853.533 9                      -781.543          27.000  
C23  25881222.556 2 134770292.901 1       770.629          36.000  
G19  22464322.786 2 118050825.76021       655.707          40.000  
> 2021  5 21  6 33 24.0020000  0 18                     
G14  20684422.354 2 108697358.64921     -1415.137          39.000  
G28  20960564.407 4 110148505.07622       200.192          36.000  
C 7  36195920.464 2 188481626.86621      -832.111          37.000  
G 6  22061590.798 4 115934451.29722       202.727          39.000  
C11  23532042.782 4 122537517.05322      -478.140          33.000  
C 3  36846325.485 9                      -756.598          33.000  
C 8  36988251.474 4 192607508.97922     -1254.235          34.000  
G17  22180215.913 8 116557831.44823      -110.502          37.000  
C10  36378275.832 4 189431204.95522      -386.328          33.000  
C13  37025755.482 4 192802787.60522      -898.391          36.000  
C 1  37858317.306 9 197138160.94534      -787.426          32.000  
C 2  37538934.260 9 195475052.12334      -754.208          33.000  
C25  23758114.820 4 123714710.90421     -1711.481          40.000  
G 3  22786065.555 9                     -2658.036          19.000  
C21  24342235.713 2 126756365.74321      -241.528          39.000  
C 4  38788006.694 9                      -803.857          27.000  
C23  25881074.928 4 134769521.672 2       772.230          36.000  
G19  22464197.999 2 118050170.06121       656.371          41.000  
> 2021  5 21  6 33 25.0020000  0 18                     
G14  20684691.785 2 108698774.444 1     -1416.600          38.000  
G28  20960526.173 4 110148304.825 2       198.931          36.000  
C 7  36196080.151 2 188482459.53921      -833.604          36.000  
G 6  22061552.321 4 115934248.703 2       203.280          35.000  
C11  23532134.762 4 122537993.96523      -477.214          36.000  
C 3  36846467.233 9 191869213.63833      -758.875          35.000  
C 8  36988492.741 4 192608764.01222     -1254.917          34.000  
G17  22180246.363 9                      -109.541          27.000  
C10  36378350.066 4 189431590.98222      -385.999          34.000  
C13  37025926.494 4 192803685.67921      -898.839          37.000  
C 1  37858468.495 8 197138950.26924      -790.264          32.000  
C 2  37539078.381 8 195475806.82423      -754.741          33.000  
C25  23758445.693 4 123716423.15522     -1710.772          35.000  
G 3  22786574.316 9                     -2667.412          23.000  
C21  24342281.991 4 126756608.61022      -244.104          38.000  
C 4  38788154.898 9                      -749.365          27.000  
C23  25880926.531 4 134768749.728 2       772.726          35.000  
G19  22464073.056 2 118049512.85411       656.832          41.000  
> 2021  5 21  6 33 26.0020000  0 17                     
G14  20684961.496 1 108700190.759 1     -1416.200          38.000  
G28  20960488.132 4 110148104.894 2       199.036          35.000  
C 7  36196239.872 2 188483292.10921      -832.373          36.000  
G 6  22061513.721 4 115934046.885 2       200.392          40.000  
C11  23532226.742 4 122538470.80922      -478.318          35.000  
C 3  36846614.758 8 191869972.55822      -758.011          34.000  
C 8  36988733.589 4 192610019.08622     -1255.553          34.000  
G17  22180267.583 9                      -110.479          26.000  
C10  36378424.246 4 189431977.05922      -386.902          33.000  
C13  37026100.106 4 192804583.98122      -898.545          35.000  
C 1  37858619.736 8 197139739.21323      -787.718          33.000  
C 2  37539225.487 8 195476561.62423      -753.808          32.000  
C25  23758773.147 4 123718136.25022     -1714.996          38.000  
G 3  22787083.391 9                     -2677.921          22.000  
C21  24342330.188 9                      -240.168          30.000  
C23  25880778.344 4 134767978.282 2       770.367          35.000  
G19  22463947.588 2 118048856.050 1       655.635          39.000  
> 2021  5 21  6 33 27.0020000  0 16                     
G14  20685231.189 2 108701607.323 1     -1417.313          36.000  
G28  20960450.404 4 110147905.861 2       198.418          34.000  
C 7  36196400.065 2 188484124.17521      -832.510          36.000  
G 6  22061475.522 2 115933846.365 2       199.882          38.000  
C11  23532318.320 4 122538948.39312      -478.762          35.000  
C 3  36846761.339 4 191870724.06132      -758.302          34.000  
C 8  36988974.611 4 192611274.32112     -1256.321          34.000  
C10  36378498.515 4 189432363.19612      -386.798          33.000  
C13  37026271.398 4 192805482.976 2      -899.719          35.000  
C 1  37858770.715 4 197140526.52523      -787.512          32.000  
C 2  37539369.835 8 195477317.03123      -755.701          31.000  
C25  23759102.973 4 123719850.42022     -1714.176          38.000  
G 3  22787593.322 9                     -2665.056          24.000  
C21  24342374.198 9                      -240.812          23.000  
C23  25880630.505 2 134767209.105 1       768.648          36.000  
G19  22463823.099 2 118048200.744 1       655.067          39.000  
> 2021  5 21  6 33 28.0020000  0 17                     
G14  20685500.969 2 108703025.181 1     -1418.954          36.000  
G28  20960412.817 4 110147708.058 2       197.238          34.000  
C 7  36196560.206 2 188484957.11421      -833.605          36.000  
G 6  22061437.446 2 115933646.970 1       198.806          38.000  
C11  23532410.370 4 122539427.060 2      -478.926          35.000  
C 3  36846905.705 4 191871475.25232      -759.292          34.000  
C 8  36989215.843 4 192612530.789 2     -1256.705          34.000  
C10  36378572.608 4 189432750.538 2      -386.908          33.000  
C13  37026444.818 4 192806382.789 1      -900.424          35.000  
C 1  37858922.166 8 197141314.59923      -790.112          32.000  
C 2  37539515.579 8 195478072.93124      -755.383          31.000  
C25  23759432.049 4 123721565.75421     -1715.176          36.000  
G 3  22788103.514 9                     -2664.361          23.000  
C21  24342428.346 9                      -243.573          24.000  
C 4  38788620.261 9                      -753.133          27.000  
C23  25880482.789 4 134766440.986 2       766.698          36.000  
G19  22463698.487 2 118047546.070 1       654.401          39.000  
> 2021  5 21  6 33 29.0020000  0 16                     
G14  20685770.977 2 108704443.878 1     -1418.522          35.000  
G28  20960375.421 4 110147511.495 2       195.062          35.000  
C 7  36196720.294 2 188485790.26921      -833.784          36.000  
G 6  22061399.806 2 115933449.155 1       195.931          38.000  
C11  23532502.577 2 122539907.139 1      -481.776          34.000  
C 3  36847052.235 4 191872238.66522      -759.503          33.000  
C 8  36989457.284 4 192613788.218 2     -1258.168          33.000  
C10  36378646.981 4 189433138.845 2      -389.410          33.000  
C13  37026618.744 2 192807283.636 1      -901.600          35.000  
C 1  37859073.564 4 197142102.03323      -786.473          32.000  
C 2  37539660.276 8 195478829.69723      -757.501          32.000  
C25  23759761.213 2 123723282.66921     -1717.990          38.000  
G 3  22788614.840 9                     -2660.065          21.000  
C 4  38788770.402 9                      -781.982          27.000  
C23  25880335.684 4 134765674.940 2       764.211          33.000  
G19  22463574.101 2 118046892.901 1       651.871          39.000  
> 2021  5 21  6 33 30.0020000  0 15                     
G14  20686041.176 2 108705863.086 1     -1418.683          35.000  
G28  20960338.304 4 110147316.279 2       195.470          35.000  
C 7  36196880.383 4 188486623.02322      -832.244          34.000  
G 6  22061362.515 2 115933253.583 1       195.234          39.000  
C11  23532595.203 4 122540389.344 2      -482.246          33.000  
C 3  36847198.764 4 191873001.72032      -758.172          32.000  
C 8  36989699.092 4 192615046.892 2     -1259.443          32.000  
C10  36378721.755 4 189433528.184 2      -389.362          32.000  
C13  37026792.077 4 192808185.777 2      -901.803          32.000  
C 1  37859224.491 4 197142884.80032      -784.277          30.000  
C 2  37539805.462 8 195479587.34023      -758.691          30.000  
C25  23760091.510 2 123725001.48821     -1719.133          36.000  
G 3  22789124.177 9                     -2674.758          19.000  
C23  25880189.503 2 134764912.375 2       761.174          33.000  
G19  22463450.310 2 118046242.233 1       649.955          39.000  
> 2021  5 21  6 33 31.0020000  0 15                     
G14  20686311.305 2 108707282.297 1     -1418.989          35.000  
G28  20960301.275 2 110147121.874 2       194.178          35.000  
C 7  36197040.209 2 188487455.11721      -832.033          35.000  
G 6  22061325.381 1 115933059.280 1       193.782          38.000  
C11  23532687.899 4 122540872.912 2      -484.151          33.000  
C 3  36847344.299 4 191873758.98332      -757.586          32.000  
C 8  36989940.917 4 192616306.081 2     -1259.623          32.000  
C10  36378796.512 4 189433918.002 2      -389.795          32.000  
C13  37026965.410 4 192809088.428 2      -902.236          34.000  
C 1  37859374.877 4 197143668.68433      -782.388          30.000  
C 2  37539950.892 8 195480345.06725      -758.565          30.000  
C25  23760421.634 2 123726721.31421     -1719.891          37.000  
G 3  22789634.142 9                     -2669.503          20.000  
C23  25880043.567 2 134764152.219 1       759.943          35.000  
G19  22463326.535 2 118045593.069 1       648.805          39.000  
> 2021  5 21  6 33 32.0020000  0 16                     
G14  20686581.138 4 108708702.129 2     -1420.578          35.000  
G28  20960264.333 4 110146928.551 2       193.253          35.000  
C 7  36197199.844 2 188488287.09221      -832.220          35.000  
G 6  22061288.718 2 115932866.437 1       191.854          38.000  
C11  23532781.065 4 122541357.940 2      -485.283          33.000  
C 3  36847489.764 4 191874516.97922      -757.403          32.000  
C 8  36990183.039 4 192617566.174 2     -1260.228          33.000  
G17  22180401.007 9                      -111.096          24.000  
C10  36378871.321 4 189434308.653 2      -390.503          32.000  
C13  37027138.883 4 192809991.872 2      -903.348          34.000  
C 1  37859525.577 8 197144452.63324      -782.480          30.000  
C 2  37540097.073 9                      -753.613          28.000  
C25  23760752.054 2 123728442.40721     -1721.604          37.000  
G 3  22790140.321 9                     -2664.731          19.000  
C23  25879898.067 2 134763394.341 1       757.101          35.000  
G19  22463204.052 1 118044945.662 1       646.887          40.000  
> 2021  5 21  6 33 33.0020000  0 16                     
G14  20686851.058 4 108710122.373 2     -1420.114          35.000  
G28  20960227.949 2 110146736.088 1       191.984          35.000  
C 7  36197359.478 2 188489118.43211      -831.561          35.000  
G 6  22061252.229 1 115932674.669 1       191.471          39.000  
C11  23532874.267 2 122541843.867 1      -485.603          34.000  
C 3  36847635.124 4 191875273.76132      -757.517          32.000  
C 8  36990425.038 4 192618826.782 2     -1261.836          33.000  
G17  22180421.790 9                      -116.829          25.000  
C10  36378946.409 4 189434699.705 3      -391.467          32.000  
C13  37027312.513 4 192810895.851 2      -903.905          34.000  
C 1  37859675.806 8 197145234.79224      -782.197          30.000  
C 2  37540240.985 9                      -784.521          27.000  
C25  23761082.945 2 123730164.456 1     -1723.175          34.000  
G 3  22790651.717 9                     -2667.409          18.000  
C23  25879752.707 4 134762638.044 2       755.411          34.000  
G19  22463081.063 2 118044299.204 1       645.785          40.000  
> 2021  5 21  6 33 34.0020000  0 16                     
G14  20687121.397 2 108711542.935 1     -1420.758          35.000  
G28  20960191.356 2 110146544.405 2       191.095          35.000  
C 7  36197519.340 2 188489949.879 1      -831.089          35.000  
G 6  22061215.846 2 115932483.857 1       190.471          37.000  
C11  23532967.870 4 122542330.878 2      -487.907          34.000  
C 3  36847780.310 4 191876031.01422      -757.790          32.000  
C 8  36990667.230 4 192620087.865 2     -1261.655          33.000  
G17  22180436.501 8 116558980.23734      -117.839          28.000  
C10  36379021.707 4 189435091.176 2      -392.212          32.000  
C13  37027485.968 4 192811800.211 2      -904.601          34.000  
C 1  37859825.738 8 197146015.80925      -782.968          30.000  
C25  23761413.609 2 123731887.398 1     -1723.924          37.000  
G 3  22791164.387 9                     -2667.203          20.000  
C21  24342699.749 9                      -239.001          25.000  
C23  25879607.905 4 134761883.700 2       753.525          32.000  
G19  22462958.458 1 118043654.023 1       644.295          40.000  
> 2021  5 21  6 33 35.0020000  0 17                     
G14  20687391.770 2 108712963.899 1     -1420.985          35.000  
G28  20960155.129 2 110146353.753 1       190.090          35.000  
C 7  36197678.800 2 188490781.137 1      -830.925          35.000  
G 6  22061179.758 2 115932294.532 1       188.754          37.000  
C11  23533061.473 4 122542819.246 2      -489.270          35.000  
C 3  36847925.723 4 191876787.97422      -757.642          32.000  
C 8  36990909.579 4 192621349.709 2     -1261.927          32.000  
G17  22180460.809 8 116559097.81824      -118.783          33.000  
C10  36379097.040 4 189435483.378 2      -392.706          32.000  
C13  37027659.824 4 192812705.321 2      -904.401          34.000  
C 1  37859975.670 9 197146797.00834      -778.855          31.000  
C25  23761744.517 2 123733611.522 1     -1724.414          34.000  
G 3  22791675.730 9                     -2666.155          20.000  
C21  24342738.977 9                      -237.976          27.000  
C12  24000387.832 9                     -1728.774          25.000  
C23  25879461.236 4 134761131.511 3       751.181          29.000  
G19  22462836.219 1 118043010.422 1       643.144          40.000  
