     3.03           OBSERVATION DATA    M: Mixed            RINEX VERSION / TYPE
RTKCONV demo5 b33c                      20210520 080605 UTC PGM / RUN BY / DATE 
log: C:\Users\Ivan_PolyU_Dktp\Dropbox\HUAWEI Exp\20210517_  COMMENT             
format: RINEX                                               COMMENT             
                                                            MARKER NAME         
                                                            MARKER NUMBER       
                                                            MARKER TYPE         
                                                            OBSERVER / AGENCY   
                                                            REC # / TYPE / VERS 
                                                            ANT # / TYPE        
 -2418160.6943  5385905.1384  2405599.2429                  APPROX POSITION XYZ 
        0.0000        0.0000        0.0000                  ANTENNA: DELTA H/E/N
G    4 C1C L1C D1C S1C                                      SYS / # / OBS TYPES 
C    4 C2I L2I D2I S2I                                      SYS / # / OBS TYPES 
  2021     5    17     2    33   13.0000000     GPS         TIME OF FIRST OBS   
  2021     5    17     2    46   19.0010000     GPS         TIME OF LAST OBS    
G                                                           SYS / PHASE SHIFT   
C                                                           SYS / PHASE SHIFT   
  0                                                         GLONASS SLOT / FRQ #
 C1C    0.000 C1P    0.000 C2C    0.000 C2P    0.000        GLONASS COD/PHS/BIS 
                                                            END OF HEADER       
> 2021  5 17  2 33 13.0000000  0 14                     
C 3  36582024.261 9                      -803.027          28.000  
G21  20682220.080 4 108685814.382 3        -8.980          29.000  
G 7  21167441.938 9                      1375.555          15.000  
C 2  37218049.862 2 193804122.152 1      -834.463          36.000  
C 7  36928599.584 2 192296871.926 2      -654.837          28.000  
G 9  23088854.649 8 121332736.847 3     -2860.673          30.000  
G 8  21155242.059 9                     -2760.431          16.000  
G16  24375294.215 9                     -2567.941          14.000  
C30  22638491.412 2 117884529.314 1       900.961          35.000  
C27  21726596.566 1 113136051.494 1     -1936.968          44.000  
G 1  21642195.014 2 113730449.49012      2243.092          29.000  
G27  23297533.570 9                     -3912.428          18.000  
G 4  23761278.748 9                     -3723.957          18.000  
C28  25406115.761 4 132296233.198 3     -3804.286          27.000  
> 2021  5 17  2 33 14.0000000  0 14                     
C 3  36582177.997 9                      -793.164          28.000  
G21  20682225.498 4 108685824.017 2       -10.448          29.000  
G 7  21167183.714 9                      1375.555          15.000  
C 2  37218210.156 2 193804957.035 1      -835.286          35.000  
C 7  36928725.339 4 192297526.734 3      -655.518          28.000  
G 9  23089399.052 8 121335597.845 3     -2860.760          30.000  
G 8  21155765.775 9                     -2760.594          18.000  
G16  24375785.373 9                     -2567.941          15.000  
C30  22638318.690 2 117883629.027 1       899.916          35.000  
C27  21726968.875 1 113137988.956 1     -1938.434          44.000  
G 1  21641768.652 2 113728206.536 2      2242.913          29.000  
G27  23298277.940 9                     -3915.658          19.000  
G 4  23761987.763 9                     -3723.957          17.000  
C28  25406849.398 4 132300037.958 3     -3805.104          27.000  
> 2021  5 17  2 33 15.0000000  0 14                     
C 3  36582331.633 9                      -795.312          28.000  
G21  20682231.065 8 108685834.851 3       -11.846          30.000  
G 7  21166924.596 9                      1375.555          14.000  
C 2  37218370.907 2 193805792.478 1      -835.689          36.000  
C 7  36928849.790 4 192298181.977 3      -654.979          28.000  
G 9  23089944.995 8 121338459.794 3     -2862.147          30.000  
G 8  21156291.694 9                     -2766.249          18.000  
G16  24376275.375 9                     -2567.941          14.000  
C30  22638146.059 2 117882729.746 1       899.201          35.000  
C27  21727341.149 1 113139927.402 1     -1938.679          44.000  
G 1  21641341.807 2 113725964.591 2      2242.228          29.000  
G27  23299022.096 9                     -3911.251          20.000  
G 4  23762695.143 9                     -3723.957          15.000  
C28  25407580.684 4 132303843.272 3     -3804.848          27.000  
> 2021  5 17  2 33 16.0000000  0 14                     
C 3  36582487.167 9                      -800.732          28.000  
G21  20682226.528 8 108685846.280 3       -11.868          29.000  
G 7  21166665.534 9                      1375.555          13.000  
C 2  37218531.100 2 193806627.890 1      -835.742          36.000  
C 7  36928977.107 4 192298837.208 3      -655.302          28.000  
G 9  23090491.235 8 121341321.887 3     -2862.534          30.000  
G 8  21156818.451 9                     -2765.346          19.000  
G16  24376766.185 9                     -2567.941          14.000  
C30  22637973.455 2 117881830.851 1       898.901          35.000  
C27  21727713.341 1 113141866.284 1     -1939.343          44.000  
G 1  21640918.408 4 113723722.969 3      2241.505          29.000  
G27  23299765.501 9                     -3907.933          20.000  
G 4  23763401.650 9                     -3723.957          13.000  
C28  25408314.815 4 132307648.788 4     -3805.718          27.000  
> 2021  5 17  2 33 17.0000000  0 13                     
C 3  36582643.089 9                      -809.766          28.000  
G21  20682231.780 4 108685858.131 3       -11.790          29.000  
G 7  21166404.549 9                      1377.068          13.000  
C 2  37218691.502 2 193807463.090 1      -835.275          36.000  
C 7  36929102.260 4 192299492.048 3      -654.436          29.000  
G 9  23091036.859 8 121344183.978 3     -2861.405          30.000  
G 8  21157345.622 9                     -2754.997          19.000  
G16  24377257.282 9                     -2570.782          13.000  
C30  22637801.003 2 117880932.140 1       898.785          35.000  
C27  21728085.685 1 113143805.319 1     -1939.047          44.000  
G 1  21640489.377 4 113721481.469 3      2241.768          29.000  
G27  23300514.657 9                     -3928.314          21.000  
C28  25409046.900 4 132311453.985 3     -3804.990          27.000  
> 2021  5 17  2 33 18.0000000  0 13                     
C 3  36582796.668 9                      -808.154          28.000  
G21  20682236.195 8 108685870.777 3       -13.309          29.000  
G 7  21166143.572 9                      1377.068          12.000  
C 2  37218851.717 2 193808298.492 1      -836.115          36.000  
C 7  36929227.609 4 192300147.116 3      -655.527          29.000  
G 9  23091577.480 8 121347046.580 3     -2862.834          30.000  
G 8  21157872.361 9                     -2767.648          21.000  
G16  24377747.519 9                     -2570.782          13.000  
C30  22637628.634 2 117880034.071 1       898.116          35.000  
C27  21728458.051 1 113145745.029 1     -1939.980          44.000  
G 1  21640059.962 8 113719240.497 3      2240.599          30.000  
G27  23301258.599 9                     -3919.311          21.000  
C28  25409779.303 4 132315259.553 3     -3805.699          27.000  
> 2021  5 17  2 33 19.0000000  0 12                     
C 3  36582946.544 9                      -793.408          27.000  
G21  20682237.137 8 108685884.226 3       -13.033          29.000  
C 2  37219012.120 2 193809134.049 1      -835.675          35.000  
C 7  36929352.291 4 192300802.212 3      -655.100          29.000  
G 9  23092120.675 8 121349909.525 4     -2862.669          29.000  
G 8  21158402.839 9                     -2772.187          21.000  
G16  24378237.617 9                     -2570.782          12.000  
C30  22637456.427 2 117879136.547 1       897.795          36.000  
C27  21728830.421 1 113147685.336 1     -1940.668          44.000  
G 1  21639635.813 4 113717000.078 3      2240.465          30.000  
G27  23302003.130 9                     -3908.412          21.000  
C28  25410510.659 4 132319065.312 4     -3805.545          28.000  
> 2021  5 17  2 33 20.0000000  0 13                     
C 3  36583105.166 9                      -803.760          28.000  
G21  20682236.823 8 108685898.271 3       -14.823          29.000  
C 2  37219172.897 2 193809969.421 1      -835.185          36.000  
C 7  36929478.456 4 192301457.119 3      -654.824          28.000  
G 9  23092660.083 8 121352772.619 3     -2863.412          29.000  
G 8  21158930.599 9                     -2768.132          22.000  
G16  24378726.224 9                     -2570.782          10.000  
C30  22637284.459 2 117878239.304 1       897.139          36.000  
C27  21729202.966 1 113149625.900 1     -1940.939          44.000  
G 1  21639207.200 8 113714759.799 3      2240.234          30.000  
G27  23302749.030 9                     -3916.689          21.000  
G 4  23766233.855 9                     -3723.957          13.000  
C28  25411240.322 4 132322871.029 4     -3805.786          27.000  
> 2021  5 17  2 33 21.0000000  0 15                     
C 3  36583257.201 9                      -788.428          27.000  
G21  20682239.607 4 108685912.773 3       -14.367          29.000  
G 7  21165357.418 9                      1377.068          11.000  
C 9  36764467.818 9                     -2158.315          24.000  
C 2  37219332.872 2 193810803.954 1      -834.144          36.000  
C 7  36929603.940 4 192302112.310 3      -654.732          29.000  
G 9  23093202.091 8 121355634.688 3     -2860.727          28.000  
G 8  21159458.686 9                     -2767.041          21.000  
G16  24379212.033 9                     -2570.782          12.000  
C30  22637111.959 2 117877341.655 1       898.230          36.000  
C27  21729575.689 1 113151567.232 1     -1942.113          43.000  
G 1  21638779.378 8 113712519.228 3      2241.989          28.000  
G27  23303493.544 9                     -3917.416          21.000  
G 4  23766943.363 9                     -3722.950          14.000  
C28  25411969.855 9                     -3810.624          26.000  
> 2021  5 17  2 33 22.0000000  0 15                     
C 3  36583412.692 9                      -809.131          29.000  
G21  20682239.546 9                       -15.816          21.000  
G 7  21165096.803 9                      1365.311          13.000  
C 9  36764881.964 9                     -2155.049          26.000  
C 2  37219492.847 2 193811634.64531      -829.805          35.000  
C 7  36929727.388 4 192302768.872 4      -655.878          27.000  
G 9  23093759.416 8 121358493.719 3     -2856.477          29.000  
G 8  21159990.320 9                     -2776.055          20.000  
G16  24379702.943 9                     -2571.359          15.000  
C30  22636939.154 2 117876441.915 1       901.276          36.000  
C27  21729948.609 1 113153509.858 1     -1943.900          44.000  
G 1  21638355.368 9                      2240.006          26.000  
G27  23304239.881 9                     -3917.581          20.000  
G 4  23767649.185 9                     -3722.950          14.000  
C28  25412695.828 9                     -3812.093          26.000  
> 2021  5 17  2 33 23.0000000  0 14                     
C 3  36583567.567 9                      -818.555          27.000  
G21  20682250.059 9                       -15.189          29.000  
G 7  21164840.228 9                      1365.311          12.000  
C 9  36765293.558 9                     -2151.795          25.000  
C 2  37219651.609 2 193812462.05421      -825.462          36.000  
C 7  36929854.203 9                      -661.262          25.000  
G 9  23094302.637 8 121361347.346 4     -2849.735          30.000  
G 8  21160516.248 9                     -2758.304          19.000  
G16  24380191.894 9                     -2571.359          15.000  
C27  21730321.869 1 113155454.407 1     -1945.353          44.000  
G 1  21637933.426 9                      2242.141          25.000  
G27  23304986.327 9                     -3919.156          19.000  
G 4  23768356.992 9                     -3722.950          14.000  
C28  25413425.670 9                     -3819.606          26.000  
> 2021  5 17  2 33 24.0000000  0 15                     
C 3  36583721.866 9                      -799.872          29.000  
G21  20682253.275 9 108685973.90635       -16.926          29.000  
G 7  21164581.328 9                      1365.311          12.000  
C 9  36765706.033 9                     -2151.865          25.000  
C 2  37219809.643 2 193813285.13121      -821.964          36.000  
C 7  36929980.372 9                      -665.631          22.000  
G 9  23094842.573 8 121364216.41934     -2846.009          30.000  
G 8  21161042.873 9                     -2758.304          17.000  
G16  24380675.753 9                     -2586.881          23.000  
C30  22636591.389 2 117874639.58011       907.618          36.000  
C27  21730695.487 1 113157401.158 1     -1948.329          43.000  
G 1  21637502.345 9                      2237.946          24.000  
G27  23305733.297 9                     -3909.679          18.000  
G 4  23769064.651 9                     -3722.950          13.000  
C28  25414155.957 9                     -3823.034          26.000  
> 2021  5 17  2 33 25.0000000  0 15                     
C 3  36583877.064 9                      -826.270          27.000  
G21  20682251.067 8 108685991.17325       -17.635          28.000  
G 7  21164323.305 9                      1365.311          12.000  
C 9  36766119.364 9                     -2147.096          25.000  
C 2  37219967.148 2 193814105.78921      -820.289          39.000  
C 7  36930107.898 9                      -660.607          19.000  
G 9  23095382.736 8 121367062.09823     -2844.738          31.000  
G 8  21161569.438 9                     -2767.688          17.000  
G16  24381160.638 9                     -2594.249          25.000  
C30  22636417.092 2 117873730.808 1       908.817          39.000  
C27  21731069.070 1 113159349.690 1     -1948.346          42.000  
G 1  21637072.009 9                      2241.625          23.000  
G27  23306480.358 9                     -3924.945          17.000  
G 4  23769770.927 9                     -3716.018          14.000  
C28  25414891.314 9                     -3824.380          25.000  
> 2021  5 17  2 33 26.0000000  0 14                     
G21  20682256.826 9                       -19.602          26.000  
G 7  21164063.820 9                      1365.311          13.000  
C 9  36766532.249 9                     -2148.553          26.000  
C 2  37220124.676 2 193814926.73021      -821.637          38.000  
C 7  36930236.323 9                      -660.607          17.000  
G 9  23095924.910 8 121369908.17423     -2845.725          31.000  
G 8  21162094.253 9                     -2767.688          16.000  
G16  24381645.571 9                     -2589.158          26.000  
C30  22636242.607 1 117872822.749 1       907.770          39.000  
C27  21731443.229 2 113161298.436 1     -1948.769          40.000  
G 1  21636646.071 9                      2235.813          22.000  
G27  23307227.537 9                     -3924.945          15.000  
G 4  23770477.460 9                     -3716.018          12.000  
C28  25415625.902 9                     -3798.572          24.000  
> 2021  5 17  2 33 27.0000000  0 14                     
G21  20682262.506 9                       -12.999          26.000  
G 7  21163802.809 9                      1374.002          13.000  
C 9  36766944.270 8 191455097.62535     -2148.056          26.000  
C 2  37220282.434 2 193815747.43921      -820.107          38.000  
C 7  36930363.662 9                      -646.647          16.000  
G 9  23096465.330 9                     -2846.379          25.000  
G 8  21162620.953 9                     -2759.221          16.000  
G16  24382136.485 9                     -2587.898          23.000  
C30  22636068.035 2 117871914.791 1       907.307          36.000  
C27  21731817.479 1 113163247.790 1     -1949.551          43.000  
G 1  21636219.182 9                      2243.822          23.000  
G27  23307976.042 9                     -3924.945          14.000  
G 4  23771185.245 9                     -3716.018          11.000  
C28  25416358.253 9                     -3815.340          21.000  
> 2021  5 17  2 33 28.0000000  0 13                     
G21  20682264.669 9                       -11.323          24.000  
G 7  21163520.739 9                      1358.683          36.000  
C 2  37220442.331 9                      -861.719          27.000  
C 7  36930493.256 9                      -643.905          19.000  
G 9  23097015.897 9                     -2853.510          21.000  
C 8  38643903.585 9                       915.967          34.000  
G 8  21163147.391 9                     -2756.238          17.000  
G16  24382631.190 9                     -2575.647          22.000  
C27  21732190.478 8                     -1948.122          29.000  
G 1  21635793.462 9                      2257.477          21.000  
G27  23308726.397 9                     -3908.200          14.000  
G 4  23771890.670 9                     -3716.018          11.000  
C28  25417094.517 9                     -3819.384          20.000  
> 2021  5 17  2 33 29.0000000  0  9                     
G21  20682262.772 9                        -9.222          34.000  
G 7  21163254.706 9                      1353.275          26.000  
C 1  37515017.816 9                      -823.531          35.000  
C 7  36930621.820 9                      -643.905          18.000  
G 9  23097564.345 9                     -2860.219          28.000  
G 8  21163677.058 9                     -2750.241          18.000  
G16  24383120.154 9                     -2577.127          19.000  
G 1  21635366.224 9                      2263.971          21.000  
G27  23309475.269 9                     -3923.993          15.000  
> 2021  5 17  2 33 30.0000000  0 13                     
C 3  36584649.751 9                      -801.812          34.000  
G21  20682259.635 9 108686032.77132        -9.372          35.000  
G 7  21163001.089 9                      1368.927          25.000  
C 1  37515172.412 9                      -818.803          35.000  
C 7  36930750.908 9                      -648.356          27.000  
G 9  23098097.510 9                     -2865.291          21.000  
G 8  21164206.458 9                     -2760.043          21.000  
G16  24383606.378 9                     -2566.672          20.000  
C27  21732940.122 9 113169091.04635     -1947.073          39.000  
G 1  21634937.150 9                      2253.169          23.000  
G27  23310224.241 9                     -3923.993          14.000  
G 4  23773304.753 9                     -3708.288          11.000  
C28  25418560.942 9                     -3803.781          20.000  
> 2021  5 17  2 33 31.0000000  0 12                     
C 3  36584803.173 9 190506638.71235      -799.373          36.000  
G21  20682260.961 8 108686041.35122        -8.049          37.000  
G 7  21162737.599 9 111210936.28735      1351.406          35.000  
C 1  37515331.279 8 195352134.65532      -818.073          38.000  
C 7  36930875.389 9                      -661.569          38.000  
G 9  23098650.498 9                     -2873.449          18.000  
G 8  21164739.781 9                     -2778.558          37.000  
G16  24384094.744 9                     -2561.958          19.000  
C27  21733313.251 8 113171038.91522     -1947.926          41.000  
G 1  21634500.785 9 113690068.06433      2253.181          37.000  
G27  23310967.908 9                     -3916.441          31.000  
C28  25419290.662 9                     -3815.076          36.000  
> 2021  5 17  2 33 32.0000000  0 12                     
C 3  36584956.547 8 190507438.26822      -798.434          37.000  
G21  20682266.205 4 108686048.93921        -7.083          37.000  
G 7  21162481.666 8 111209586.67723      1348.512          34.000  
C 1  37515489.657 4 195352951.46322      -815.324          36.000  
C 7  36931003.265 9 192309391.48534      -663.647          40.000  
G 9  23099199.788 9                     -2857.520          17.000  
G 8  21165262.436 9 111224203.94535     -2779.173          37.000  
G16  24384583.049 9                     -2561.958          17.000  
C27  21733686.297 4 113172988.05821     -1949.610          39.000  
G 1  21634070.109 8 113687814.15423      2254.955          36.000  
G27  23311717.212 9                     -3920.350          30.000  
C28  25420022.070 9                     -3820.252          33.000  
> 2021  5 17  2 33 33.0000000  0 13                     
C 3  36585109.167 8 190508235.53322      -797.301          34.000  
G21  20682262.920 4 108686054.96021        -4.902          37.000  
G 7  21162223.581 8 111208239.82822      1345.924          34.000  
C10  37458649.045 9                      -784.981          27.000  
C 1  37515645.308 4 195353777.77332      -813.715          36.000  
C 7  36931127.658 9                      -666.714          37.000  
G 9  23099758.129 9                     -2851.589          17.000  
G 8  21165791.366 9 111226984.85125     -2781.474          37.000  
G16  24385074.142 9                     -2561.958          13.000  
C27  21734062.633 4 113174938.63321     -1951.038          39.000  
G 1  21633643.849 8 113685556.78523      2258.729          33.000  
G27  23312463.562 9                     -3922.637          34.000  
C28  25420753.034 9                     -3814.050          30.000  
> 2021  5 17  2 33 34.0000000  0 14                     
C 3  36585263.540 4 190509035.78932      -794.994          34.000  
G21  20682264.081 4 108686059.88021        -3.776          35.000  
G 7  21161968.664 8 111206895.14522      1344.188          33.000  
C10  37458791.238 8 195057769.44334      -785.800          31.000  
C 1  37515800.624 4 195354587.07732      -811.434          36.000  
C 7  36931254.587 9                      -668.610          34.000  
G 9  23100312.959 9                     -2842.429          16.000  
G 8  21166320.731 9                     -2784.077          35.000  
G16  24385568.428 9                     -2596.486          14.000  
C27  21734437.189 4 113176890.59822     -1951.400          37.000  
G 1  21633212.998 9                      2228.130          26.000  
G27  23313203.050 9                     -3925.781          30.000  
G 4  23776186.072 9                     -3730.859          20.000  
C28  25421482.165 9 132376296.77334     -3816.819          34.000  
> 2021  5 17  2 33 35.0000000  0 13                     
C 3  36585416.709 4 190509833.99533      -794.840          34.000  
G21  20682268.578 4 108686063.71522        -2.760          34.000  
G 7  21161711.500 4 111205552.49922      1340.695          33.000  
C10  37458943.182 8 195058556.51923      -789.140          31.000  
C 1  37515955.914 4 195355395.13421      -808.582          35.000  
C 7  36931383.060 9 192311370.76934      -667.327          34.000  
G 9  23100868.447 9                     -2847.512          19.000  
G 8  21166849.455 8 111232549.70334     -2785.528          34.000  
G16  24386062.963 9                     -2596.486          11.000  
C27  21734811.069 4 113178843.16422     -1952.969          37.000  
G27  23313952.402 9                     -3923.350          30.000  
G 4  23776881.546 9                     -3730.859          18.000  
C28  25422215.030 9                     -3800.542          29.000  
> 2021  5 17  2 33 36.0000000  0 14                     
C 3  36585570.616 4 190510634.98932      -793.691          37.000  
G21  20682267.592 4 108686066.65522        -2.252          34.000  
G 7  21161457.067 4 111204211.91022      1339.865          33.000  
C 9  36770678.992 9                     -2157.347          30.000  
C10  37459090.291 8 195059345.31124      -788.584          31.000  
C 7  36931512.789 8 192312039.03722      -667.933          34.000  
G 9  23101417.593 9                     -2845.926          20.000  
C 8  38642505.286 9                       927.810          16.000  
G 8  21167381.839 8 111235334.64723     -2784.960          37.000  
C27  21735186.615 4 113180795.95723     -1952.961          37.000  
G 1  21632361.083 9                      2255.078          18.000  
G27  23314699.825 9                     -3923.415          29.000  
G 4  23777592.454 9                     -3730.859          15.000  
C28  25422951.321 9                     -3814.960          32.000  
> 2021  5 17  2 33 37.0000000  0 16                     
C 3  36585722.481 4 190511425.73133      -792.088          34.000  
G21  20682268.212 4 108686068.14312        -1.117          35.000  
G 7  21161202.128 4 111202873.47022      1337.812          33.000  
C 9  36771088.422 9                     -2158.127          29.000  
C10  37459244.063 8 195060135.94923      -790.995          31.000  
C 1  37516267.588 9                      -805.516          34.000  
C 7  36931640.900 4 192312707.54722      -669.229          35.000  
G 9  23101944.602 9                     -2868.697          30.000  
C 8  38642321.609 9                       927.810          17.000  
G 8  21167910.878 8 111238120.28523     -2787.102          34.000  
C30  22634347.823 9                       884.277          34.000  
C27  21735561.925 4 113182749.08822     -1952.874          37.000  
G 1  21631938.465 9                      2250.349          18.000  
G27  23315445.704 9                     -3919.960          20.000  
G 4  23778302.351 9                     -3730.859          13.000  
C28  25423685.761 9                     -3824.114          25.000  
> 2021  5 17  2 33 38.0000000  0 15                     
C 3  36585875.244 9                      -812.988          28.000  
G 7  21160948.367 4 111201537.03922      1336.092          32.000  
C 9  36771508.052 9                     -2157.923          29.000  
C10  37459398.279 8 195060928.36923      -794.391          30.000  
C 1  37516419.173 9                      -802.618          34.000  
C 2  37222061.501 9                      -861.828          29.000  
C 7  36931769.587 9                      -684.008          26.000  
G 9  23102474.496 9 121404408.10335     -2873.135          31.000  
G 8  21168438.555 8 111240907.66925     -2788.796          24.000  
C30  22634194.349 9 117862157.74534       889.694          37.000  
C27  21735937.319 4 113184703.19022     -1954.507          32.000  
G 1  21631504.238 9                      2275.944          20.000  
G27  23316194.244 9                     -3919.960          17.000  
G 4  23779002.777 9                     -3730.859          12.000  
C28  25424420.066 9                     -3824.114          21.000  
> 2021  5 17  2 33 39.0000000  0 12                     
G21  20682270.158 9                        -6.250          33.000  
G 7  21160699.122 8 111200202.24724      1334.644          32.000  
C 9  36771943.256 9                     -2158.743          27.000  
C10  37459550.864 8 195061721.86424      -792.745          30.000  
C 2  37222230.721 9                      -863.721          29.000  
C 7  36931898.164 9                      -669.809          35.000  
G 9  23103023.113 9                     -2873.909          25.000  
G 8  21168969.975 9                     -2787.441          34.000  
C30  22634039.460 9 117861269.27925       883.884          33.000  
C27  21736312.612 8 113186657.80315     -1954.906          26.000  
G27  23316941.101 9                     -3919.960          13.000  
C28  25425154.703 9                     -3824.114          16.000  
> 2021  5 17  2 33 40.0000000  0 12                     
G21  20682268.256 9 108686052.65933        -2.120          34.000  
G 7  21160442.904 8 111198868.31323      1333.247          32.000  
C 9  36772379.730 9                     -2158.104          26.000  
C10  37459700.717 8 195062516.033 4      -795.142          31.000  
C 1  37516731.371 9                      -799.523          34.000  
C 2  37222422.097 9                      -962.402          29.000  
C 7  36932027.091 9                      -674.500          22.000  
G 9  23103618.187 9                     -2874.046          30.000  
G 8  21169498.246 9                     -2788.063          21.000  
C27  21736687.783 9                     -1954.578          25.000  
C13  39395583.842 9                       781.739          21.000  
C28  25425885.727 9                     -3809.358          15.000  
> 2021  5 17  2 33 41.0000000  0 10                     
G 7  21160187.420 4 111197535.24022      1334.617          32.000  
C10  37459854.846 8 195063310.502 3      -792.529          31.000  
C 1  37516884.981 9                      -801.319          35.000  
C 7  36932166.697 9                      -667.204          21.000  
G 9  23104185.594 9                     -2866.378          29.000  
G 1  21630248.704 9                      2253.229          24.000  
G 8  21170029.325 9                     -2788.063          18.000  
C30  22633730.448 9                       898.372          26.000  
C 4  38456482.702 9                      -800.830          28.000  
G 4  23781114.301 9                     -3730.859          13.000  
> 2021  5 17  2 33 42.0000000  0 12                     
G21  20682270.633 9                        -1.855          33.000  
G 7  21159934.780 4 111196201.96822      1334.570          32.000  
C10  37460005.900 8 195064104.177 3      -792.636          31.000  
C 2  37222742.723 9                      -802.641          30.000  
C 7  36932294.485 9                      -659.681          21.000  
G 9  23104740.773 9                     -2862.675          22.000  
G 1  21629836.844 9                      2227.351          23.000  
G 8  21170560.192 9                     -2788.063          15.000  
C30  22633564.570 9                       879.549          25.000  
C27  21737444.699 9                     -1957.130          26.000  
G27  23319198.919 9                     -3881.411          14.000  
G 4  23781821.606 9                     -3730.859          13.000  
> 2021  5 17  2 33 43.0000000  0 10                     
G21  20682274.533 9 108686085.55734        -4.145          32.000  
G 7  21159679.950 4 111194868.539 2      1333.957          32.000  
C10  37460159.348 8 195064897.105 4      -792.153          29.000  
C 2  37222896.826 9                      -819.727          26.000  
C 7  36932422.321 9                      -668.475          20.000  
G 9  23105288.300 9                     -2895.479          22.000  
G 1  21629415.181 9                      2227.351          22.000  
G 8  21171092.018 9                     -2788.063          13.000  
C27  21737818.692 9                     -1955.419          34.000  
G27  23319952.454 9                     -3877.941          19.000  
> 2021  5 17  2 33 44.0000000  0  7                     
G 7  21159426.765 4 111193534.758 2      1334.485          33.000  
C10  37460309.765 8 195065689.070 3      -790.835          29.000  
C 7  36932548.643 9                      -636.814          21.000  
G 9  23105826.303 9                     -2903.290          34.000  
G 1  21628984.723 9                      2227.351          20.000  
G 8  21171620.999 9                     -2774.073          12.000  
C27  21738192.685 8 113196451.03932     -1956.862          38.000  
> 2021  5 17  2 33 45.0000000  0  8                     
G21  20682276.741 9                       -11.155          34.000  
G 7  21159171.490 4 111192198.405 2      1339.218          34.000  
C10  37460465.238 8 195066477.552 3      -784.744          32.000  
C 7  36932677.639 9                      -640.844          21.000  
G 9  23106376.530 9                     -2896.494          23.000  
G 1  21628542.993 9                      2256.281          20.000  
G 8  21172148.624 9                     -2754.634          16.000  
C27  21738568.471 4 113198407.48622     -1955.593          37.000  
> 2021  5 17  2 33 46.0000000  0 12                     
C 3  36587094.605 9                      -795.453          33.000  
G 7  21158917.511 4 111190856.536 2      1345.582          34.000  
C10  37460613.346 8 195067259.331 4      -779.084          30.000  
C 1  37517660.032 9                      -828.289          28.000  
C 7  36932801.200 9                      -662.401          29.000  
G 9  23106928.550 9                     -2886.132          22.000  
G 1  21628085.666 9                      2256.281          22.000  
G 8  21172676.384 9                     -2787.387          21.000  
C16  38210375.750 9                     -2441.365          32.000  
C27  21738942.992 4 113200362.95322     -1954.262          37.000  
C 6  37777735.045 9                     -2362.873          25.000  
G 4  23784639.690 9                     -3734.044          19.000  
> 2021  5 17  2 33 47.0000000  0 12                     
C 3  36587244.860 9 190519353.03534      -802.954          37.000  
G21  20682286.635 9                       -25.647          35.000  
G 7  21158660.766 4 111189507.801 2      1353.085          34.000  
C 9  36775237.936 9                     -2161.572          36.000  
C10  37460763.719 8 195068032.455 3      -768.618          31.000  
C 1  37517812.865 9                      -827.757          34.000  
C 7  36932926.715 9 192319409.43434      -655.287          33.000  
G 9  23107471.575 9                     -2876.388          22.000  
G 1  21627652.604 9                      2256.281          21.000  
G 8  21173210.317 9                     -2776.099          27.000  
C27  21739316.889 4 113202317.26122     -1953.473          38.000  
G 4  23785340.696 9                     -3721.227          20.000  
> 2021  5 17  2 33 48.0000000  0 13                     
C 3  36587399.552 8 190520157.84322      -805.695          37.000  
G21  20682284.144 9 108686177.11133       -29.863          35.000  
G 7  21158402.686 4 111188151.939 3      1360.327          33.000  
C 9  36775650.533 9 191500431.54333     -2161.465          34.000  
C10  37460908.159 8 195068796.926 3      -760.865          32.000  
C 1  37517974.721 9 195365896.07632      -833.269          34.000  
C 7  36933047.968 8 192320063.78322      -652.317          35.000  
G 9  23108013.945 9                     -2876.668          22.000  
G 1  21627223.564 9                      2231.745          20.000  
G 8  21173739.338 8 111268744.95733     -2772.085          36.000  
C16  38211303.352 9                     -2450.994          29.000  
C27  21739694.141 2 113204269.96021     -1951.636          38.000  
G 4  23786033.417 9                     -3721.227          22.000  
> 2021  5 17  2 33 49.0000000  0 14                     
C 3  36587555.343 4 190520964.34521      -806.737          38.000  
G21  20682284.925 8 108686208.43721       -31.676          36.000  
G 7  21158143.899 4 111186792.641 3      1358.911          32.000  
C 9  36776075.140 8 191502594.85522     -2163.713          33.000  
C10  37461053.816 8 195069556.934 3      -760.341          32.000  
C 1  37518132.549 4 195366730.62522      -835.440          35.000  
C 7  36933173.971 4 192320715.55421      -651.829          36.000  
G 9  23108558.928 9                     -2868.423          20.000  
G 1  21626796.038 9                      2231.745          20.000  
G 8  21174268.856 4 111271516.63221     -2772.108          36.000  
C16  38211785.728 9 198978763.84035     -2452.182          29.000  
C30  22632313.926 9 117852366.39634       885.377          32.000  
C27  21740069.011 2 113206222.15721     -1952.610          38.000  
G 4  23786741.010 9                     -3721.227          19.000  
> 2021  5 17  2 33 50.0000000  0 15                     
C 3  36587711.662 2 190521771.01821      -806.945          38.000  
G21  20682294.727 4 108686240.56421       -32.798          36.000  
G 7  21157884.990 4 111185433.714 2      1357.933          32.000  
C 9  36776482.459 8 191504758.34422     -2164.160          33.000  
C10  37461201.262 8 195070316.765 3      -759.426          31.000  
C 1  37518293.021 4 195367565.35122      -834.840          35.000  
C 7  36933298.736 4 192321367.26821      -651.610          36.000  
G 9  23109105.050 9                     -2867.505          18.000  
G 1  21626365.973 9                      2231.745          20.000  
G 8  21174796.546 4 111274288.59921     -2772.152          37.000  
C16  38212265.142 9 198981216.88624     -2453.711          29.000  
C30  22632137.522 8 117851480.84323       885.167          31.000  
C27  21740443.057 2 113208174.80421     -1952.860          38.000  
G 4  23787447.788 9                     -3721.227          16.000  
G30  24213062.651 9                      2515.415          16.000  
> 2021  5 17  2 33 51.0000000  0 15                     
C 3  36587866.476 2 190522577.80521      -806.448          38.000  
G21  20682303.880 2 108686273.47021       -33.458          36.000  
G 7  21157626.544 4 111184075.362 2      1357.818          32.000  
C 9  36776901.714 4 191506922.06922     -2163.621          34.000  
C10  37461346.666 8 195071076.707 3      -759.091          31.000  
C 1  37518454.567 4 195368406.27931      -835.244          35.000  
C 7  36933424.705 2 192322019.05821      -651.428          36.000  
G 9  23109649.899 9                     -2867.211          18.000  
G 1  21625936.558 9                      2231.745          20.000  
G 8  21175328.263 4 111277060.97221     -2772.682          37.000  
C16  38212723.629 9 198983669.96923     -2452.897          29.000  
C30  22631966.470 8 117850595.81123       885.316          31.000  
C27  21740818.494 1 113210127.54511     -1953.145          39.000  
G 4  23788157.780 9                     -3721.227          13.000  
G30  24212595.265 9                      2504.062          15.000  
> 2021  5 17  2 33 52.0000000  0 16                     
C 3  36588021.024 2 190523384.90521      -807.203          38.000  
G21  20682310.533 2 108686307.27721       -33.994          36.000  
G 7  21157368.058 4 111182717.785 2      1356.024          32.000  
C 9  36777315.554 4 191509086.25321     -2163.908          34.000  
C10  37461492.571 4 195071836.875 2      -759.976          31.000  
C 1  37518614.869 4 195369241.46531      -835.402          35.000  
C 2  37224315.686 9                      -868.018          27.000  
C 7  36933550.460 2 192322671.06221      -652.070          36.000  
G 9  23110197.076 9                     -2873.413          17.000  
G 1  21625509.739 9                      2231.745          19.000  
G 8  21175853.340 2 111279833.88521     -2773.460          37.000  
C16  38213195.784 8 198986123.37723     -2453.434          29.000  
C30  22631798.900 8 117849711.47723       884.315          31.000  
C27  21741193.900 1 113212081.509 1     -1954.516          39.000  
G 4  23788868.017 9                     -3721.227          10.000  
G30  24212119.428 9                      2516.880          16.000  
> 2021  5 17  2 33 53.0000000  0 17                     
C 3  36588176.265 1 190524192.43421      -807.900          38.000  
G21  20682316.702 2 108686342.16621       -35.375          36.000  
G 7  21157109.516 4 111181360.937 2      1357.338          32.000  
C 9  36777733.173 4 191511251.03022     -2165.394          34.000  
C10  37461637.888 8 195072597.387 4      -760.155          31.000  
C 1  37518774.704 4 195370074.09322      -835.588          35.000  
C 7  36933677.825 2 192323323.41721      -652.287          36.000  
G 9  23110744.590 9                     -2872.491          18.000  
G 1  21625079.151 9                      2231.745          19.000  
G 8  21176382.623 2 111282607.43821     -2773.398          37.000  
C16  38213662.848 8 198988577.36123     -2454.233          29.000  
C30  22631627.849 8 117848828.00524       883.535          30.000  
G16  24394863.160 9                     -2575.089          21.000  
C27  21741569.097 1 113214036.299 1     -1954.986          39.000  
C 8  38639475.357 8 201205855.96235       896.487          26.000  
C 5  39404048.245 9                      -817.641          29.000  
G30  24211649.694 9                      2516.880          16.000  
> 2021  5 17  2 33 54.0000000  0 17                     
C 3  36588331.384 1 190525010.76331      -807.313          38.000  
G21  20682323.259 2 108686377.50721       -35.579          36.000  
G 7  21156851.301 4 111180004.428 2      1357.433          32.000  
C 9  36778148.095 4 191513415.64922     -2164.037          34.000  
C10  37461785.556 8 195073357.593 3      -759.599          31.000  
C 1  37518935.028 4 195370908.55032      -835.398          35.000  
C 7  36933802.742 2 192323975.47321      -651.759          36.000  
G 9  23111293.849 9                     -2867.502          18.000  
G 1  21624650.813 9                      2231.745          21.000  
G 8  21176910.496 2 111285381.07021     -2773.317          37.000  
C16  38214138.240 4 198991031.17823     -2454.095          29.000  
C30  22631461.365 8 117847944.77724       882.919          30.000  
G16  24395371.328 9                     -2575.089          22.000  
C27  21741944.491 1 113215991.362 1     -1955.351          39.000  
G 4  23790284.425 9                     -3721.227          11.000  
C 5  39404203.142 9                      -827.539          29.000  
G30  24211175.956 9                      2511.021          17.000  
> 2021  5 17  2 33 55.0000000  0 16                     
C 3  36588486.203 2 190525817.86321      -806.828          38.000  
G21  20682329.811 2 108686413.21621       -36.024          36.000  
G 7  21156591.227 4 111178648.158 2      1355.953          32.000  
C 9  36778564.239 4 191515580.21222     -2164.067          34.000  
C10  37461932.251 8 195074117.513 3      -760.301          31.000  
C 1  37519095.474 2 195371743.74321      -834.933          35.000  
C 7  36933927.991 2 192324627.26221      -651.552          36.000  
G 9  23111840.547 9                     -2864.886          17.000  
G 8  21177437.270 2 111288154.20511     -2773.298          37.000  
C16  38214604.296 4 198993484.77123     -2453.618          29.000  
C30  22631289.398 8 117847061.67323       883.128          30.000  
G16  24395860.893 9                     -2575.089          24.000  
C27  21742319.858 1 113217946.583 1     -1955.479          39.000  
G 4  23790994.008 9                     -3721.227          10.000  
C 5  39404363.540 9                      -834.529          29.000  
G30  24210696.917 9                      2511.021          16.000  
> 2021  5 17  2 33 56.0000000  0 17                     
C 3  36588641.056 1 190526624.71121      -807.044          38.000  
G21  20682336.625 2 108686449.28221       -36.606          36.000  
G 7  21156333.714 8 111177292.008 2      1355.553          32.000  
C 9  36778979.978 4 191517744.65722     -2164.340          34.000  
C10  37462072.752 8 195074877.061 2      -759.488          31.000  
C 1  37519255.985 2 195372578.73221      -835.695          35.000  
C 7  36934052.969 2 192325278.67621      -651.157          36.000  
G 9  23112384.675 9                     -2866.402          17.000  
G 8  21177964.904 2 111290927.829 1     -2773.767          37.000  
C16  38215071.128 4 198995938.16223     -2453.335          29.000  
C30  22631125.968 4 117846178.73423       882.832          29.000  
G16  24396352.632 9                     -2575.089          24.000  
C27  21742695.391 1 113219901.974 1     -1955.627          39.000  
C 8  38638963.424 4 201203190.32223       897.059          27.000  
C28  25437766.442 9                     -3808.920          25.000  
C 5  39404524.247 9                      -831.100          29.000  
G30  24210221.058 9                      2511.021          18.000  
> 2021  5 17  2 33 57.0000000  0 17                     
C 3  36588795.931 1 190527431.39521      -806.499          38.000  
G21  20682343.972 2 108686485.85021       -36.626          37.000  
G 7  21156077.340 8 111175936.174 2      1354.920          32.000  
C 9  36779395.620 2 191519909.08421     -2164.277          35.000  
C10  37462221.227 8 195075636.425 3      -759.496          31.000  
C 1  37519416.143 2 195373413.49821      -834.827          35.000  
C 7  36934177.943 2 192325929.902 1      -651.271          36.000  
G 9  23112930.963 9                     -2871.997          17.000  
G 8  21178492.794 1 111293701.509 1     -2773.356          37.000  
C16  38215545.609 4 198998391.48422     -2453.101          29.000  
C30  22630961.194 4 117845296.03323       882.970          29.000  
G16  24396840.160 9                     -2575.089          24.000  
C27  21743070.915 1 113221857.653 1     -1956.058          39.000  
C 8  38638792.552 4 201202293.12823       897.424          27.000  
C28  25438500.101 9                     -3808.099          26.000  
C 5  39404686.761 9                      -839.502          29.000  
G30  24209747.350 9                      2511.021          18.000  
> 2021  5 17  2 33 58.0000000  0 16                     
C 3  36588950.872 1 190528237.01531      -806.455          38.000  
G21  20682350.939 2 108686522.93621       -37.139          37.000  
G 7  21155818.963 4 111174580.664 2      1354.299          32.000  
C 9  36779811.524 4 191522073.537 2     -2164.625          34.000  
C10  37462368.079 8 195076395.595 3      -759.041          31.000  
C 1  37519576.384 2 195374248.22732      -834.819          35.000  
C 2  37225256.043 9                      -817.236          27.000  
C 7  36934303.079 2 192326580.935 1      -651.264          36.000  
G 9  23113479.362 9                     -2871.997          16.000  
G 8  21179020.554 2 111296475.355 1     -2773.789          37.000  
C16  38216015.111 4 199000844.29612     -2453.767          29.000  
C30  22630794.339 4 117844413.22113       882.305          29.000  
C27  21743446.632 1 113223813.656 1     -1956.146          39.000  
C28  25439227.536 9                     -3808.288          27.000  
C 5  39404844.359 9                      -830.205          29.000  
G30  24209271.099 9                      2511.021          18.000  
> 2021  5 17  2 33 59.0000000  0 18                     
C 3  36589105.978 1 190529043.82421      -807.532          38.000  
G21  20682357.932 2 108686560.86821       -38.804          37.000  
G 7  21155559.832 4 111173225.707 2      1353.924          32.000  
C 9  36780227.232 2 191524238.299 1     -2165.471          35.000  
C10  37462516.393 8 195077154.819 3      -759.340          31.000  
C 1  37519736.569 2 195375082.14321      -835.332          35.000  
C 7  36934427.983 2 192327232.062 1      -651.733          36.000  
G 9  23114026.627 9                     -2871.997          13.000  
G 1  21622535.821 9                      2226.545          26.000  
G 8  21179548.467 2 111299249.627 1     -2775.274          37.000  
C16  38216486.572 8 199003297.740 3     -2453.351          29.000  
C30  22630626.809 4 117843531.473 3       880.993          28.000  
G16  24397815.566 9                     -2571.708          26.000  
C27  21743822.409 1 113225770.275 1     -1957.328          40.000  
C 8  38638448.638 4 201200510.01133       896.396          27.000  
C28  25439961.217 8 132472509.32235     -3807.874          27.000  
C 5  39405003.688 9                      -832.377          29.000  
G30  24208796.195 9                      2511.021          19.000  
> 2021  5 17  2 34  0.0000000  0 18                     
C 3  36589261.027 1 190529852.63231      -807.468          38.000  
G21  20682365.161 2 108686599.41121       -38.693          37.000  
G 7  21155305.307 4 111171871.237 2      1353.986          33.000  
C 9  36780643.241 2 191526403.203 1     -2164.810          34.000  
C10  37462659.572 8 195077914.054 3      -760.226          31.000  
C 1  37519896.958 2 195375918.08221      -835.377          35.000  
C 7  36934552.870 2 192327883.119 1      -650.887          36.000  
G 9  23114574.154 9                     -2871.997          14.000  
G 1  21622114.136 9                      2225.502          26.000  
G 8  21180076.157 2 111302024.092 1     -2774.657          37.000  
C16  38216957.637 4 199005751.337 3     -2453.575          29.000  
C30  22630466.842 4 117842650.109 3       881.126          27.000  
G16  24398302.314 9                     -2571.592          26.000  
C27  21744198.317 1 113227727.325 1     -1957.367          40.000  
C 8  38638277.299 4 201199613.08224       897.138          27.000  
C28  25440695.016 8 132476317.16324     -3808.228          27.000  
C 5  39405163.100 9 205192994.74135      -831.790          29.000  
G30  24208319.534 9                      2511.021          19.000  
> 2021  5 17  2 34  1.0000000  0 18                     
C 3  36589416.103 1 190530659.54221      -806.739          38.000  
G21  20682372.499 2 108686638.71721       -39.701          36.000  
G 7  21155045.521 4 111170517.301 2      1354.349          33.000  
C 9  36781059.302 2 191528568.338 1     -2165.041          34.000  
C10  37462807.502 4 195078673.239 2      -758.210          31.000  
C 1  37520057.199 2 195376752.04031      -834.055          35.000  
C 7  36934677.892 2 192328534.226 1      -650.792          36.000  
G 9  23115117.885 9                     -2864.586          16.000  
G 1  21621693.032 9                      2225.967          26.000  
G 8  21180604.140 2 111304798.969 1     -2775.131          37.000  
C16  38217427.497 4 199008205.113 3     -2453.905          29.000  
C30  22630299.831 4 117841769.338 4       880.710          27.000  
G16  24398790.685 9                     -2573.528          25.000  
C27  21744574.256 1 113229684.901 1     -1957.613          40.000  
C 8  38638107.862 4 201198716.37824       896.722          28.000  
C28  25441428.584 8 132480125.17024     -3808.017          27.000  
C 5  39405322.761 9                      -832.959          29.000  
G30  24207844.665 9                      2511.021          18.000  
> 2021  5 17  2 34  2.0000000  0 18                     
C 3  36589570.852 1 190531466.20321      -806.703          38.000  
G21  20682380.220 2 108686678.36721       -39.988          37.000  
G 7  21154788.454 4 111169163.577 2      1353.160          33.000  
C 9  36781475.001 2 191530733.333 1     -2164.688          34.000  
C10  37462952.295 8 195079432.185 3      -760.086          31.000  
C 1  37520217.471 2 195377586.86721      -835.205          35.000  
C 7  36934802.914 2 192329185.005 1      -650.498          36.000  
G 9  23115665.351 9                     -2876.165          19.000  
G 1  21621269.533 8 113620536.74235      2226.078          26.000  
G 8  21181132.437 1 111307573.790 1     -2774.765          36.000  
C16  38217899.874 4 199010658.619 2     -2453.257          29.000  
C30  22630137.055 8 117840888.605 5       880.645          26.000  
G16  24399277.485 9                     -2573.312          25.000  
C27  21744950.256 1 113231642.686 1     -1958.116          40.000  
C 8  38637937.735 4 201197819.42123       897.112          28.000  
C28  25442155.612 4 132483932.98323     -3807.918          27.000  
C 5  39405482.282 9 205194656.12535      -832.046          29.000  
G30  24207369.622 9                      2511.021          18.000  
> 2021  5 17  2 34  3.0000000  0 18                     
C 3  36589725.814 1 190532272.94821      -807.049          38.000  
G21  20682387.807 2 108686718.74921       -40.968          37.000  
G 7  21154531.277 4 111167810.308 2      1352.399          33.000  
C 9  36781891.019 4 191532898.559 2     -2165.711          34.000  
C10  37463096.992 4 195080191.026 2      -759.187          31.000  
C 1  37520377.825 2 195378421.69721      -835.059          35.000  
C 7  36934927.845 2 192329835.780 1      -651.274          36.000  
G 9  23116213.519 9                     -2869.059          21.000  
G 1  21620846.247 8 113618310.79324      2224.967          26.000  
G 8  21181660.192 2 111310348.960 1     -2775.835          36.000  
C16  38218370.105 4 199013112.288 3     -2453.862          29.000  
C30  22629968.765 9                       878.998          25.000  
G16  24399765.428 9                     -2572.840          25.000  
C27  21745326.469 1 113233600.936 1     -1958.728          40.000  
C 8  38637766.461 4 201196922.64523       896.554          28.000  
C28  25442887.173 4 132487740.94023     -3808.305          27.000  
C 5  39405642.340 9                      -836.523          29.000  
G30  24206894.248 9                      2511.021          19.000  
> 2021  5 17  2 34  4.0000000  0 18                     
C 3  36589880.907 1 190533079.65421      -806.658          38.000  
G21  20682395.559 2 108686759.71821       -40.905          37.000  
G 7  21154274.047 4 111166457.478 2      1352.598          33.000  
C 9  36782306.993 4 191535063.878 2     -2165.408          34.000  
C10  37463243.631 8 195080949.734 3      -757.629          31.000  
C 1  37520538.249 2 195379256.53231      -834.807          35.000  
C 7  36935052.649 2 192330486.402 1      -650.589          36.000  
G 9  23116759.205 9                     -2869.721          23.000  
G 1  21620418.036 4 113616085.15024      2225.873          25.000  
G 8  21182188.192 2 111313124.276 1     -2775.345          36.000  
C16  38218843.242 4 199015565.949 3     -2453.438          29.000  
C30  22629801.601 9                       879.317          23.000  
G16  24400253.711 9                     -2570.097          25.000  
C27  21745702.722 1 113235559.584 1     -1958.670          40.000  
C 8  38637595.301 4 201196025.33113       896.969          28.000  
C28  25443619.899 4 132491548.89624     -3807.849          27.000  
C 5  39405801.259 9                      -830.094          29.000  
G30  24206416.487 9                      2511.021          19.000  
> 2021  5 17  2 34  5.0000000  0 18                     
C 3  36590035.791 2 190533886.09321      -806.355          38.000  
G21  20682403.342 2 108686801.04521       -41.590          37.000  
G 7  21154016.979 4 111165104.742 2      1352.681          33.000  
C 9  36782722.692 2 191537229.052 1     -2165.422          34.000  
C10  37463388.542 4 195081708.190 3      -758.445          31.000  
C 1  37520698.564 2 195380091.10921      -834.996          35.000  
C 7  36935177.509 2 192331136.734 1      -650.254          36.000  
G 9  23117302.325 9                     -2869.231          24.000  
G 1  21619990.990 9                      2225.633          25.000  
G 8  21182715.948 2 111315899.594 1     -2774.819          35.000  
C16  38219314.275 4 199018019.445 3     -2453.617          29.000  
C30  22629635.318 9                       882.737          21.000  
G16  24400743.935 9                     -2571.542          24.000  
C27  21746079.093 1 113237518.397 1     -1959.249          40.000  
C 8  38637422.701 2 201195128.351 3       896.734          28.000  
G27  23336452.276 9                     -3913.053          22.000  
C28  25444352.006 4 132495356.72524     -3808.035          27.000  
C 5  39405961.155 9                      -831.665          29.000  
> 2021  5 17  2 34  6.0000000  0 19                     
C 3  36590190.487 1 190534692.41321      -806.482          38.000  
G21  20682411.430 2 108686842.88921       -42.406          37.000  
G 7  21153759.864 4 111163752.387 2      1351.756          33.000  
C 9  36783138.417 2 191539394.183 2     -2165.649          34.000  
C10  37463534.133 8 195082466.397 3      -758.292          31.000  
C 1  37520858.775 2 195380925.51721      -834.308          35.000  
C 7  36935302.523 2 192331786.799 1      -650.182          36.000  
G 9  23117845.345 9                     -2873.638          25.000  
G 1  21619565.375 9                      2225.016          25.000  
G 8  21183243.939 2 111318675.011 1     -2775.622          35.000  
C16  38219785.671 4 199020472.821 3     -2453.279          29.000  
C30  22629471.997 9                       870.126          19.000  
G16  24401230.085 9                     -2571.797          23.000  
C27  21746455.333 1 113239477.496 1     -1959.522          39.000  
C 8  38637250.842 4 201194231.223 3       897.133          28.000  
G27  23337196.026 9                     -3913.053          21.000  
G 4  23798782.197 9                     -3720.128          12.000  
C28  25445084.029 4 132499164.47424     -3808.383          27.000  
C 5  39406120.689 9                      -830.355          29.000  
> 2021  5 17  2 34  7.0000000  0 21                     
C 3  36590345.554 1 190535498.712 1      -806.519          38.000  
G21  20682419.985 2 108686885.318 1       -42.941          37.000  
G 7  21153502.708 2 111162400.418 1      1351.372          33.000  
C 9  36783554.469 4 191541559.469 2     -2165.799          34.000  
C10  37463679.729 8 195083224.511 3      -758.603          31.000  
C 1  37521019.147 2 195381760.93631      -834.344          35.000  
C 2  37226729.378 9                      -958.594          27.000  
C 7  36935427.213 2 192332436.790 1      -650.129          36.000  
G 9  23118389.727 9                     -2873.009          26.000  
G 1  21619144.236 9                      2225.200          26.000  
G 8  21183771.791 2 111321450.686 1     -2775.459          35.000  
C16  38220258.306 4 199022926.266 3     -2453.697          29.000  
C 6  37787434.151 9                     -2391.000          13.000  
C30  22629305.757 9                       880.857          19.000  
G16  24401720.323 9                     -2573.015          23.000  
C27  21746831.913 1 113241436.995 1     -1959.640          39.000  
C 8  38637081.854 4 201193334.194 3       897.009          28.000  
G27  23337940.474 9                     -3913.053          21.000  
G 4  23799492.657 9                     -3720.128          11.000  
C28  25445816.790 4 132502972.19024     -3807.775          27.000  
C 5  39406280.830 9                      -832.053          29.000  
> 2021  5 17  2 34  8.0000000  0 20                     
C 3  36590500.385 1 190536305.269 1      -806.803          38.000  
G21  20682428.636 2 108686928.635 1       -43.578          37.000  
G 7  21153245.959 4 111161049.178 2      1350.363          34.000  
C 9  36783970.465 4 191543725.120 2     -2165.787          33.000  
C10  37463825.622 4 195083982.759 3      -757.859          31.000  
C 1  37521179.370 4 195382595.62322      -834.893          35.000  
C 7  36935552.318 2 192333086.968 1      -650.376          36.000  
G 9  23118931.874 9                     -2875.271          26.000  
G 1  21618722.015 9                      2225.050          26.000  
G 8  21184299.970 2 111324226.829 1     -2776.412          34.000  
C16  38220728.633 4 199025380.004 3     -2454.280          28.000  
C 6  37787883.839 9                     -2361.215          13.000  
C30  22629140.853 9                       875.561          18.000  
G16  24402209.828 9                     -2577.579          22.000  
C27  21747208.427 1 113243397.176 1     -1960.173          39.000  
C 8  38636909.638 4 201192437.499 3       896.600          28.000  
G27  23338686.419 9                     -3913.053          22.000  
G 4  23800200.359 9                     -3720.128          14.000  
C28  25446548.186 4 132506780.29124     -3808.513          27.000  
C 5  39406440.897 9                      -833.989          29.000  
> 2021  5 17  2 34  9.0000000  0 22                     
C 3  36590655.252 2 190537111.821 1      -806.275          38.000  
G21  20682437.139 2 108686972.609 1       -44.045          37.000  
G 7  21152989.009 4 111159698.306 2      1350.373          33.000  
C 9  36784386.452 4 191545890.929 2     -2165.678          33.000  
C10  37463971.178 4 195084740.970 3      -757.115          31.000  
C 1  37521339.690 2 195383430.28131      -834.211          35.000  
C 2  37227041.340 9                      -836.445          27.000  
C 7  36935677.092 2 192333737.096 1      -649.818          36.000  
G 9  23119477.246 9                     -2872.530          26.000  
G 1  21618301.102 8                      2224.981          26.000  
G 8  21184827.808 2 111327003.247 1     -2776.838          34.000  
C16  38221200.103 4 199027833.762 4     -2453.548          28.000  
C 6  37788340.520 9                     -2378.671          13.000  
C30  22628973.562 9                       877.535          18.000  
G16  24402700.013 9                     -2560.291          21.000  
C27  21747584.850 1 113245357.807 1     -1960.673          39.000  
C 8  38636736.392 4 201191540.809 3       897.243          28.000  
G27  23339431.801 9                     -3913.053          22.000  
G 4  23800907.241 9                     -3720.128          15.000  
C28  25447279.934 4 132510587.89315     -3807.213          26.000  
C 5  39406600.614 9                      -845.508          29.000  
G22  25068044.083 9                       760.005          22.000  
> 2021  5 17  2 34 10.0000000  0 22                     
C 3  36590810.122 2 190537919.09831      -805.978          38.000  
G21  20682445.781 2 108687016.906 1       -44.543          37.000  
G 7  21152732.120 4 111158347.582 2      1350.721          34.000  
C 9  36784802.417 4 191548056.553 2     -2165.946          33.000  
C10  37464116.713 4 195085498.795 3      -757.845          31.000  
C 1  37521499.987 4 195384264.70232      -834.583          35.000  
C 2  37227201.389 9                      -851.758          27.000  
C 7  36935801.773 2 192334386.867 1      -650.572          36.000  
G 9  23120023.303 9                     -2874.466          25.000  
G 1  21617878.907 8 113602714.84434      2224.191          27.000  
G 8  21185355.551 4 111329779.570 2     -2776.541          34.000  
C16  38221669.317 4 199030287.285 3     -2453.196          28.000  
C 6  37788801.402 9                     -2378.671          15.000  
C30  22628805.673 9                       877.692          18.000  
G16  24403188.794 9                     -2574.548          21.000  
C27  21747961.365 1 113247318.579 1     -1961.030          39.000  
C 8  38636565.542 4 201190643.920 3       897.194          29.000  
G27  23340175.276 9                     -3913.053          22.000  
G 4  23801614.376 9                     -3720.128          15.000  
C28  25448013.149 4 132514395.884 5     -3807.657          26.000  
C 5  39406759.865 9                      -827.490          28.000  
G22  25067889.911 9                       760.005          23.000  
> 2021  5 17  2 34 11.0000000  0 21                     
C 3  36590964.906 2 190538725.22721      -806.086          38.000  
G21  20682454.310 2 108687061.651 1       -44.625          37.000  
G 7  21152475.458 4 111156997.168 2      1350.494          33.000  
C 9  36785218.112 4 191550222.095 2     -2164.496          32.000  
C10  37464262.152 4 195086256.394 2      -757.555          31.000  
C 1  37521660.150 4 195385098.95222      -834.419          35.000  
C 2  37227369.727 9                      -963.574          27.000  
C 7  36935926.652 2 192335036.327 1      -649.275          36.000  
G 9  23120567.130 9                     -2875.268          25.000  
G 1  21617459.173 4 113600491.08324      2223.581          27.000  
G 8  21185883.346 4 111332555.988 2     -2776.634          33.000  
C16  38222141.180 4 199032740.748 3     -2453.256          28.000  
C 6  37789261.612 9                     -2378.671          16.000  
C30  22628636.323 9                       879.370          18.000  
G16  24403676.405 9                     -2567.337          20.000  
C27  21748337.954 1 113249279.587 1     -1961.156          39.000  
G27  23340922.891 9                     -3913.053          22.000  
G 4  23802320.578 9                     -3720.128          15.000  
C28  25448745.534 4 132518203.725 4     -3807.746          26.000  
C 5  39406919.456 9                      -827.002          29.000  
G22  25067732.863 9                       760.005          23.000  
> 2021  5 17  2 34 13.0000000  0 19                     
C 3  36591274.364 2 190540335.14821      -806.184          38.000  
G21  20682471.533 2 108687152.743 1       -46.132          36.000  
G 7  21151961.758 4 111154297.309 2      1348.855          33.000  
C 9  36786050.086 4 191554553.378 2     -2165.092          32.000  
C10  37464553.217 4 195087771.007 3      -757.924          31.000  
C 1  37521980.579 2 195386768.09731      -833.701          35.000  
C 7  36936176.024 2 192336334.748 1      -649.306          36.000  
G 9  23121654.780 9                     -2875.402          24.000  
G 1  21616615.245 4 113596044.19824      2223.740          26.000  
G 8  21186939.367 4 111338109.181 2     -2776.313          33.000  
C16  38223083.614 4 199037647.477 3     -2453.373          28.000  
C30  22628299.360 9                       876.223          23.000  
G16  24404653.792 9                     -2570.431          20.000  
C27  21749091.341 2 113253202.587 1     -1962.204          39.000  
C 8  38636044.134 4 201187995.77213       897.376          28.000  
G27  23342417.105 9                     -3913.053          22.000  
G 4  23803727.035 9                     -3720.128          17.000  
C28  25450209.464 4 132525819.310 4     -3807.780          26.000  
C 5  39407237.582 9                      -831.152          29.000  
> 2021  5 17  2 34 14.0000000  0 19                     
C 3  36591429.339 2 190541141.16621      -806.272          38.000  
G21  20682480.215 2 108687199.337 1       -47.441          36.000  
G 7  21151705.214 4 111152948.117 2      1347.924          34.000  
C 9  36786466.086 4 191556719.271 2     -2165.655          32.000  
C10  37464701.199 8 195088528.256 3      -757.884          31.000  
C 1  37522140.703 2 195387601.30921      -834.716          35.000  
C 7  36936300.614 2 192336983.931 1      -649.568          36.000  
G 9  23122197.281 9                     -2873.735          23.000  
G 1  21616187.820 4 113593821.43324      2222.255          26.000  
G 8  21187467.542 4 111340886.280 2     -2777.542          33.000  
C16  38223555.878 4 199040101.014 3     -2454.152          27.000  
C30  22628129.656 9                       875.516          25.000  
G16  24405142.760 9                     -2574.973          19.000  
C27  21749468.139 1 113255164.787 1     -1962.646          39.000  
C 8  38635870.844 4 201187098.872 3       896.767          28.000  
G27  23343162.701 9                     -3913.053          22.000  
G 4  23804427.823 9                     -3720.128          18.000  
C28  25450942.704 4 132529627.326 5     -3808.904          26.000  
C 5  39407398.215 9                      -836.182          29.000  
> 2021  5 17  2 34 15.0000000  0 18                     
C 3  36591584.397 1 190541950.64031      -806.996          38.000  
G21  20682489.136 2 108687246.950 1       -48.077          36.000  
G 7  21151448.556 4 111151599.711 2      1347.679          34.000  
C 9  36786882.235 4 191558885.756 3     -2168.001          32.000  
C10  37464841.621 8 195089285.838 3      -758.326          31.000  
C 1  37522301.140 4 195388436.86332      -834.569          35.000  
C 2  37228004.051 9                      -815.125          27.000  
C 7  36936425.108 2 192337633.445 1      -650.462          37.000  
G 9  23122743.163 9                     -2874.661          23.000  
G 1  21615763.164 4 113591599.46125      2220.515          25.000  
G 8  21187995.651 4 111343663.985 2     -2778.186          33.000  
C16  38224025.555 4 199042554.992 4     -2454.385          27.000  
C30  22627958.125 9                       874.097          26.000  
G16  24405627.955 9                     -2573.359          18.000  
C27  21749845.059 1 113257127.803 1     -1963.310          38.000  
C 8  38635698.680 4 201186202.438 3       896.390          29.000  
C28  25451676.172 4 132533435.766 5     -3809.430          26.000  
C 5  39407558.718 9                      -838.086          29.000  
> 2021  5 17  2 34 16.0000000  0 17                     
C 3  36591739.181 2 190542757.29221      -806.909          36.000  
G21  20682498.354 2 108687295.420 1       -48.652          36.000  
G 7  21151192.081 4 111150252.007 2      1347.573          33.000  
C 9  36787298.933 4 191561052.481 3     -2166.664          30.000  
C10  37464989.752 8 195090043.560 3      -757.714          30.000  
C 1  37522461.180 4 195389271.66922      -834.688          34.000  
C 7  36936549.746 2 192338283.068 1      -649.395          35.000  
G 9  23123291.253 9                     -2874.287          23.000  
G 1  21615336.986 8                      2221.196          25.000  
G 8  21188523.764 4 111346442.111 2     -2778.131          33.000  
C16  38224496.135 4 199045009.255 4     -2454.219          27.000  
C30  22627787.074 9                       874.825          26.000  
G16  24406117.045 9                     -2572.855          18.000  
C27  21750221.871 2 113259091.496 1     -1963.833          37.000  
C 8  38635526.591 4 201185306.245 3       896.642          28.000  
C28  25452409.565 4 132537244.462 4     -3809.198          25.000  
C 5  39407721.092 9                      -828.711          28.000  
> 2021  5 17  2 34 17.0000000  0 17                     
C 3  36591894.230 2 190543563.93921      -806.472          37.000  
G21  20682507.673 2 108687344.519 1       -49.607          36.000  
G 7  21150935.842 4 111148904.752 2      1346.844          33.000  
C 9  36787716.124 8 191563219.383 3     -2167.049          31.000  
C10  37465133.132 8 195090801.196 3      -758.519          30.000  
C 1  37522621.670 4 195390105.48632      -835.437          35.000  
C 7  36936674.708 2 192338932.651 1      -649.843          36.000  
G 9  23123839.709 9                     -2869.801          22.000  
G 1  21614911.485 8                      2220.237          24.000  
G 8  21189050.870 4 111349220.502 2     -2778.825          33.000  
C16  38224965.908 4 199047463.446 4     -2453.484          27.000  
C30  22627613.592 8                       874.239          27.000  
G16  24406607.313 9                     -2577.267          18.000  
C27  21750598.865 2 113261055.612 1     -1964.355          38.000  
C 8  38635354.484 4 201184410.161 3       896.023          28.000  
C28  25453142.248 4 132541053.257 5     -3809.083          25.000  
C 5  39407881.207 9                      -845.752          28.000  
> 2021  5 17  2 34 19.0000000  0 17                     
C 3  36592204.020 1 190545177.18531      -806.507          37.000  
G21  20682526.235 2 108687444.503 1       -50.872          35.000  
G 7  21150422.802 4 111146211.318 2      1347.276          32.000  
C 9  36788546.794 8 191567553.422 4     -2165.756          30.000  
C10  37465424.376 8 195092316.127 4      -758.138          30.000  
C 1  37522942.265 4 195391774.97732      -834.944          34.000  
C 7  36936924.520 2 192340231.413 1      -649.212          36.000  
G 9  23124931.722 9                     -2875.520          19.000  
G 1  21614064.281 9                      2220.133          24.000  
G 8  21190109.335 4 111354777.878 2     -2779.225          33.000  
C16  38225905.275 4 199052372.142 5     -2454.358          27.000  
C30  22627267.698 4 117826142.57833       873.343          28.000  
G16  24407587.998 9                     -2577.267          14.000  
C27  21751353.177 1 113264984.979 1     -1965.189          37.000  
C 8  38635009.131 4 201182617.943 3       896.178          28.000  
C28  25454606.779 8                     -3808.961          25.000  
C 5  39408201.179 9                      -826.904          28.000  
> 2021  5 17  2 34 20.0000000  0 17                     
C 3  36592358.812 1 190545983.52721      -806.408          37.000  
G21  20682535.876 2 108687495.151 1       -51.145          35.000  
G 7  21150166.305 4 111144865.051 2      1345.630          32.000  
C 9  36788965.909 8 191569720.434 3     -2167.783          30.000  
C10  37465570.582 8 195093073.132 3      -756.345          31.000  
C 1  37523102.393 4 195392609.44922      -834.779          34.000  
C 7  36937049.002 2 192340880.421 1      -649.093          36.000  
G 9  23125479.558 9                     -2875.520          16.000  
G 1  21613642.221 9                      2221.476          24.000  
G 8  21190632.907 4 111357556.618 2     -2779.245          33.000  
C16  38226372.958 4 199054826.234 5     -2453.821          26.000  
C30  22627094.422 4 117825268.98423       873.021          28.000  
G16  24408075.684 9                     -2577.267          11.000  
C27  21751730.560 1 113266950.026 1     -1965.660          37.000  
C 8  38634836.452 2 201181721.666 3       896.131          28.000  
C28  25455337.764 8 132552479.541 5     -3808.927          25.000  
C 5  39408360.098 9                      -832.129          28.000  
> 2021  5 17  2 34 21.0000000  0 16                     
C 3  36592513.639 2 190546789.73631      -806.408          37.000  
G21  20682545.862 2 108687546.283 1       -51.434          35.000  
G 7  21149910.123 4 111143519.045 2      1344.563          31.000  
C 9  36789379.775 8 191571887.352 3     -2166.810          30.000  
C10  37465715.249 8 195093829.984 3      -756.874          30.000  
C 1  37523262.468 4 195393443.77222      -834.415          34.000  
C 7  36937173.819 2 192341529.194 1      -649.097          36.000  
G 9  23126027.451 9                     -2875.520          13.000  
G 1  21613222.749 9                      2219.522          24.000  
G 8  21191164.711 4 111360335.468 2     -2779.087          33.000  
C16  38226842.059 4 199057280.271 5     -2453.632          26.000  
C30  22626919.798 4 117824395.65923       873.551          29.000  
C27  21752107.956 2 113268915.316 1     -1965.482          37.000  
C 8  38634664.031 4 201180825.208 3       896.805          28.000  
C28  25456068.915 8                     -3808.907          24.000  
C 5  39408519.545 9                      -830.518          28.000  
> 2021  5 17  2 34 22.0000000  0 16                     
C 3  36592668.479 2 190547595.32921      -805.576          37.000  
G21  20682555.800 2 108687597.464 1       -51.317          36.000  
G 7  21149653.487 4 111142172.822 2      1346.272          31.000  
C 9  36789798.384 8 191574053.835 3     -2165.833          30.000  
C10  37465861.613 8 195094586.181 3      -756.707          30.000  
C 1  37523422.648 4 195394277.51222      -833.452          34.000  
C 7  36937298.326 2 192342177.291 1      -647.999          36.000  
G 1  21612799.891 9                      2221.481          25.000  
G 8  21191693.653 4 111363113.959 2     -2778.609          33.000  
C16  38227313.455 4 199059733.816 4     -2454.031          26.000  
C30  22626746.626 4 117823522.28023       872.983          28.000  
C27  21752485.286 2 113270880.495 1     -1965.411          36.000  
C 8  38634493.756 4 201179928.369 3       896.759          28.000  
C28  25456802.008 9                     -3807.153          24.000  
C 5  39408678.734 9                      -829.297          28.000  
G22  25066109.640 9                       763.765          25.000  
> 2021  5 17  2 34 23.0000000  0 18                     
C 3  36592822.931 2 190548401.13621      -805.311          37.000  
G21  20682565.703 2 108687649.387 1       -51.951          35.000  
G 7  21149397.327 4 111140827.533 2      1344.315          31.000  
C 9  36790214.123 8 191576220.734 3     -2167.466          30.000  
C10  37466007.047 8 195095342.727 2      -757.031          31.000  
C 1  37523582.972 2 195395111.32522      -833.474          34.000  
C 7  36937422.999 2 192342825.660 1      -648.682          36.000  
G 9  23127125.738 9                     -2875.520          11.000  
G 1  21612377.268 9                      2222.475          25.000  
G 8  21192226.015 4 111365893.076 1     -2779.403          34.000  
C16  38227785.021 4 199062187.542 4     -2454.618          26.000  
C30  22626573.873 4 117822649.43923       872.278          29.000  
G16  24409544.804 9                     -2577.267          10.000  
C27  21752862.808 2 113272846.406 1     -1966.689          36.000  
C 8  38634321.016 4 201179031.541 3       897.433          28.000  
C28  25457531.318 9                     -3810.278          23.000  
C 5  39408838.050 9                      -830.225          28.000  
G22  25065964.955 9                       765.333          25.000  
> 2021  5 17  2 34 25.0000000  0 18                     
C 3  36593132.083 4 190550009.24732      -803.146          33.000  
G21  20682585.221 4 108687752.431 2       -49.059          33.000  
G 7  21148885.154 8 111138141.22834      1341.903          32.000  
C 9  36791038.855 9                     -2168.462          28.000  
C10  37466297.986 4 195096860.249 3      -760.669          30.000  
C 1  37523902.952 4 195396778.25232      -828.780          33.000  
C 7  36937670.469 4 192344124.956 2      -650.806          32.000  
G 9  23128224.203 9                     -2881.584          20.000  
G 1  21611539.658 9                      2224.991          22.000  
G 8  21193281.352 4 111371454.949 3     -2782.039          32.000  
C16  38228729.357 9                     -2449.690          22.000  
C30  22626238.829 9                       876.350          21.000  
G16  24410527.553 9                     -2578.969          16.000  
C27  21753618.167 4 113276780.833 2     -1967.733          31.000  
C 8  38633974.948 8 201177233.510 5       901.742          26.000  
G 4  23812130.990 9                     -3719.656          19.000  
C28  25458993.681 9                     -3816.091          19.000  
G22  25065674.475 8                       771.770          26.000  
> 2021  5 17  2 34 26.0000000  0 18                     
C 3  36593286.204 4 190550812.59322      -802.464          33.000  
G21  20682594.714 4 108687802.355 2       -50.143          34.000  
G 7  21148630.398 8 111136801.92223      1338.695          32.000  
C 9  36791454.105 9                     -2165.557          27.000  
C10  37466444.594 4 195097621.804 3      -761.523          29.000  
C 1  37524062.225 9 195397606.82335      -827.540          31.000  
C 7  36937795.182 4 192344776.039 2      -651.946          32.000  
G 9  23128770.582 9                     -2854.593          20.000  
G 1  21611120.887 9                      2225.527          20.000  
G 8  21193815.154 4 111374237.914 2     -2783.172          35.000  
C16  38229202.380 9                     -2442.432          21.000  
C30  22626073.052 9                       869.637          34.000  
G16  24411017.882 9                     -2568.430          16.000  
C27  21753997.452 4 113278749.300 4     -1969.509          24.000  
C 8  38633802.291 4 201176330.577 4       903.970          26.000  
G 4  23812838.849 9                     -3719.656          20.000  
C28  25459723.056 9                     -3808.646          18.000  
G22  25065526.650 8 131720231.82735       772.491          26.000  
> 2021  5 17  2 34 27.0000000  0 18                     
C 3  36593440.389 4 190551614.95922      -803.306          33.000  
G21  20682604.412 4 108687852.719 2       -50.417          34.000  
G 7  21148373.003 4 111135463.58522      1338.610          33.000  
C 9  36791872.862 9 191584905.43534     -2167.316          28.000  
C10  37466590.561 8 195098384.253 4      -763.929          30.000  
C 1  37524221.231 8 195398435.19223      -828.525          32.000  
C 7  36937916.596 4 192345427.597 3      -652.257          29.000  
G 9  23129311.613 9                     -2883.066          23.000  
G 1  21610699.220 9                      2224.445          21.000  
G 8  21194344.616 8 111377021.560 3     -2782.311          31.000  
C16  38229674.164 9                     -2451.757          19.000  
C30  22625903.580 8 117818997.66632       870.313          34.000  
G16  24411505.184 9                     -2568.430          15.000  
C27  21754376.288 9                     -1969.796          22.000  
C 8  38633626.279 4 201175427.397 4       902.235          31.000  
G 4  23813552.402 9                     -3719.656          22.000  
C28  25460453.077 9                     -3808.646          16.000  
G22  25065376.565 8                       774.719          25.000  
> 2021  5 17  2 34 28.0000000  0 18                     
C 3  36593594.575 4 190552418.71422      -803.617          33.000  
G21  20682614.394 2 108687904.702 1       -53.992          35.000  
G 7  21148121.484 4 111134125.26022      1339.854          33.000  
C 9  36792285.106 9                     -2166.864          23.000  
C10  37466737.369 8 195099145.785 4      -760.425          30.000  
C 1  37524380.538 4 195399264.69523      -831.179          32.000  
C 2  37230073.049 9                      -843.125          32.000  
C 7  36938039.624 9                      -673.328          26.000  
G 9  23129821.430 9                     -2876.074          28.000  
G 1  21610274.351 9                      2222.840          23.000  
G 8  21194869.641 9                     -2775.960          23.000  
C16  38230148.540 9                     -2450.237          20.000  
C30  22625733.514 4 117818127.60822       870.311          37.000  
G16  24411990.548 9                     -2566.214          18.000  
C27  21754756.445 9                     -1968.403          21.000  
C 8  38633450.133 4 201174525.367 3       900.056          32.000  
G 4  23814260.881 9                     -3719.656          22.000  
C28  25461181.890 9                     -3808.646          16.000  
> 2021  5 17  2 34 29.0000000  0 18                     
C 3  36593749.097 4 190553222.57132      -803.942          30.000  
G21  20682624.602 2 108687958.900 1       -54.722          36.000  
G 7  21147865.490 4 111132785.03822      1341.736          34.000  
C 9  36792696.591 9 191589194.25935     -2167.454          29.000  
C10  37466881.718 8 195099904.654 4      -757.175          29.000  
C 1  37524540.186 4 195400096.57322      -833.038          32.000  
C 2  37230233.691 9                      -844.203          30.000  
C 7  36938174.187 9                      -653.219          22.000  
G 9  23130353.055 8 121550825.02134     -2877.365          35.000  
G 1  21609855.402 9                      2227.074          24.000  
G 8  21195412.351 9                     -2778.122          22.000  
C16  38230619.682 9                     -2461.066          20.000  
C30  22625562.027 8 117817257.23823       869.826          32.000  
G16  24412472.641 9                     -2572.197          24.000  
C27  21755134.783 9                     -1967.110          19.000  
C 8  38633276.250 4 201173626.194 2       898.384          32.000  
G 4  23814974.974 9                     -3719.656          23.000  
C28  25461912.177 9                     -3809.900          16.000  
> 2021  5 17  2 34 30.0000000  0 19                     
C 3  36593903.841 9                      -816.357          29.000  
G21  20682635.731 2 108688015.041 1       -56.708          36.000  
G 7  21147611.729 4 111131443.17422      1341.951          33.000  
C 9  36793111.068 9                     -2170.493          19.000  
C10  37467023.069 8 195100661.112 4      -755.005          30.000  
C 1  37524700.471 4 195400931.03332      -834.233          36.000  
C 2  37230387.607 9                      -830.225          31.000  
C 7  36938299.436 9                      -652.434          18.000  
G 9  23130903.151 4 121553703.09922     -2877.730          36.000  
G 1  21609434.900 9                      2217.545          26.000  
G 8  21195945.228 9                     -2782.064          19.000  
C16  38231095.594 9                     -2445.465          20.000  
C30  22625387.725 4 117816387.38722       870.081          33.000  
G16  24412953.752 9 128290937.25935     -2570.938          29.000  
C27  21755515.207 9                     -1984.587          19.000  
C 8  38633106.690 4 201172729.320 2       896.625          35.000  
C 4  38464199.603 9                      -870.680          30.000  
G 4  23815690.799 9                     -3714.078          24.000  
C28  25462636.296 9                     -3804.503          18.000  
> 2021  5 17  2 34 31.0000000  0 19                     
C 3  36594058.995 9                      -806.836          28.000  
G21  20682646.568 2 108688072.015 1       -56.859          36.000  
G 7  21147356.035 4 111130101.09822      1341.604          33.000  
C 9  36793537.639 9                     -2156.267          20.000  
C10  37467170.375 8 195101416.822 3      -756.211          30.000  
C 1  37524860.803 4 195401764.92622      -833.739          36.000  
C 2  37230549.898 9                      -833.317          31.000  
C 7  36938418.246 9                      -636.355          17.000  
G 9  23131448.165 4 121556581.23621     -2877.652          36.000  
G 1  21609017.495 9 113556129.33035      2217.409          27.000  
G 8  21196476.461 9                     -2778.204          19.000  
C16  38231572.342 9                     -2447.438          21.000  
C30  22625222.816 4 117815517.81622       869.535          33.000  
G16  24413437.163 8 128293509.64025     -2571.062          29.000  
C27  21755894.762 9                     -1967.956          18.000  
C 8  38632935.565 4 201171832.986 2       897.258          35.000  
C 4  38464353.378 9                      -828.184          30.000  
G 4  23816407.611 9                     -3717.346          24.000  
C28  25463359.354 9                     -3808.629          19.000  
> 2021  5 17  2 34 32.0000000  0 19                     
C 3  36594213.578 9 190555641.26633      -804.023          33.000  
G21  20682657.164 2 108688128.374 1       -56.222          36.000  
G 7  21147100.394 4 111128759.87422      1340.994          33.000  
C 9  36793950.000 9 191595721.83334     -2167.137          36.000  
C10  37467317.842 8 195102173.017 3      -756.625          31.000  
C 1  37525020.879 2 195402599.35731      -831.688          36.000  
C 2  37230709.655 9                      -824.306          30.000  
C 7  36938545.676 9                      -649.432          18.000  
G 9  23131994.593 4 121559458.91522     -2877.430          32.000  
G 1  21608599.492 9                      2224.684          26.000  
G 8  21197008.069 9                     -2771.882          21.000  
C16  38232048.358 9                     -2455.988          22.000  
C30  22625058.898 8 117814647.88922       869.870          35.000  
G16  24413916.420 8 128296081.01324     -2570.958          28.000  
C27  21756274.871 9                     -1965.701          18.000  
C 8  38632760.941 4 201170934.994 1       898.520          35.000  
C 4  38464507.324 9                      -821.098          29.000  
G 4  23817117.804 9                     -3718.924          21.000  
C28  25464091.683 9                     -3813.678          18.000  
> 2021  5 17  2 34 33.0000000  0 18                     
C 3  36594367.908 8 190556445.35623      -802.702          29.000  
G21  20682667.521 4 108688184.236 2       -55.574          35.000  
G 7  21146845.546 4 111127420.63322      1336.678          33.000  
C 9  36794365.098 8 191597888.46924     -2165.907          36.000  
C10  37467464.332 8 195102930.670 3      -759.278          31.000  
C 1  37525180.439 2 195403430.33931      -830.401          37.000  
C 2  37230868.901 9 193870872.26135      -835.019          29.000  
C 7  36938672.470 9                      -661.676          18.000  
G 9  23132541.906 4 121562336.52822     -2876.365          35.000  
G 1  21608181.049 9                      2221.405          24.000  
G 8  21197540.405 9                     -2778.315          23.000  
C16  38232515.478 9                     -2451.871          25.000  
C30  22624901.615 8 117813779.22124       870.573          39.000  
G16  24414411.757 9                     -2572.310          20.000  
C27  21756654.034 9                     -1969.035          18.000  
C 8  38632588.223 4 201170034.937 2       901.593          35.000  
C 4  38464665.899 9                      -812.842          32.000  
G 4  23817824.686 9                     -3718.924          19.000  
> 2021  5 17  2 34 34.0000000  0 18                     
C 3  36594522.582 9                      -808.751          32.000  
G21  20682678.218 2 108688238.247 1       -54.014          35.000  
G 7  21146591.449 4 111126085.12522      1334.790          35.000  
C 9  36794787.205 8                     -2167.042          34.000  
C10  37467608.567 8 195103692.697 4      -764.059          30.000  
C 1  37525339.655 4 195404259.33332      -828.876          34.000  
C 2  37231028.662 9                      -829.966          30.000  
C 7  36938801.684 9                      -644.486          19.000  
G 9  23133086.383 9                     -2873.750          31.000  
G 1  21607756.551 9                      2213.920          22.000  
G 8  21198073.697 9                     -2802.285          23.000  
C16  38232986.682 9                     -2460.121          25.000  
C30  22624726.833 9                       872.388          38.000  
G16  24414894.339 9                     -2575.924          23.000  
C27  21757034.811 9                     -1976.608          20.000  
C 8  38632415.832 4 201169129.697 2       907.631          34.000  
C 4  38464821.646 9                      -819.482          30.000  
G 4  23818529.540 9                     -3715.924          18.000  
> 2021  5 17  2 34 35.0000000  0 21                     
C 3  36594679.490 9                      -775.977          29.000  
G21  20682688.134 4 108688292.231 2       -54.090          35.000  
G 7  21146337.204 4 111124751.30422      1333.400          33.000  
C 9  36795196.164 9                     -2149.023          34.000  
C10  37467758.962 8 195104456.235 3      -763.223          31.000  
C 1  37525498.434 8 195405086.35624      -827.581          33.000  
C 2  37231188.807 9                      -826.074          30.000  
C 7  36938928.146 9                      -649.782          18.000  
G 9  23133652.608 9                     -2875.439          35.000  
G 1  21607335.590 9                      2219.770          19.000  
G 8  21198606.531 9                     -2789.219          21.000  
C16  38233458.449 9                     -2434.519          24.000  
C 6  37800165.010 9                     -2362.696          25.000  
C30  22624562.884 9                       875.879          37.000  
G16  24415387.552 9                     -2579.053          24.000  
C27  21757410.963 9                     -1972.221          23.000  
C 8  38632240.152 4 201168220.683 2       909.583          34.000  
C 4  38464980.443 9                      -825.342          30.000  
G 4  23819235.986 9                     -3715.924          16.000  
G30  24191603.037 9                      2503.592          20.000  
G22  25064204.442 9                       779.773          28.000  
> 2021  5 17  2 34 37.0000000  0 18                     
G21  20682708.551 8 108688409.307 5       -65.105          34.000  
G 7  21145828.639 4 111122078.254 2      1338.942          37.000  
C 9  36796034.202 9                     -2184.968          30.000  
C10  37468045.852 9                      -757.675          30.000  
C 1  37525818.794 9                      -841.405          34.000  
C 2  37231503.020 9                      -806.173          29.000  
C 7  36939176.829 9                      -650.952          18.000  
G 9  23134728.047 9                     -2854.729          26.000  
G 1  21606488.505 9                      2228.107          33.000  
G 8  21199667.412 9                     -2790.574          21.000  
C16  38234391.115 9                     -2441.329          26.000  
C30  22624222.526 9                       851.729          31.000  
G16  24416348.889 9                     -2595.227          23.000  
C27  21758162.714 8 113300431.27532     -1981.147          35.000  
C 8  38631895.480 9                       905.898          20.000  
C 4  38465298.408 9                      -830.908          32.000  
G 4  23820651.630 9                     -3726.204          15.000  
G30  24190642.463 9                      2516.682          22.000  
> 2021  5 17  2 34 38.0000000  0 18                     
G21  20682730.224 9                       -68.156          21.000  
G 7  21145574.669 4 111120739.908 4      1337.177          29.000  
C 9  36796447.214 9                     -2160.338          23.000  
C10  37468195.955 9                      -754.593          22.000  
C 1  37525981.434 9                      -877.734          29.000  
C 2  37231658.284 9                      -821.387          28.000  
C 7  36939299.639 9                      -659.757          29.000  
G 9  23135274.387 9                     -2853.466          26.000  
G 1  21606060.372 9                      2225.533          27.000  
G 8  21200180.165 9 111407698.39935     -2797.431          34.000  
C16  38234861.250 9                     -2427.420          24.000  
C30  22624055.139 9                       886.472          31.000  
G16  24416834.694 9                     -2600.353          25.000  
C27  21758542.366 4 113302412.29622     -1982.472          36.000  
C 8  38631726.889 9                       907.587          18.000  
C 4  38465459.691 9                      -840.580          30.000  
G 4  23821359.996 9                     -3726.204          14.000  
C28  25468479.440 9                     -3798.757          14.000  
> 2021  5 17  2 34 39.0000000  0 17                     
G21  20682750.876 9                       -80.374          22.000  
G 7  21145322.496 9                      1328.087          22.000  
C 9  36796852.037 9                     -2171.106          25.000  
C10  37468343.993 9                      -754.593          19.000  
C 1  37526164.653 9                      -992.676          27.000  
C 2  37231813.669 9                      -804.639          27.000  
C 7  36939428.038 9 192353256.53135      -662.043          29.000  
G 9  23135806.758 9                     -2846.687          27.000  
G 1  21605630.198 9                      2228.861          26.000  
G 8  21200712.593 8 111410496.49623     -2799.729          34.000  
C16  38235325.731 9                     -2428.889          26.000  
C30  22623879.171 9                       886.064          31.000  
G16  24417329.211 9                     -2604.153          25.000  
C27  21758924.046 4 113304395.15222     -1984.629          36.000  
C 8  38631558.258 9                       903.457          19.000  
G 4  23822072.087 9                     -3737.754          17.000  
C28  25469208.148 9                     -3798.757          13.000  
> 2021  5 17  2 34 40.0000000  0 14                     
G21  20682764.029 9                       -65.286          22.000  
G 7  21145070.362 9                      1345.700          21.000  
C 9  36797271.488 9                     -2153.636          22.000  
C10  37468492.272 9                      -754.593          17.000  
C 7  36939550.639 9                      -668.172          22.000  
G 9  23136345.647 9                     -2845.862          30.000  
G 1  21605206.564 9                      2228.820          26.000  
G 8  21201246.242 8 111413296.64423     -2801.859          36.000  
C16  38235792.289 9                     -2428.064          25.000  
C30  22623706.436 9                       889.766          27.000  
C27  21759305.128 8 113306379.64324     -1986.251          30.000  
C 8  38631388.756 9                       900.190          19.000  
G 4  23822783.227 9                     -3737.395          18.000  
C28  25469938.174 9                     -3798.757          11.000  
> 2021  5 17  2 34 41.0000000  0 13                     
G21  20682768.401 9                       -61.536          23.000  
G 7  21144814.564 9                      1345.700          19.000  
C 9  36797674.200 9                     -2149.828          22.000  
C10  37468637.148 9                      -754.593          16.000  
C 7  36939683.042 9                      -674.831          22.000  
G 9  23136886.979 9                     -2842.721          30.000  
G 1  21604780.822 9                      2226.740          25.000  
G 8  21201782.060 9                     -2801.443          27.000  
C16  38236257.800 9                     -2429.685          23.000  
C30  22623538.408 8 117806653.77734       892.247          33.000  
C27  21759686.764 8 113308365.52923     -1985.089          32.000  
C 8  38631218.799 9                       905.779          18.000  
G 4  23823493.551 9                     -3739.543          16.000  
> 2021  5 17  2 34 42.0000000  0 11                     
G21  20682776.371 9                       -67.128          29.000  
G 7  21144559.153 9                      1335.168          17.000  
C 9  36798078.142 9 191617217.70235     -2140.324          31.000  
C10  37468787.430 9                      -754.593          14.000  
C 7  36939812.802 9                      -665.018          21.000  
G 9  23137430.222 8                     -2839.074          29.000  
G 1  21604355.006 9                      2240.376          26.000  
G 8  21202322.389 9                     -2791.575          25.000  
C27  21760068.352 8 113310352.72123     -1987.288          34.000  
C 8  38631046.923 9                       908.336          18.000  
G 4  23824204.385 9                     -3739.543          15.000  
> 2021  5 17  2 34 43.0000000  0 11                     
G21  20682786.745 9 108688777.20235       -69.406          32.000  
G 7  21144304.777 9                      1348.234          17.000  
C10  37468932.694 9                      -749.806          14.000  
C30  22623193.683 9                       897.211          36.000  
C 7  36939945.315 9                      -637.559          21.000  
G 9  23137969.643 8 121590850.77035     -2838.447          30.000  
G 1  21603935.193 9                      2230.066          26.000  
G 8  21202857.216 9                     -2809.090          23.000  
C27  21760449.544 8 113312341.33523     -1989.634          39.000  
C 8  38630875.205 9                       907.846          21.000  
G 4  23824918.099 9                     -3739.543          14.000  
> 2021  5 17  2 34 44.0000000  0 12                     
G21  20682802.978 9                       -68.645          27.000  
G 7  21144049.057 9                      1336.775          19.000  
C 9  36798901.055 9                     -2139.160          36.000  
C10  37469077.793 9                      -736.101          15.000  
C 7  36940071.227 9                      -624.944          23.000  
G 9  23138508.039 8 121593688.35424     -2837.300          30.000  
G 1  21603515.725 9                      2218.158          23.000  
G 8  21203388.383 9                     -2790.798          23.000  
C 2  37232584.751 9                      -793.141          32.000  
C27  21760830.761 8 113314331.24523     -1990.683          36.000  
C 8  38630705.152 9                       907.358          28.000  
G 4  23825630.317 9                     -3739.543          13.000  
> 2021  5 17  2 34 45.0000000  0 11                     
G21  20682817.047 9                       -71.788          25.000  
G 7  21143797.949 9                      1322.058          21.000  
C10  37469221.835 9                      -736.101          15.000  
C30  22622851.685 9 117803093.54235       895.242          39.000  
C 7  36940199.137 9                      -675.166          24.000  
G 9  23139048.538 8 121596525.56024     -2837.764          33.000  
G 1  21603091.353 9                      2197.128          21.000  
G 8  21203917.879 9                     -2766.545          23.000  
C27  21761212.877 8 113316321.997 3     -1992.807          40.000  
G 4  23826342.609 9                     -3761.736          11.000  
C28  25473583.485 9                     -3798.757          11.000  
> 2021  5 17  2 34 46.0000000  0 12                     
C 9  36799722.842 9                     -2143.896          35.000  
G21  20682823.011 9                       -69.849          34.000  
G 7  21143544.982 9                      1344.855          20.000  
C10  37469366.432 9                      -746.362          18.000  
C 7  36940324.643 9                      -645.353          24.000  
G 9  23139584.604 8 121599363.44124     -2837.490          32.000  
G 1  21602667.334 9                      2238.343          21.000  
G 8  21204448.549 9                     -2824.838          23.000  
C 2  37232886.530 9                      -802.570          34.000  
C16  38238608.584 9                     -2425.534          20.000  
C27  21761595.072 4 113318312.469 2     -1989.804          40.000  
G 4  23827046.803 9                     -3749.010          16.000  
> 2021  5 17  2 34 47.0000000  0 14                     
G21  20682839.519 9                       -53.220          20.000  
G 7  21143289.380 9                      1332.486          37.000  
C10  37469508.220 9                      -757.324          36.000  
C 1  37527455.210 9                      -819.482          27.000  
C30  22622508.125 9 117801305.01124       891.620          40.000  
C 7  36940455.908 9                      -659.258          21.000  
G 9  23140130.831 8 121602202.81423     -2839.258          33.000  
G 1  21602245.057 9                      2232.289          22.000  
G 8  21204984.681 9                     -2780.121          25.000  
C 2  37233043.582 9                      -804.102          34.000  
G16  24421337.884 9                     -2614.724          18.000  
C27  21761978.828 4 113320302.688 2     -1989.635          40.000  
C 4  38466948.815 9                      -851.123          27.000  
G 4  23827756.709 9                     -3749.010          16.000  
> 2021  5 17  2 34 48.0000000  0 14                     
C 9  36800542.954 9                     -2139.097          38.000  
G21  20682856.315 9                       -68.552          21.000  
G 7  21143035.745 9 111107400.13035      1336.540          30.000  
C 3  36596665.800 9                      -833.578          29.000  
C10  37469650.609 9                      -756.381          28.000  
C 1  37527606.137 9                      -716.846          27.000  
C 7  36940583.792 9                      -664.332          30.000  
G 9  23140669.698 9                     -2840.317          33.000  
G 1  21601823.791 9                      2181.381          23.000  
G 8  21205519.661 9                     -2792.266          25.000  
G16  24421829.330 9                     -2556.740          16.000  
C27  21762360.303 4 113322292.443 2     -1990.479          41.000  
G 4  23828468.159 9                     -3749.010          16.000  
G30  24185380.821 9                      2506.392          28.000  
> 2021  5 17  2 34 49.0000000  0 14                     
G21  20682873.468 9                       -69.269          23.000  
G 7  21142785.295 9                      1327.921          28.000  
C 3  36596818.184 9                      -832.568          28.000  
C10  37469806.204 9                      -770.991          24.000  
C30  22622161.690 9 117799501.04835       889.584          38.000  
C 7  36940707.859 9                      -665.251          37.000  
G 9  23141208.251 8 121607881.33735     -2842.795          33.000  
G 1  21601400.754 9                      2211.751          23.000  
G 8  21206052.299 9                     -2804.342          26.000  
C 2  37233352.246 9                      -810.914          33.000  
G16  24422325.872 9                     -2609.475          15.000  
C27  21762742.419 4 113324282.383 2     -1989.110          41.000  
G 4  23829177.257 9                     -3743.416          15.000  
G30  24184905.216 9                      2506.392          18.000  
> 2021  5 17  2 34 50.0000000  0 14                     
C 9  36801366.565 9                     -2139.716          36.000  
G21  20682890.618 9                       -75.094          25.000  
G 7  21142545.935 9                      1342.299          26.000  
C 3  36596962.506 9                      -770.947          28.000  
C10  37469955.115 9                      -748.896          22.000  
C 7  36940834.399 9 192360592.55234      -665.453          35.000  
G 9  23141749.661 9                     -2865.478          29.000  
G 1  21600981.779 9                      2199.303          23.000  
G 8  21206580.006 9                     -2804.466          34.000  
G16  24422819.730 9                     -2609.475          15.000  
C27  21763124.771 4 113326272.536 2     -1988.096          40.000  
G 4  23829887.319 9                     -3743.416          15.000  
C28  25477250.421 9                     -3836.051          17.000  
G30  24184428.576 9                      2506.392          16.000  
> 2021  5 17  2 34 51.0000000  0 16                     
G21  20682901.502 9                       -69.444          24.000  
G 7  21142287.222 9                      1331.735          26.000  
C 3  36597104.058 9                      -788.184          32.000  
C10  37470102.299 9                      -756.573          20.000  
C30  22621821.285 9 117797728.27835       889.177          41.000  
C 7  36940960.782 9                      -668.947          26.000  
G 9  23142299.461 9                     -2848.971          19.000  
G 1  21600556.019 9                      2238.282          22.000  
G 8  21207120.871 9                     -2815.302          25.000  
C 2  37233662.860 9                      -794.531          35.000  
C16  38240895.566 9 199130346.81735     -2427.365          35.000  
G16  24423312.088 9                     -2608.254          14.000  
C27  21763507.131 9 113328261.08835     -1991.310          41.000  
G27  23370693.368 9                     -3951.799          19.000  
G 4  23830600.767 9                     -3755.621          13.000  
G30  24183952.669 9                      2506.392          14.000  
> 2021  5 17  2 34 52.0000000  0 16                     
C 9  36802199.355 9                     -2139.355          32.000  
G21  20682914.228 9                       -73.826          30.000  
G 7  21142028.374 9                      1326.243          31.000  
C10  37470249.025 9                      -742.140          19.000  
C30  22621669.599 9                       861.883          32.000  
C 7  36941089.944 9                      -663.634          26.000  
G 9  23142838.895 9                     -2841.880          33.000  
G 1  21600120.850 9                      2226.946          24.000  
G 8  21207651.166 9                     -2790.943          22.000  
G16  24423812.281 9                     -2608.254          13.000  
C27  21763889.802 8 113330252.79723     -1991.019          43.000  
G27  23371445.944 9                     -3935.930          17.000  
G 4  23831316.038 9                     -3755.621          13.000  
C13  39385070.701 9                       772.703          26.000  
C28  25478717.435 9                     -3808.806          16.000  
G30  24183476.872 9                      2506.392          14.000  
> 2021  5 17  2 34 53.0000000  0 17                     
G21  20682927.080 9                       -70.633          35.000  
G 7  21141771.363 9                      1331.038          33.000  
C 3  36597408.255 9                      -790.586          34.000  
C10  37470388.426 9                      -754.924          19.000  
C30  22621483.675 9                       891.160          38.000  
C 7  36941213.217 9                      -651.503          22.000  
G 9  23143373.875 9 121619250.00634     -2840.767          32.000  
G 8  21208190.919 9                     -2790.943          19.000  
C 2  37233968.152 9                      -800.547          31.000  
C16  38241824.301 9                     -2422.948          34.000  
G16  24424306.611 9                     -2632.302          13.000  
C27  21764274.413 9                     -1995.671          38.000  
C 8  38629105.857 9                       906.732          29.000  
G27  23372196.892 9                     -3965.105          16.000  
C13  39384896.936 9                       777.148          32.000  
C28  25479450.274 9                     -3808.806          14.000  
G30  24183001.619 9                      2506.392          14.000  
> 2021  5 17  2 34 54.0000000  0 15                     
C 9  36803008.068 9 191642889.22535     -2139.246          37.000  
G21  20682933.379 9 108689547.53933       -74.841          35.000  
G 7  21141510.749 9 111099388.39534      1333.361          36.000  
C 3  36597555.063 9                      -780.477          36.000  
C10  37470520.564 9                      -755.673          34.000  
C 1  37528571.841 9                      -845.570          36.000  
C 7  36941343.596 9                      -662.907          20.000  
G 9  23143916.882 8 121622089.44822     -2839.446          34.000  
G 1  21599242.293 9                      2225.543          34.000  
G 8  21208720.803 9                     -2799.126          17.000  
G16  24424812.724 9                     -2620.461          15.000  
C27  21764655.434 9 113334240.13033     -1993.674          41.000  
C 8  38628928.877 9 201150952.24234       906.458          34.000  
G27  23372950.227 9                     -3965.105          13.000  
G30  24182523.968 9                      2506.392          14.000  
> 2021  5 17  2 34 55.0000000  0 16                     
C 9  36803419.671 9 191645027.02622     -2137.513          37.000  
G21  20682946.576 8 108689623.15022       -75.780          35.000  
G 7  21141252.202 8 111098055.63922      1331.971          35.000  
C 3  36597707.194 9 190573833.90933      -787.296          36.000  
C10  37470663.407 9 195119557.58334      -755.949          32.000  
C30  22621140.473 9 117794182.45335       892.612          40.000  
C 1  37528730.289 9 195421915.35834      -844.028          36.000  
C 7  36941472.126 9 192363907.33635      -667.751          34.000  
G 9  23144454.807 8 121624927.48723     -2837.770          36.000  
G 1  21598815.574 9 113502557.13933      2227.108          34.000  
G 8  21209257.938 9 111455402.54435     -2809.651          34.000  
C 2  37234272.527 9                      -797.773          35.000  
G16  24425316.970 9                     -2620.461          15.000  
C27  21765039.134 4 113336234.19121     -1994.118          40.000  
G27  23373705.852 9                     -3965.105          13.000  
G30  24182035.606 9                      2506.392          28.000  
> 2021  5 17  2 34 56.0000000  0 12                     
G21  20682964.423 4 108689699.11622       -76.130          34.000  
C 3  36597857.982 8 190574620.84122      -786.811          38.000  
C10  37470807.410 8 195120313.02924      -756.059          33.000  
C 1  37528893.928 8 195422759.62422      -844.158          38.000  
C 7  36941598.640 8 192364574.37322      -668.434          35.000  
G 9  23144994.926 4 121627764.50822     -2836.147          33.000  
G 8  21209792.705 8 111458212.54223     -2810.698          34.000  
C27  21765419.510 2 113338228.97021     -1995.380          42.000  
C 8  38628579.742 9                       909.060          36.000  
C 4  38468390.163 9                      -850.961          33.000  
G27  23374460.120 9                     -3960.832          14.000  
G30  24181555.729 9                      2506.392          22.000  
> 2021  5 17  2 34 57.0000000  0 16                     
G 7  21140743.035 9                      1334.617          32.000  
G21  20682978.410 4 108689775.01822       -75.973          34.000  
C30  22620796.438 9 117792391.90025       893.212          41.000  
C 3  36598010.270 4 190575406.85322      -785.886          35.000  
C10  37470955.440 9                      -755.273          27.000  
C 9  36804242.767 9                     -2135.348          38.000  
C 1  37529056.189 4 195423603.02522      -842.618          35.000  
C 7  36941727.514 8 192365242.10123      -668.298          34.000  
G 9  23145534.984 8 121630600.85823     -2836.920          33.000  
G 8  21210324.631 8 111461023.65923     -2811.403          33.000  
C 2  37234578.730 9                      -794.750          35.000  
C27  21765806.019 2 113340224.57421     -1996.319          40.000  
C 8  38628406.727 9 201148210.44534       908.545          28.000  
C 4  38468547.874 9                      -823.648          33.000  
G27  23375212.861 9                     -3960.832          13.000  
G30  24181074.923 9                      2506.672          25.000  
> 2021  5 17  2 34 58.0000000  0 12                     
G 7  21140496.747 9                      1331.742          33.000  
G21  20682990.511 8 108689851.28623       -76.903          34.000  
C10  37471096.473 9                      -757.514          26.000  
C 1  37529216.286 9 195424445.63735      -830.170          37.000  
C 7  36941855.250 8 192365910.18323      -668.042          35.000  
G 9  23146074.179 8 121633436.42923     -2835.148          32.000  
G 8  21210860.575 8 111463835.52423     -2812.004          33.000  
G16  24426814.295 9                     -2609.353          11.000  
C27  21766189.226 2 113342220.79121     -1996.418          41.000  
C 4  38468707.343 9                      -844.092          36.000  
G27  23375968.203 9                     -3960.832          13.000  
G30  24180593.960 9                      2505.333          27.000  
> 2021  5 17  2 34 58.9960000  0 13                     
G 7  19941075.047 9                      1324.825          29.000  
G21  19483836.703 8 102388248.38024       -79.551          29.000  
C30  21421279.752 9 111546193.28424       891.346          39.000  
C10  36272073.205 9                      -758.649          31.000  
C 9  35605894.208 9                     -2133.105          32.000  
C 1  36330209.722 9 189180903.71025      -842.794          36.000  
C 7  35742814.780 8 186122186.41023      -667.378          35.000  
G 9  21947443.960 8 115334592.66323     -2837.715          32.000  
G 8  20012222.294 8 105164967.80623     -2811.197          33.000  
C 2  36035719.460 9                      -800.047          34.000  
C27  20567403.765 4 107099825.70721     -1996.828          41.000  
C 4  37269700.195 9 194073077.21834      -845.890          34.000  
G27  22177553.869 9                     -3960.832          11.000  
> 2021  5 17  2 34 59.9960000  0 13                     
G21  19483856.945 9                       -84.901          26.000  
C30  21421112.121 9 111545302.25722       890.869          40.000  
C10  36272232.216 9                      -733.421          23.000  
C 9  35606298.420 9 185411308.07734     -2137.427          38.000  
C 1  36330375.050 9                      -913.623          27.000  
C 7  35742943.031 8 186122854.65423      -669.134          34.000  
G 9  21947980.986 8 115337430.47923     -2838.099          31.000  
G 1  20397538.663 9                      2224.766          19.000  
G 8  20012759.761 8 105167780.35123     -2811.424          33.000  
C 2  36035870.195 9                      -798.242          35.000  
G16  23228637.546 9                     -2609.353          10.000  
C27  20567785.864 2 107101823.08921     -1997.080          41.000  
C 4  37269862.643 9                      -872.949          28.000  
> 2021  5 17  2 35  0.9960000  0 10                     
G21  19483871.250 9                       -75.486          25.000  
C30  21420942.369 8 111544412.49521       889.975          40.000  
C10  36272383.374 9                      -754.614          21.000  
C 9  35606712.282 8 185413446.12422     -2139.048          39.000  
C 7  35743073.846 9                      -667.285          29.000  
G 9  21948524.111 8 115340269.633 3     -2840.422          32.000  
G 1  20397120.333 9                      2224.766          19.000  
G 8  20013296.887 8                     -2810.943          29.000  
C 2  36036021.732 9 187648990.37433      -798.192          35.000  
C27  20568169.524 4 107103820.51222     -1997.203          39.000  
> 2021  5 17  2 35  1.9960000  0 11                     
G21  19483887.827 9                       -82.980          25.000  
C30  21420769.307 4 111543523.73921       887.828          40.000  
C10  36272532.443 9                      -769.427          19.000  
C 9  35607121.630 4 185415584.83021     -2139.263          38.000  
C 7  35743210.381 9                      -667.112          28.000  
G 9  21949061.625 8 115343109.959 2     -2840.500          32.000  
G 1  20396696.725 9                      2224.766          28.000  
G 8  20013831.876 9                     -2811.252          28.000  
C 2  36036174.862 8 187649788.91122      -799.365          34.000  
C27  20568553.049 2 107105817.40921     -1996.490          41.000  
G27  22179812.206 9                     -3960.832          13.000  
> 2021  5 17  2 35  2.9960000  0 11                     
G21  19483901.892 9                       -78.667          31.000  
C30  21420597.505 4 111542636.37621       886.695          39.000  
C 3  35399740.210 9                      -785.984          37.000  
C 9  35607533.769 4 185417724.72921     -2140.992          38.000  
C 7  35743341.131 9                      -665.892          28.000  
G 9  21949604.187 8 115345951.921 3     -2842.822          31.000  
G 1  20396270.329 9                      2224.766          29.000  
G 8  20014366.716 9                     -2805.284          26.000  
C 2  36036328.315 4 187650588.47622      -800.284          34.000  
C27  20568936.374 4 107107814.440 2     -1997.840          39.000  
G27  22180565.454 9                     -3960.832          20.000  
> 2021  5 17  2 35  3.9960000  0 12                     
G 7  19939818.256 9                      1315.437          24.000  
G21  19483911.302 9 102388644.86833       -80.304          34.000  
C30  21420429.804 4 111541750.74121       884.534          40.000  
C 3  35399898.571 9 184336529.30035      -789.017          36.000  
C 9  35607943.631 4 185419865.88521     -2142.281          38.000  
C 7  35743465.974 9                      -665.622          28.000  
G 9  21950147.661 8 115348795.911 3     -2845.542          31.000  
G 1  20395839.954 9                      2223.390          33.000  
G 8  20014902.914 9                     -2807.609          26.000  
C 2  36036483.862 4 187651396.51932      -801.697          35.000  
C27  20569320.017 2 107109811.854 1     -1997.545          39.000  
G27  22181317.820 9                     -3960.832          22.000  
> 2021  5 17  2 35  4.9960000  0 15                     
G 7  19939573.116 9                      1279.796          20.000  
G21  19483925.546 8 102388723.94522       -78.239          34.000  
C30  21420260.323 4 111540866.72821       883.549          37.000  
C 3  35400049.568 9 184337317.51324      -790.064          36.000  
C10  36272949.660 9                      -760.301          18.000  
C 9  35608355.020 4 185422008.08321     -2142.338          35.000  
C 1  36331177.394 9                      -832.359          33.000  
C 7  35743592.131 9                      -647.542          17.000  
G 9  21950689.971 8 115351641.578 3     -2846.941          32.000  
G 1  20395416.097 9                      2185.836          28.000  
G 8  20015436.973 9                     -2813.349          24.000  
C 2  36036637.372 4 187652195.96433      -802.798          34.000  
C27  20569703.651 2 107111810.094 1     -1999.308          38.000  
C 4  37270686.708 9                      -813.508          28.000  
G27  22182067.001 9                     -3960.832          23.000  
> 2021  5 17  2 35  5.9960000  0 12                     
G21  19483939.432 8 102388802.76723       -78.536          34.000  
C30  21420089.761 4 111539982.89522       884.513          32.000  
C 3  35400200.970 9                      -774.658          30.000  
C10  36273097.009 9                      -760.301          14.000  
C 9  35608767.796 4 185424149.93522     -2140.772          32.000  
C 1  36331340.086 9                      -853.076          29.000  
C 7  35743716.555 9                      -660.038          16.000  
G 9  21951228.519 8 115354487.190 4     -2845.554          32.000  
G 8  20015969.462 9                     -2813.349          21.000  
C 2  36036791.431 8 187652998.29834      -802.030          29.000  
C27  20570087.473 4 107113809.277 2     -1999.009          32.000  
G27  22182817.535 9                     -3960.832          24.000  
> 2021  5 17  2 35  6.9960000  0 12                     
G21  19483953.231 4 102388882.31222       -80.434          34.000  
C30  21419919.673 2 111539098.69721       884.228          36.000  
C 3  35400349.868 9 184338879.32533      -788.427          34.000  
C 9  35609178.583 4 185426291.15922     -2141.527          35.000  
C 1  36331502.705 9 189187636.55735      -841.164          35.000  
C 7  35743843.955 9                      -661.732          18.000  
G 9  21951770.680 9                     -2843.714          27.000  
G 8  20016503.312 9                     -2798.472          19.000  
C 2  36036945.307 8 187653799.67923      -800.585          33.000  
C27  20570471.452 2 107115809.101 1     -2001.013          37.000  
C 4  37271000.576 9                      -832.469          33.000  
G27  22183568.575 9                     -3957.885          23.000  
> 2021  5 17  2 35  7.9960000  0 12                     
G21  19483968.168 9                       -82.260          25.000  
C30  21419750.380 9                       883.563          27.000  
C 3  35400500.939 8 184339666.38024      -784.847          34.000  
C10  36273389.043 9                      -760.301          12.000  
C 7  35743966.394 9                      -641.639          17.000  
G 9  21952313.290 9                     -2853.016          13.000  
G 8  20017036.094 9                     -2799.929          18.000  
C 2  36037099.820 9                      -815.837          28.000  
C27  20570855.514 4 107117809.124 2     -2000.257          36.000  
C 4  37271164.752 9                      -858.766          27.000  
G27  22184318.485 9                     -3947.789          22.000  
C28  24291369.039 9                     -3851.806          24.000  
> 2021  5 17  2 35  8.9960000  0 12                     
G21  19483982.778 9                       -73.625          24.000  
C30  21419579.193 9 111537337.71034       883.609          36.000  
C 3  35400654.610 9                      -787.069          33.000  
C10  36273534.853 9                      -760.301          11.000  
C 9  35610001.544 9                     -2141.720          34.000  
C 7  35744095.264 9                      -653.791          18.000  
G 9  21952856.162 9                     -2844.246          29.000  
G 8  20017571.937 9                     -2806.659          18.000  
C 2  36037253.321 9 187655403.34635      -800.096          32.000  
C27  20571241.905 9                     -1995.886          29.000  
G27  22185069.307 9                     -3955.287          20.000  
G 4  22643793.577 9                     -3689.061          14.000  
> 2021  5 17  2 35  9.9960000  0 11                     
G21  19484006.284 9                       -84.695          25.000  
C30  21419411.292 8 111536453.90622       882.858          37.000  
C 3  35400805.795 9                      -796.777          32.000  
C 9  35610414.660 9 185432741.88533     -2141.221          35.000  
C 7  35744223.545 9                      -652.501          20.000  
G 9  21953393.851 9 115365881.04634     -2842.781          30.000  
G 8  20018105.303 9                     -2792.767          18.000  
C 2  36037406.830 8 187656202.55834      -801.135          32.000  
C27  20571625.470 8 107121820.58333     -2000.914          39.000  
G27  22185822.999 9                     -3955.287          16.000  
G 4  22644495.368 9                     -3689.061          14.000  
> 2021  5 17  2 35 10.9960000  0 11                     
G 7  19938046.043 9                      1315.178          25.000  
G21  19484024.873 9                       -85.479          26.000  
C30  21419242.064 8 111535570.23124       884.060          27.000  
C 3  35400958.270 9                      -812.939          27.000  
C 9  35610828.073 8 185434883.18825     -2140.709          27.000  
C 7  35744348.824 9                      -644.259          18.000  
G 9  21953938.294 9                     -2844.437          22.000  
G 8  20018639.760 9                     -2806.847          17.000  
C27  20572008.668 8 107123821.54523     -2001.439          31.000  
G27  22186572.975 9                     -3955.287          11.000  
G 4  22645195.148 9                     -3689.061          14.000  
> 2021  5 17  2 35 11.9960000  0 11                     
G 7  19937793.809 9                      1315.178          31.000  
G21  19484038.863 9                       -84.687          26.000  
C30  21419072.007 8                       882.497          28.000  
C 3  35401109.847 9                      -788.916          28.000  
C10  36273969.424 9                      -748.333          14.000  
C 7  35744475.046 9                      -644.259          17.000  
G 9  21954475.852 9                     -2843.617          24.000  
G 8  20019175.115 9                     -2793.974          17.000  
C27  20572390.431 8 107125822.97123     -2000.989          28.000  
G 4  22645895.695 9                     -3689.061          13.000  
G30  22974746.440 9                      2509.129          27.000  
> 2021  5 17  2 35 12.9960000  0 10                     
G 7  19937541.173 9                      1324.200          31.000  
G21  19484055.197 9                       -87.755          26.000  
C30  21418900.655 9                       882.984          28.000  
C10  36274114.305 9                      -760.367          20.000  
C 7  35744598.947 9                      -644.259          15.000  
G 9  21955017.795 8                     -2842.858          26.000  
G 8  20019708.747 9                     -2801.749          16.000  
G16  23235038.469 9                     -2562.478          10.000  
C27  20572775.841 8 107127825.03625     -2002.591          32.000  
G 4  22646599.218 9                     -3689.061          11.000  
> 2021  5 17  2 35 13.9960000  0 11                     
G 7  19937289.554 9 104771163.52235      1326.071          32.000  
G21  19484070.296 9                       -91.113          25.000  
C30  21418732.962 8 111532921.50534       882.736          33.000  
C10  36274257.828 9                      -755.083          21.000  
C 9  35612055.988 9                     -2140.959          27.000  
C 7  35744724.200 9                      -644.259          13.000  
G 9  21955555.074 8                     -2843.244          27.000  
G 8  20020239.731 9                     -2801.749          14.000  
C 6  36618597.945 9                     -2348.686          13.000  
C27  20573161.198 8 107129826.68523     -2002.830          33.000  
G 4  22647300.359 9                     -3689.061          13.000  
> 2021  5 17  2 35 14.9960000  0 15                     
G 7  19937040.478 9                      1323.887          25.000  
G21  19484083.157 9 102389547.47334       -90.254          32.000  
C30  21418561.658 8 111532039.13423       881.924          34.000  
C 3  35401565.154 9                      -779.250          30.000  
C10  36274404.991 9                      -755.083          20.000  
C 9  35612465.493 9 185443430.36134     -2141.832          30.000  
C 2  36038176.603 9                      -821.016          29.000  
C 7  35744853.258 9                      -660.321          26.000  
G 9  21956099.992 8 115380083.91035     -2844.648          28.000  
G 1  20391195.059 9 107156452.79635      2217.448          29.000  
G 8  20020777.058 9                     -2814.494          19.000  
C 6  36619045.958 9                     -2348.686          13.000  
C27  20573546.782 4 107131825.53132     -2003.434          35.000  
G 4  22648001.758 9                     -3689.061          14.000  
G22  23859192.644 9                       758.462          10.000  
> 2021  5 17  2 35 15.9960000  0 13                     
G 7  19936786.892 8 104768522.16334      1321.378          34.000  
G21  19484099.219 8 102389637.27123       -89.262          32.000  
C30  21418392.897 8 111531157.13022       882.073          37.000  
C 3  35401711.221 9                      -787.574          34.000  
C10  36274553.819 9                      -767.111          20.000  
C 9  35612879.294 8 185445571.95524     -2141.942          34.000  
C 2  36038330.003 9                      -804.199          30.000  
C 7  35744984.706 9                      -666.285          29.000  
G 9  21956639.116 8 115382928.06425     -2844.729          28.000  
G 1  20390760.470 9 107154234.64224      2219.519          34.000  
G 8  20021323.071 9 105212762.05235     -2815.582          30.000  
C 6  36619491.331 9                     -2348.686          14.000  
C27  20573929.981 4 107133829.38922     -2004.867          37.000  
> 2021  5 17  2 35 16.9960000  0 12                     
G 7  19936535.238 8 104767200.76723      1319.677          29.000  
G21  19484120.657 8 102389726.57923       -89.687          31.000  
C30  21418224.568 8 111530274.83623       884.076          32.000  
C 3  35401862.903 9                      -787.695          28.000  
C10  36274698.377 9                      -741.966          21.000  
C 9  35613289.143 8 185447712.70724     -2140.330          32.000  
C 2  36038480.067 9                      -796.191          30.000  
C 7  35745117.729 9                      -666.156          28.000  
G 9  21957184.217 9                     -2839.455          19.000  
G 8  20021859.469 9 105215577.91125     -2815.410          30.000  
C 6  36619940.665 9                     -2333.793          14.000  
C27  20574312.760 4 107135833.89022     -2005.647          33.000  
> 2021  5 17  2 35 17.9960000  0  9                     
G21  19484138.448 9                       -89.210          23.000  
C 3  35402020.098 9                      -830.029          27.000  
C10  36274844.418 9                      -775.022          18.000  
C 2  36038646.467 9                      -933.106          27.000  
C 7  35745245.670 9                      -665.023          24.000  
G 9  21957724.297 9                     -2851.970          18.000  
G 8  20022400.430 9                     -2817.249          28.000  
C 6  36620393.093 9                     -2355.399          12.000  
C27  20574701.381 9                     -2010.406          26.000  
> 2021  5 17  2 35 18.9960000  0  8                     
G21  19484152.587 9                       -92.354          29.000  
C30  21417885.104 9                       883.318          25.000  
C10  36274991.636 9                      -775.022          16.000  
C 7  35745375.726 9                      -658.952          21.000  
G 9  21958266.619 9                     -2842.916          20.000  
G 8  20022935.685 9                     -2820.004          25.000  
C 6  36620844.844 9                     -2355.399          11.000  
C27  20575085.355 9                     -2008.666          25.000  
> 2021  5 17  2 35 19.9960000  0 10                     
G 7  19935786.519 9                      1317.072          30.000  
G21  19484177.379 9                       -94.307          21.000  
C30  21417716.867 9 111527633.54535       881.810          32.000  
C10  36275138.650 9                      -743.772          14.000  
C 9  35614523.646 9                     -2139.984          24.000  
C 7  35745503.662 9                      -671.799          20.000  
G 9  21958803.092 9                     -2845.561          23.000  
G 8  20023470.761 9 105224048.96635     -2819.249          28.000  
C 6  36621300.216 9                     -2377.128          10.000  
C27  20575470.638 9 107141843.36835     -2008.575          31.000  
> 2021  5 17  2 35 20.9960000  0 11                     
G 7  19935532.775 9 104761946.03933      1320.391          31.000  
G21  19484198.782 9                       -95.359          20.000  
C30  21417545.733 8 111526751.28223       883.210          36.000  
C 3  35402470.345 9                      -789.250          35.000  
C10  36275285.088 9                      -752.829          26.000  
C 9  35614934.363 9 185456277.91133     -2138.217          35.000  
C 7  35745629.295 9                      -666.046          26.000  
G 9  21959342.757 9                     -2841.409          26.000  
G 8  20024003.774 8 105226867.62323     -2816.861          31.000  
C 6  36621767.891 9                     -2423.515          14.000  
C27  20575855.167 8 107143850.51122     -2006.407          38.000  
> 2021  5 17  2 35 21.9960000  0 11                     
G21  19484207.873 9                       -91.130          30.000  
C30  21417376.186 4 111525868.69822       882.394          36.000  
C 3  35402621.280 9 184350707.15735      -785.530          33.000  
C10  36275425.479 9                      -760.441          28.000  
C 9  35615342.571 8 185458402.70132     -2139.339          35.000  
C 2  36039241.934 9                      -791.711          31.000  
C 7  35745759.644 9 186137506.99634      -666.402          33.000  
G 9  21959885.406 9                     -2844.550          25.000  
G 8  20024540.141 8 105229685.45523     -2818.265          32.000  
C 6  36622230.513 9                     -2404.228          15.000  
C27  20576240.843 4 107145857.15922     -2007.472          37.000  
> 2021  5 17  2 35 22.9960000  0 11                     
G21  19484225.315 9 102390294.75034       -91.842          33.000  
C30  21417204.690 8 111524987.24724       882.815          34.000  
C 3  35402772.700 9                      -790.088          28.000  
C10  36275570.796 9                      -754.711          14.000  
C 9  35615755.941 8 185460542.35725     -2137.820          27.000  
C 2  36039397.259 9                      -791.895          30.000  
C 7  35745886.913 8 186138172.68024      -663.788          31.000  
G 9  21960426.529 9                     -2846.203          26.000  
G 8  20025076.835 8 105232503.00823     -2816.352          32.000  
C 6  36622691.439 9                     -2404.228          15.000  
C27  20576627.693 4 107147863.89621     -2006.292          37.000  
> 2021  5 17  2 35 23.9960000  0 10                     
G21  19484244.017 9                       -92.375          23.000  
C30  21417037.386 9                       878.951          34.000  
C10  36275713.403 9                      -723.461          14.000  
C 9  35616168.220 9                     -2127.478          26.000  
C 2  36039551.850 9                      -798.828          30.000  
C 7  35746014.086 8 186138837.91224      -666.011          34.000  
G 9  21960970.797 9                     -2844.677          26.000  
G 8  20025614.250 8 105235320.04923     -2816.794          32.000  
C 6  36623152.714 9                     -2383.354          14.000  
C27  20577012.902 4 107149870.73622     -2006.323          39.000  
> 2021  5 17  2 35 24.9960000  0 10                     
G21  19484269.106 9                       -90.676          28.000  
C30  21416869.916 8 111523224.17835       876.913          40.000  
C10  36275856.063 9                      -763.666          24.000  
C 9  35616578.095 9                     -2142.468          31.000  
C 2  36039708.435 9 187668187.45635      -800.353          33.000  
C 7  35746141.786 8 186139502.22524      -663.565          33.000  
G 9  21961509.756 9                     -2849.071          31.000  
G 8  20026147.821 8 105238136.63224     -2816.046          27.000  
C 6  36623607.894 9                     -2364.066          14.000  
C27  20577400.310 8 107151877.84425     -2004.971          39.000  
> 2021  5 17  2 35 25.9960000  0 12                     
G 7  19934280.369 9                      1320.763          36.000  
G21  19484290.640 9                       -91.948          17.000  
C30  21416702.507 4 111522349.18722       874.059          36.000  
C 3  35403226.039 9                      -803.094          35.000  
C10  36276004.914 9                      -753.589          26.000  
C 9  35616990.452 9 185466983.03633     -2148.069          35.000  
C 2  36039860.754 8 187668989.63623      -803.013          33.000  
C 7  35746269.299 8 186140163.68124      -657.668          27.000  
G 9  21962053.382 9 115411369.00634     -2852.185          34.000  
G 8  20026684.834 8 105240950.67125     -2813.968          28.000  
C 6  36624061.093 9                     -2364.066          13.000  
C27  20577783.761 8 107153884.26122     -2006.397          40.000  
> 2021  5 17  2 35 26.9960000  0 12                     
G 7  19934022.031 9 104753991.94734      1324.953          36.000  
G21  19484312.274 9                       -91.948          15.000  
C30  21416535.299 4 111521477.58122       870.269          38.000  
C 3  35403374.187 9                      -794.250          35.000  
C10  36276146.653 9                      -744.965          31.000  
C 9  35617404.781 8 185469132.99022     -2151.192          35.000  
C 2  36040013.849 8 187669794.46323      -805.195          33.000  
C 7  35746399.692 9                      -667.795          27.000  
G 9  21962594.513 9                     -2857.286          22.000  
G 8  20027222.545 9                     -2821.385          27.000  
C 6  36624517.495 9                     -2364.066          12.000  
C27  20578169.441 4 107155889.089 2     -2003.788          40.000  
> 2021  5 17  2 35 27.9960000  0 13                     
G 7  19933772.223 8 104752665.35722      1327.477          35.000  
G21  19484317.500 9                      -105.536          33.000  
C30  21416366.927 8 111520609.10324       866.018          30.000  
C 3  35403529.726 9 184355438.22034      -799.924          36.000  
C10  36276283.057 9 188900094.13434      -739.280          32.000  
C 9  35617818.535 9                     -2154.499          27.000  
C 2  36040167.712 9                      -808.008          28.000  
C 7  35746529.822 9                      -664.678          27.000  
G 9  21963144.522 9                     -2862.631          22.000  
G 8  20027760.295 9                     -2818.732          26.000  
C 6  36624969.801 9                     -2364.066          11.000  
G27  22199380.850 9                     -3940.454          28.000  
C27  20578552.539 4 107157892.035 2     -2001.392          37.000  
> 2021  5 17  2 35 28.9960000  0 14                     
G 7  19933519.343 4 104751336.38122      1329.598          35.000  
G21  19484337.428 9 102390887.29033      -110.044          33.000  
C30  21416202.677 9                       870.752          32.000  
C 3  35403677.961 9                      -797.705          29.000  
C10  36276423.496 8 188900832.78423      -736.730          33.000  
C 9  35618230.469 9                     -2159.979          27.000  
C 2  36040320.999 9                      -819.971          28.000  
C 7  35746651.743 9                      -648.468          25.000  
G 9  21963685.745 9                     -2863.434          30.000  
G 8  20028292.322 9                     -2804.782          25.000  
C 1  36335064.831 9                      -849.867          34.000  
C 6  36625422.402 9                     -2364.066          12.000  
G27  22200127.898 9                     -3940.454          18.000  
C27  20578937.988 4 107159893.369 1     -1999.577          36.000  
> 2021  5 17  2 35 29.9960000  0 15                     
G 7  19933265.612 4 104750006.70922      1329.590          35.000  
G21  19484354.233 9                      -116.261          28.000  
C30  21416034.443 9 111518879.68234       859.110          39.000  
C 3  35403844.479 9                      -907.178          29.000  
C10  36276566.977 8 188901569.64023      -736.785          33.000  
C 9  35618645.884 9                     -2163.475          33.000  
C 2  36040478.108 9 187672195.39635      -816.197          32.000  
C 7  35746768.271 9 186142770.98235      -644.738          32.000  
G 9  21964229.987 9 115422814.12034     -2869.594          33.000  
G 8  20028820.575 9 105252162.30235     -2797.922          32.000  
C 1  36335233.758 9                      -857.008          33.000  
C 6  36625876.226 9                     -2364.066          12.000  
G27  22200880.653 9                     -3940.454          16.000  
C27  20579321.269 4 107161893.288 2     -1999.392          38.000  
C28  24307662.137 9                     -3843.775          11.000  
> 2021  5 17  2 35 30.9960000  0 14                     
G 7  19933010.560 8 104748678.42822      1326.862          32.000  
G21  19484379.243 9                      -106.844          33.000  
C30  21415871.498 8 111518021.32322       856.422          39.000  
C10  36276707.695 8 188902307.34024      -739.500          28.000  
C 9  35619061.230 8 185477767.66133     -2164.060          34.000  
C 2  36040635.243 8 187673012.65524      -818.771          32.000  
C 7  35746894.414 9                      -644.910          31.000  
G 9  21964780.258 9                     -2884.179          31.000  
G 8  20029351.441 8 105254959.96223     -2798.286          34.000  
C 1  36335401.764 9                      -883.594          28.000  
C 6  36626330.211 9                     -2364.066          12.000  
G27  22201627.256 9                     -3940.454          14.000  
C27  20579704.999 4 107163892.138 1     -1998.996          38.000  
C28  24308400.805 9                     -3843.775          10.000  
> 2021  5 17  2 35 31.9960000  0 14                     
G 7  19932757.056 9                      1315.536          27.000  
G21  19484396.266 9 102391209.67034      -105.570          32.000  
C30  21415708.399 4 111517166.09822       852.863          39.000  
C 3  35404148.973 9                      -794.547          34.000  
C10  36276856.388 9                      -732.457          27.000  
C 9  35619477.200 8 185479933.77523     -2167.023          33.000  
C 2  36040792.849 9 187673834.64335      -822.210          32.000  
C 7  35747018.354 9 186144072.59435      -642.046          31.000  
G 9  21965330.821 9                     -2883.400          24.000  
G 8  20029887.503 8 105257756.77723     -2797.749          33.000  
C 1  36335574.325 9                      -958.496          29.000  
C 6  36626783.956 9                     -2364.066          10.000  
G27  22202378.976 9                     -3940.454          12.000  
C27  20580089.554 4 107165890.277 1     -1998.396          38.000  
> 2021  5 17  2 35 32.9960000  0 13                     
G 7  19932507.488 9                      1320.451          27.000  
G21  19484417.472 8 102391312.93723      -101.098          31.000  
C30  21415541.523 4 111516314.61222       849.773          36.000  
C 3  35404305.924 9 184359479.51735      -804.303          34.000  
C10  36276992.788 9                      -742.564          26.000  
C 9  35619893.091 8 185482102.83122     -2171.070          33.000  
C 2  36040950.978 9                      -826.855          31.000  
C 7  35747140.685 9                      -641.812          25.000  
G 9  21965903.480 9                     -2894.852          22.000  
G 8  20030414.731 9                     -2799.037          27.000  
C 6  36627238.111 9                     -2364.066          11.000  
C27  20580473.223 4 107167887.518 2     -1996.665          36.000  
C16  37061306.614 9 192987917.52735     -2454.876          33.000  
> 2021  5 17  2 35 33.9960000  0 15                     
G 7  19932254.739 9                      1317.868          28.000  
G21  19484433.718 8 102391412.61223       -97.921          32.000  
C30  21415379.938 4 111515467.02421       846.146          37.000  
C 3  35404458.605 8 184360284.54722      -804.419          34.000  
C10  36277137.778 9                      -747.484          27.000  
C 9  35620310.692 8 185484274.73023     -2174.236          32.000  
C 2  36041110.080 9                      -825.353          30.000  
C 7  35747266.056 9                      -641.305          23.000  
G 9  21966464.365 9                     -2895.185          22.000  
G 8  20030949.157 9                     -2792.737          25.000  
C 1  36335890.148 9                      -840.562          30.000  
C 6  36627691.943 9                     -2364.066          10.000  
G27  22203877.077 9                     -3940.454          11.000  
C27  20580855.505 4 107169883.621 3     -1994.557          29.000  
C16  37061767.117 8 192990373.10223     -2455.051          33.000  
> 2021  5 17  2 35 34.9960000  0 16                     
G 7  19932004.782 9                      1314.913          28.000  
G21  19484453.629 8 102391510.26123       -97.103          32.000  
C30  21415217.127 2 111514622.80121       843.162          38.000  
C 3  35404611.547 4 184361089.74522      -805.464          35.000  
C10  36277281.825 8 188905293.61034      -748.534          29.000  
C 9  35620728.956 4 185486449.17322     -2175.271          33.000  
C 2  36041270.422 8 187676318.94533      -833.118          32.000  
C 7  35747380.870 9                      -641.872          26.000  
G 9  21967014.750 9                     -2888.659          22.000  
G 1  20382788.469 9                      2195.469          23.000  
G 8  20031488.861 9                     -2810.318          24.000  
C 1  36336044.604 9                      -831.414          32.000  
G27  22204625.447 9                     -3940.454          11.000  
C27  20581243.013 4 107171879.482 2     -1996.161          35.000  
C16  37062237.217 4 192992829.48622     -2456.333          35.000  
G30  22963847.287 9                      2477.595          11.000  
> 2021  5 17  2 35 35.9960000  0 13                     
G 7  19931753.184 8 104742077.70934      1313.508          29.000  
G21  19484476.685 8 102391608.54222       -98.268          33.000  
C30  21415056.420 2 111513780.18521       841.923          38.000  
C 3  35404766.732 4 184361895.52321      -806.608          35.000  
C10  36277426.662 8 188906043.84823      -749.958          30.000  
C 9  35621146.104 4 185488624.85222     -2175.648          34.000  
C 2  36041430.986 4 187677152.60122      -833.058          33.000  
C 7  35747501.219 9                      -641.710          26.000  
G 9  21967563.808 9                     -2896.258          22.000  
G 1  20382374.354 9                      2196.484          26.000  
C 1  36336206.922 9 189212121.94733      -832.605          32.000  
C16  37062708.172 4 192995286.69622     -2457.097          35.000  
C28  24312087.844 9                     -3795.068          16.000  
> 2021  5 17  2 35 36.9960000  0 14                     
G 7  19931508.266 8 104740764.08924      1313.635          29.000  
G21  19484491.173 8 102391707.28522       -98.982          33.000  
C30  21414894.447 2 111512937.81221       842.395          37.000  
C 3  35404922.829 4 184362701.09921      -805.575          35.000  
C10  36277571.132 8 188906793.82823      -749.970          30.000  
C 9  35621563.412 4 185490800.56422     -2175.812          33.000  
C 2  36041591.467 4 187677986.17222      -833.974          33.000  
C 7  35747622.799 8 186147230.32035      -641.942          26.000  
G 9  21968114.227 9                     -2893.696          23.000  
G 1  20381953.891 9                      2194.243          26.000  
C27  20582016.167 9                     -1996.239          35.000  
C 1  36336366.975 8 189212955.82223      -834.222          32.000  
C16  37063180.733 4 192997743.82022     -2457.625          34.000  
C28  24312823.558 9                     -3808.008          18.000  
> 2021  5 17  2 35 37.9960000  0 14                     
G 7  19931257.790 4 104739451.12123      1312.077          29.000  
G21  19484508.130 8 102391806.78622       -99.809          33.000  
C30  21414733.185 2 111512096.03021       840.904          38.000  
C 3  35405078.467 2 184363506.87621      -806.544          35.000  
C10  36277713.766 8 188907543.85323      -749.274          30.000  
C 9  35621981.856 2 185492976.53421     -2176.634          34.000  
C 2  36041751.978 4 187678819.86822      -834.137          34.000  
C 7  35747744.816 8 186147872.48324      -642.532          26.000  
G 9  21968663.005 9                     -2899.539          24.000  
G 1  20381535.849 9 107105693.23535      2192.281          27.000  
C 1  36336527.818 9                      -830.125          32.000  
G27  22206877.908 9                     -3925.317          12.000  
C16  37063652.364 4 193000201.11121     -2458.100          35.000  
C13  38179053.805 9                       754.346          31.000  
> 2021  5 17  2 35 38.9960000  0 16                     
G 7  19931010.939 4 104738138.70423      1312.212          29.000  
G21  19484529.647 4 102391907.18022      -100.740          34.000  
C30  21414571.840 2 111511254.87121       840.703          38.000  
C 3  35405232.753 2 184364305.84031      -806.094          35.000  
C10  36277860.958 8 188908294.02623      -749.272          31.000  
C 9  35622399.688 2 185495152.31911     -2176.377          34.000  
C 2  36041912.594 4 187679664.72832      -833.383          33.000  
C 7  35747868.817 8 186148514.84925      -642.777          26.000  
G 9  21969213.695 9                     -2888.863          25.000  
G 1  20381126.253 9 107103500.81425      2191.874          27.000  
C27  20582783.514 9                     -1997.618          35.000  
C 1  36336686.619 9                      -833.828          32.000  
G 8  20033609.512 9                     -2796.566          25.000  
G27  22207624.499 9                     -3910.425          14.000  
C16  37064124.729 4 193002658.64021     -2457.259          35.000  
C13  38178911.712 9 198807580.23434       750.640          31.000  
> 2021  5 17  2 35 39.9960000  0 16                     
G 7  19930764.625 4 104736826.44723      1312.387          29.000  
G21  19484549.326 4 102392007.78322      -100.090          34.000  
C30  21414410.487 1 111510413.728 1       841.595          38.000  
C 3  35405387.358 2 184365111.41531      -804.799          36.000  
C10  36278000.516 8 188909043.71223      -748.369          31.000  
C 9  35622817.821 2 185497328.387 1     -2175.656          34.000  
C 2  36042073.071 4 187680501.24332      -832.742          33.000  
C 7  35747994.031 4 186149156.56324      -640.637          26.000  
G 9  21969764.494 9                     -2887.309          24.000  
G 1  20380709.908 8 107101308.34824      2192.394          28.000  
C27  20583163.890 9 107181921.64732     -1997.640          36.000  
C 1  36336846.359 9                      -823.291          32.000  
G 8  20034141.822 9                     -2795.412          26.000  
G27  22208370.303 9                     -3910.425          16.000  
C16  37064596.644 2 193005115.876 1     -2457.035          35.000  
C13  38178769.100 9 198806830.33123       750.371          30.000  
> 2021  5 17  2 35 40.9960000  0 15                     
G 7  19930517.238 4 104735514.19223      1311.421          29.000  
G21  19484566.628 4 102392108.64322      -101.409          34.000  
C30  21414249.151 1 111509572.638 1       840.383          38.000  
C 3  35405541.757 2 184365916.66521      -806.100          36.000  
C10  36278143.665 8 188909793.01923      -750.224          30.000  
C 9  35623235.907 2 185499504.162 1     -2176.688          34.000  
C 2  36042233.259 4 187681335.34922      -832.839          33.000  
C 7  35748118.054 4 186149798.04124      -641.854          27.000  
G 9  21970316.750 9                     -2894.719          25.000  
G 1  20380293.542 4 107099115.81023      2192.246          27.000  
C27  20583548.261 9                     -1999.046          35.000  
G27  22209119.450 9                     -3910.425          18.000  
C16  37065067.555 2 193007572.762 1     -2457.375          35.000  
C13  38178623.125 8 198806079.99523       749.622          30.000  
G30  22961015.165 9                      2477.595          11.000  
> 2021  5 17  2 35 41.9960000  0 15                     
G 7  19930262.329 8 104734203.12123      1309.302          30.000  
G21  19484586.477 4 102392210.84022      -102.587          33.000  
C30  21414087.571 1 111508732.651 1       839.417          38.000  
C 3  35405696.475 2 184366722.55121      -805.978          35.000  
C10  36278285.622 8 188910542.82323      -750.048          30.000  
C 9  35623653.800 2 185501680.747 1     -2176.739          34.000  
C 2  36042393.387 4 187682169.17722      -833.930          34.000  
C 7  35748241.671 4 186150440.03424      -641.959          27.000  
G 9  21970870.571 9                     -2898.910          24.000  
G 1  20379880.530 4 107096924.46523      2190.628          28.000  
C27  20583934.230 9                     -1999.804          35.000  
G27  22209864.147 9                     -3910.425          17.000  
C16  37065539.662 2 193010030.357 1     -2457.741          35.000  
C13  38178476.935 8 198805330.31523       749.767          30.000  
G30  22960545.292 9                      2477.595          10.000  
> 2021  5 17  2 35 42.9960000  0 16                     
G 7  19930014.030 8 104732892.41924      1311.009          30.000  
G21  19484606.445 4 102392313.710 2      -102.894          33.000  
C30  21413925.968 1 111507893.121 1       839.432          38.000  
C 3  35405851.569 2 184367528.54521      -806.315          35.000  
C10  36278432.680 8 188911292.69623      -750.110          30.000  
C 9  35624072.370 4 185503857.505 2     -2175.813          34.000  
C 2  36042553.506 4 187683003.07832      -833.573          34.000  
C 7  35748363.374 4 186151082.00424      -641.469          26.000  
G 9  21971423.010 9                     -2907.027          24.000  
G 1  20379464.177 4 107094733.46523      2190.761          28.000  
C27  20584316.049 9 107187915.34332     -1999.784          36.000  
G 8  20035756.604 9                     -2801.262          26.000  
C 1  36337325.956 9                      -824.273          33.000  
G27  22210607.679 9                     -3910.425          16.000  
C16  37066011.773 2 193012488.134 1     -2458.357          35.000  
C13  38178332.339 8 198804580.67523       750.952          30.000  
> 2021  5 17  2 35 43.9960000  0 16                     
G 7  19929761.294 4 104731581.94923      1310.947          29.000  
G21  19484627.904 4 102392416.950 2      -103.340          34.000  
C30  21413764.912 2 111507053.707 1       839.478          37.000  
C 3  35406006.356 4 184368334.19732      -805.552          35.000  
C10  36278578.629 8 188912042.13423      -748.881          30.000  
C 9  35624490.525 4 185506034.181 2     -2177.290          34.000  
C 2  36042713.782 4 187683836.64022      -833.180          34.000  
C 7  35748488.483 4 186151723.61524      -641.006          27.000  
G 9  21971977.064 9                     -2894.483          23.000  
G 1  20379046.794 4 107092542.51123      2191.268          28.000  
C27  20584696.656 8 107189915.18321     -1999.511          36.000  
G 8  20036282.048 9                     -2801.262          27.000  
C 1  36337486.123 9                      -836.291          32.000  
G27  22211352.293 9                     -3910.425          17.000  
C16  37066483.575 2 193014945.588 1     -2457.082          35.000  
C13  38178186.791 8 198803830.79123       749.756          30.000  
> 2021  5 17  2 35 44.9960000  0 16                     
G 7  19929516.817 4 104730271.62423      1310.081          29.000  
G21  19484647.937 4 102392520.476 2      -103.559          34.000  
C30  21413603.833 2 111506214.416 1       839.177          38.000  
C 3  35406160.747 4 184369138.49632      -804.653          35.000  
C10  36278720.914 8 188912791.153 3      -749.443          30.000  
C 9  35624908.759 2 185508210.548 1     -2175.748          35.000  
C 2  36042874.062 4 187684671.91032      -833.103          33.000  
C 7  35748610.277 4 186152364.736 4      -640.166          27.000  
G 9  21972530.087 9                     -2883.211          22.000  
G 1  20378630.178 4 107090351.57423      2191.261          28.000  
C27  20585078.938 4 107191915.15621     -2000.112          35.000  
G 8  20036804.817 9                     -2796.010          27.000  
C 1  36337647.441 8 189219627.28933      -832.741          33.000  
G27  22212097.168 9                     -3910.425          16.000  
C16  37066955.577 2 193017402.804 1     -2456.794          35.000  
C13  38178045.043 8 198803080.54623       750.292          30.000  
> 2021  5 17  2 35 45.9960000  0 16                     
G 7  19929266.777 8                      1311.943          29.000  
G21  19484668.027 2 102392624.590 1      -105.196          34.000  
C30  21413442.698 1 111505375.470 1       838.234          38.000  
C 3  35406315.251 2 184369943.82521      -805.313          35.000  
C10  36278862.596 8 188913540.106 3      -749.198          30.000  
C 9  35625326.992 4 185510387.041 2     -2176.318          35.000  
C 2  36043034.146 4 187685505.12732      -833.968          34.000  
C 7  35748734.745 4 186153005.861 4      -640.646          27.000  
G 9  21973085.030 9                     -2892.243          21.000  
G 1  20378216.604 4 107088161.00023      2190.187          28.000  
C27  20585462.467 4 107193915.52521     -2001.449          36.000  
G 8  20037338.820 9 105296917.56535     -2798.567          27.000  
C 1  36337805.362 8 189220460.81922      -834.072          33.000  
G27  22212838.741 9                     -3910.425          15.000  
C16  37067427.483 2 193019859.988 1     -2457.334          35.000  
C13  38177899.377 8 198802330.195 3       750.595          31.000  
> 2021  5 17  2 35 46.9960000  0 16                     
G 7  19929018.316 8 104727697.27735      1309.114          29.000  
G21  19484688.199 2 102392729.498 1      -105.261          34.000  
C30  21413281.641 2 111504537.094 1       838.485          37.000  
C 3  35406469.939 4 184370749.26322      -805.336          35.000  
C10  36279006.478 8 188914289.104 3      -749.467          30.000  
C 9  35625745.156 2 185512563.843 2     -2176.607          35.000  
C 2  36043194.452 4 187686338.49622      -833.103          34.000  
C 7  35748856.421 4 186153647.104 4      -641.591          26.000  
G 9  21973635.798 9                     -2898.684          19.000  
G 1  20377800.992 4 107085970.99323      2189.003          28.000  
C27  20585847.838 4 107195916.39121     -2000.797          36.000  
G 8  20037874.001 9 105299715.88625     -2798.356          27.000  
C 1  36337968.238 8 189221294.44423      -833.152          32.000  
G27  22213579.874 9                     -3910.425          13.000  
C16  37067899.407 2 193022317.403 1     -2456.759          35.000  
C13  38177755.840 8 198801580.055 4       751.047          31.000  
> 2021  5 17  2 35 47.9960000  0 16                     
G 7  19928763.596 8 104726388.39024      1308.257          28.000  
G21  19484708.533 4 102392835.059 2      -106.428          34.000  
C30  21413120.663 2 111503699.132 1       837.964          37.000  
C 3  35406624.443 4 184371552.74132      -805.220          35.000  
C10  36279148.278 8 188915038.013 3      -749.202          29.000  
C 9  35626163.224 2 185514740.767 1     -2177.133          35.000  
C 2  36043354.715 4 187687174.85732      -833.296          33.000  
C 7  35748978.232 4 186154288.177 4      -641.350          26.000  
G 9  21974186.122 9                     -2898.684          16.000  
G 1  20377385.149 4 107083781.24024      2189.956          27.000  
C27  20586231.834 2 107197917.71721     -2001.481          36.000  
G 8  20038405.299 8 105302514.44224     -2799.180          27.000  
C 1  36338125.721 8 189222128.15623      -833.871          32.000  
G27  22214321.818 9                     -3910.425          11.000  
C16  37068371.706 4 193024774.914 2     -2457.904          35.000  
C13  38177614.485 8 198800829.885 3       750.671          30.000  
> 2021  5 17  2 35 48.9960000  0 15                     
G 7  19928514.660 4 104725079.81523      1309.292          28.000  
G21  19484728.793 2 102392941.198 1      -106.626          34.000  
C30  21412959.946 2 111502861.569 1       837.507          37.000  
C 3  35406779.070 4 184372358.18632      -804.919          35.000  
C10  36279293.830 8 188915786.845 3      -749.283          29.000  
C 9  35626581.458 2 185516917.787 1     -2176.797          34.000  
C 2  36043515.013 4 187688009.22032      -833.573          34.000  
C 7  35749100.506 4 186154929.137 5      -640.713          26.000  
G 9  21974740.380 9                     -2898.684          14.000  
G 1  20376966.130 4 107081591.89524      2189.357          27.000  
C27  20586616.328 2 107199919.45521     -2002.009          36.000  
G 8  20038938.682 8 105305313.11824     -2798.617          27.000  
C 1  36338286.399 4 189222961.78722      -833.870          32.000  
C16  37068844.018 4 193027232.402 2     -2457.623          35.000  
C13  38177469.443 8 198800079.692 3       750.193          31.000  
> 2021  5 17  2 35 49.9960000  0 15                     
G 7  19928263.760 4 104723771.61223      1307.348          28.000  
G21  19484749.415 4 102393047.734 2      -106.361          34.000  
C30  21412798.985 1 111502024.193 1       837.038          38.000  
C 3  35406933.692 2 184373163.39121      -804.823          35.000  
C10  36279438.248 8 188916535.252 3      -748.291          30.000  
C 9  35626999.456 2 185519094.680 1     -2176.729          35.000  
C 2  36043674.983 4 187688842.33022      -833.418          34.000  
C 7  35749223.451 4 186155569.821 4      -640.769          26.000  
G 9  21975289.843 9                     -2898.684          13.000  
G 1  20376545.658 4 107079402.66824      2189.263          27.000  
C27  20587000.691 2 107201921.36121     -2002.053          36.000  
G 8  20039476.847 8 105308111.77524     -2798.555          27.000  
C 1  36338447.098 4 189223795.23922      -833.754          32.000  
C16  37069316.011 2 193029689.722 1     -2457.165          35.000  
C13  38177322.525 8 198799329.256 2       750.237          31.000  
> 2021  5 17  2 35 50.9960000  0 15                     
G 7  19928010.837 4 104722463.40524      1308.136          27.000  
G21  19484769.670 4 102393154.610 2      -107.507          34.000  
C30  21412637.916 1 111501186.883 1       837.275          38.000  
C 3  35407087.978 2 184373968.28021      -804.771          35.000  
C10  36279580.446 8 188917283.375 3      -748.375          30.000  
C 9  35627417.633 2 185521271.407 1     -2176.777          35.000  
C 2  36043835.207 4 187689675.10422      -832.629          33.000  
C 7  35749346.371 4 186156210.046 4      -639.792          27.000  
G 9  21975842.138 9                     -2898.684          11.000  
G 1  20376126.626 4 107077213.48024      2188.780          26.000  
C27  20587385.342 2 107203923.38521     -2002.598          36.000  
G 8  20040000.170 4 105310910.38024     -2798.239          27.000  
C 1  36338607.208 4 189224628.28622      -832.368          32.000  
C16  37069787.843 2 193032146.742 1     -2456.750          35.000  
C13  38177179.185 8 198798578.462 3       750.647          31.000  
> 2021  5 17  2 35 51.9960000  0 14                     
G 7  19927762.141 4 104721155.74024      1307.532          26.000  
G21  19484790.178 4 102393262.171 2      -107.818          33.000  
C30  21412477.160 1 111500350.119 1       836.121          38.000  
C 3  35407242.194 2 184374773.27921      -805.492          35.000  
C10  36279721.260 8 188918031.473 3      -748.659          30.000  
C 9  35627835.915 2 185523448.295 1     -2177.010          35.000  
C 2  36043995.286 4 187690510.01732      -833.691          34.000  
C 7  35749471.065 4 186156850.366 4      -640.406          27.000  
G 1  20375705.749 4 107075024.77224      2188.726          25.000  
C27  20587769.962 2 107205925.37011     -2002.883          37.000  
G 8  20040531.730 4 105313709.36024     -2799.083          26.000  
C 1  36338767.231 4 189225461.50122      -833.511          32.000  
C16  37070259.649 2 193034603.942 1     -2457.701          35.000  
C13  38177036.171 8 198797827.682 3       752.222          31.000  
> 2021  5 17  2 35 52.9960000  0 14                     
G 7  19927513.514 4 104719848.83224      1306.905          26.000  
G21  19484810.512 4 102393370.695 2      -109.069          33.000  
C30  21412316.605 1 111499514.040 1       835.196          38.000  
C 3  35407396.990 4 184375578.52322      -805.525          35.000  
C10  36279867.707 8 188918779.744 3      -748.562          30.000  
C 9  35628253.983 4 185525625.608 2     -2177.469          34.000  
C 2  36044155.257 4 187691343.15922      -833.430          33.000  
C 7  35749593.479 4 186157490.805 3      -639.948          27.000  
G 1  20375289.910 4 107072836.69224      2187.606          25.000  
C27  20588154.752 2 107207928.562 1     -2003.549          36.000  
G 8  20041064.263 4 105316508.78724     -2799.146          26.000  
C 1  36338927.607 4 189226294.97322      -833.823          32.000  
C16  37070731.625 2 193037061.444 1     -2457.453          35.000  
C13  38176889.219 8 198797077.355 3       749.878          31.000  
> 2021  5 17  2 35 53.9960000  0 15                     
G 7  19927264.718 4 104718542.30623      1305.825          26.000  
G21  19484831.186 4 102393479.746 2      -109.696          33.000  
C30  21412156.276 2 111498678.246 1       835.545          38.000  
C 3  35407551.617 2 184376383.69321      -805.165          35.000  
C10  36280010.358 8 188919527.823 3      -747.700          30.000  
C 9  35628672.300 4 185527802.997 2     -2177.794          34.000  
C 2  36044315.297 4 187692177.21632      -833.055          33.000  
C 7  35749714.540 4 186158131.147 3      -640.195          26.000  
G 9  21977498.465 9                     -2898.684          11.000  
G 1  20374873.500 4 107070648.86925      2187.473          25.000  
C27  20588539.543 2 107209932.120 1     -2003.953          36.000  
G 8  20041598.257 4 105319308.39524     -2800.064          26.000  
C 1  36339087.569 4 189227128.34922      -833.739          33.000  
C16  37071203.641 2 193039518.925 1     -2457.809          35.000  
C13  38176748.592 8 198796326.802 3       749.937          31.000  
> 2021  5 17  2 35 54.9960000  0 15                     
G 7  19927015.996 4 104717235.67414      1305.920          25.000  
G21  19484852.092 4 102393589.406 2      -110.063          34.000  
C30  21411995.874 1 111497842.863 1       835.530          38.000  
C 3  35407706.278 2 184377188.85321      -805.305          35.000  
C10  36280160.452 8 188920275.818 3      -748.094          30.000  
C 9  35629090.498 4 185529980.469 2     -2177.958          34.000  
C 2  36044475.198 4 187693010.28622      -832.936          34.000  
C 7  35749838.235 4 186158771.393 4      -640.306          27.000  
G 9  21978051.925 9                     -2894.390          13.000  
G 1  20374458.538 9                      2186.351          24.000  
C27  20588924.490 2 107211936.068 1     -2004.375          37.000  
G 8  20042131.435 4 105322108.16324     -2799.252          25.000  
C 1  36339247.544 4 189227961.74622      -833.713          33.000  
C16  37071675.542 2 193041976.421 1     -2457.296          35.000  
C13  38176600.963 8 198795576.186 3       751.423          31.000  
> 2021  5 17  2 35 55.9960000  0 15                     
G 7  19926767.910 4 104715929.717 4      1305.765          25.000  
G21  19484873.119 4 102393699.456 2      -110.324          33.000  
C30  21411835.441 1 111497007.701 1       835.013          38.000  
C 3  35407860.822 2 184377990.80731      -805.083          35.000  
C10  36280300.752 8 188921023.554 4      -748.122          30.000  
C 9  35629508.531 4 185532157.809 2     -2177.354          34.000  
C 2  36044634.972 4 187693841.12732      -832.597          33.000  
C 7  35749961.936 4 186159411.343 3      -640.468          27.000  
G 9  21978606.039 9                     -2894.390          14.000  
G 1  20374042.355 9                      2187.488          24.000  
C27  20589309.481 1 107213940.221 1     -2004.627          37.000  
G 8  20042665.364 8                     -2800.065          25.000  
C 1  36339407.566 4 189228794.90523      -832.948          33.000  
C16  37072147.414 2 193044433.774 1     -2457.480          35.000  
C13  38176458.892 8 198794825.464 3       750.804          30.000  
> 2021  5 17  2 35 56.9960000  0 15                     
G 7  19926517.984 4 104714624.379 4      1305.100          26.000  
G21  19484894.299 4 102393810.321 2      -111.577          33.000  
C30  21411675.161 1 111496173.057 1       834.443          38.000  
C 3  35408015.252 2 184378795.84821      -804.839          35.000  
C10  36280443.887 8 188921771.281 3      -747.544          30.000  
C 9  35629926.438 2 185534335.411 1     -2177.338          34.000  
C 2  36044795.252 4 187694676.15132      -833.978          33.000  
C 7  35750085.509 4 186160051.280 3      -640.200          27.000  
G 9  21979159.608 9                     -2895.165          15.000  
G 1  20373626.525 9                      2190.146          23.000  
C27  20589694.712 2 107215944.850 1     -2004.610          37.000  
G 8  20043197.949 9                     -2800.652          25.000  
C 1  36339567.864 4 189229628.13622      -832.916          33.000  
C16  37072619.455 2 193046891.268 1     -2457.393          36.000  
C13  38176312.725 8 198794074.730 2       750.763          30.000  
> 2021  5 17  2 35 57.9960000  0 15                     
G 7  19926270.976 4 104713319.446 5      1304.730          25.000  
G21  19484915.379 4 102393921.763 2      -113.014          33.000  
C30  21411514.772 1 111495338.792 1       833.826          38.000  
C 3  35408169.904 4 184379600.89422      -805.605          35.000  
C10  36280588.100 8 188922518.931 3      -747.857          30.000  
C 9  35630344.602 4 185536513.144 2     -2178.373          34.000  
C 2  36044955.083 4 187695508.03932      -832.878          33.000  
C 7  35750207.011 4 186160691.053 4      -639.436          26.000  
G 9  21979713.766 9                     -2895.165          15.000  
G 1  20373209.683 9                      2189.585          23.000  
C27  20590079.965 2 107217949.930 1     -2005.593          37.000  
G 8  20043729.740 9                     -2800.359          25.000  
C 1  36339727.979 4 189230461.39722      -833.411          33.000  
C16  37073091.388 2 193049348.790 1     -2457.880          35.000  
C13  38176167.984 8 198793324.012 3       750.464          30.000  
> 2021  5 17  2 35 58.9960000  0 15                     
G 7  19926024.697 4 104712014.968 5      1304.110          25.000  
G21  19484936.572 4 102394033.706 2      -111.366          32.000  
C30  21411354.474 2 111494504.928 1       833.798          38.000  
C 3  35408324.627 4 184380406.87232      -804.553          34.000  
C10  36280733.504 8 188923266.450 3      -747.197          30.000  
C 9  35630762.596 4 185538690.936 2     -2177.639          34.000  
C 2  36045115.246 4 187696340.93623      -833.203          33.000  
C 7  35750329.298 4 186161330.846 5      -639.644          26.000  
G 9  21980267.322 9                     -2896.312          16.000  
G 1  20372795.223 9                      2187.724          21.000  
C27  20590465.296 2 107219955.351 1     -2005.295          36.000  
G 8  20044263.651 9                     -2801.888          24.000  
C 1  36339888.154 4 189231294.62323      -833.601          32.000  
C16  37073563.595 2 193051806.303 1     -2457.043          35.000  
C13  38176024.312 8 198792573.208 4       751.396          30.000  
> 2021  5 17  2 35 59.9960000  0 15                     
G 7  19925777.414 8 104710710.753 5      1304.311          25.000  
G21  19484957.395 4 102394146.417 2      -113.913          32.000  
C30  21411194.298 2 111493671.427 1       833.530          38.000  
C 3  35408479.257 4 184381211.83522      -804.836          35.000  
C10  36280874.388 4 188924013.843 2      -747.623          29.000  
C 9  35631180.651 4 185540868.813 2     -2177.468          33.000  
C 2  36045275.199 4 187697174.76232      -833.373          33.000  
C 7  35750452.121 4 186161970.490 4      -640.277          26.000  
G 9  21980821.907 9                     -2896.205          16.000  
G 1  20372379.218 9                      2180.549          20.000  
C27  20590850.445 2 107221961.186 1     -2006.229          37.000  
G 8  20044795.773 9                     -2800.711          24.000  
C 1  36340048.160 4 189232127.79522      -832.978          32.000  
C16  37074035.562 2 193054263.855 1     -2457.470          35.000  
C13  38175880.160 8 198791822.489 3       749.608          30.000  
> 2021  5 17  2 36  0.9960000  0 15                     
G 7  19925530.921 8 104709406.708 5      1304.198          25.000  
G21  19484974.431 8 102394259.221 3      -113.014          32.000  
C30  21411034.350 2 111492837.923 1       833.608          38.000  
C 3  35408633.330 4 184382014.37232      -803.985          34.000  
C10  36281017.109 4 188924760.738 3      -746.164          29.000  
C 9  35631598.919 4 185543046.380 2     -2176.761          33.000  
C 2  36045434.851 4 187698006.18332      -832.060          33.000  
C 7  35750576.532 4 186162609.534 4      -638.331          26.000  
G 9  21981373.906 9                     -2896.205          16.000  
G 1  20371959.117 9                      2194.101          20.000  
C27  20591235.815 2 107223967.022 1     -2006.662          36.000  
G 8  20045329.916 9                     -2799.752          24.000  
C 1  36340208.161 9                      -831.543          32.000  
C16  37074507.451 2 193056721.017 1     -2456.359          35.000  
C13  38175734.843 8 198791071.178 3       752.000          30.000  
> 2021  5 17  2 36  1.9960000  0 15                     
G 7  19925282.936 8 104708102.746 5      1303.820          25.000  
G21  19484996.824 8 102394372.389 2      -113.337          32.000  
C30  21410874.231 2 111492004.571 1       832.662          38.000  
C 3  35408787.795 4 184382818.63922      -804.478          34.000  
C10  36281161.658 4 188925507.251 3      -746.367          29.000  
C 9  35632017.432 4 185545223.826 2     -2176.911          32.000  
C 2  36045594.952 4 187698840.30122      -831.666          32.000  
C 7  35750699.325 9                      -640.243          26.000  
G 9  21981924.285 9                     -2896.205          14.000  
G 1  20371543.588 9                      2181.132          20.000  
C27  20591620.841 2 107225972.944 1     -2005.982          36.000  
G 8  20045864.974 9                     -2810.304          23.000  
C 1  36340367.891 9 189233800.52734      -832.004          31.000  
C16  37074979.484 2 193059177.968 1     -2456.875          36.000  
C13  38175592.192 8 198790319.650 3       751.590          29.000  
> 2021  5 17  2 36  2.9960000  0 15                     
G 7  19925037.281 8 104706799.888 5      1302.348          25.000  
G21  19485021.786 8 102394486.836 3      -115.636          31.000  
C30  21410714.413 2 111491172.143 1       832.578          36.000  
C 3  35408942.364 4 184383623.43122      -803.344          33.000  
C10  36281304.881 4 188926254.280 3      -747.073          28.000  
C 9  35632435.557 4 185547401.995 3     -2178.039          31.000  
C 2  36045755.219 8 187699675.06133      -832.966          32.000  
C 7  35750820.848 9                      -638.889          25.000  
G 9  21982474.639 9                     -2896.205          14.000  
G 1  20371127.885 9                      2184.760          20.000  
C27  20592006.090 2 107227979.906 1     -2007.388          35.000  
G 8  20046396.233 9                     -2802.409          23.000  
C 1  36340528.263 9 189234635.56035      -832.170          31.000  
C16  37075451.521 4 193061635.580 2     -2458.064          34.000  
C13  38175445.335 4 198789568.702 3       750.776          29.000  
> 2021  5 17  2 36  3.9960000  0 16                     
G 7  19924792.899 8                      1302.083          23.000  
G21  19485041.928 8 102394602.030 3      -115.816          30.000  
C30  21410554.879 2 111490340.382 1       831.236          36.000  
C 3  35409096.964 4 184384428.48732      -804.731          32.000  
C10  36281449.997 4 188927001.419 3      -747.200          27.000  
C 9  35632849.908 4 185549580.408 3     -2178.410          30.000  
C 2  36045915.212 8 187700507.99934      -832.672          31.000  
C 7  35750941.944 9                      -639.174          24.000  
G 9  21983022.868 9                     -2891.541          15.000  
G 1  20370711.204 9                      2181.202          19.000  
C27  20592391.591 4 107229987.437 2     -2007.686          34.000  
G 8  20046926.764 9                     -2803.968          23.000  
C 1  36340688.155 9                      -839.990          30.000  
C 6  36641368.717 9                     -2373.000          11.000  
C16  37075923.453 4 193064093.358 2     -2458.045          33.000  
C13  38175302.645 4 198788817.862 3       750.774          28.000  
> 2021  5 17  2 36  4.9960000  0 15                     
G 7  19924544.081 9                      1301.206          22.000  
G21  19485060.329 8 102394717.719 3      -116.363          30.000  
C30  21410395.279 2 111489508.803 1       831.736          36.000  
C 3  35409251.364 4 184385232.31722      -804.290          32.000  
C10  36281593.577 4 188927748.222 3      -746.519          27.000  
C 9  35633265.542 4 185551758.836 3     -2179.160          30.000  
C 2  36046075.034 8 187701340.70823      -832.632          31.000  
C 7  35751065.008 9                      -640.290          23.000  
G 9  21983572.437 9                     -2891.541          16.000  
G 1  20370295.701 9                      2181.202          17.000  
C27  20592777.027 2 107231995.202 1     -2007.307          34.000  
G 8  20047460.622 9                     -2801.146          22.000  
C 1  36340848.405 9 189236302.33935      -831.778          30.000  
C16  37076395.421 4 193066551.004 2     -2457.621          33.000  
C13  38175158.279 4 198788066.866 3       751.229          28.000  
> 2021  5 17  2 36  5.9960000  0 16                     
G 7  19924296.039 9                      1299.110          22.000  
G21  19485084.969 8 102394833.988 3      -116.375          30.000  
C30  21410235.666 2 111488677.616 1       831.971          34.000  
C 3  35409406.038 8 184386037.14033      -804.256          31.000  
C10  36281735.570 4 188928495.062 4      -747.106          26.000  
C 9  35633682.131 8                     -2179.551          24.000  
C 2  36046235.436 9                      -833.470          30.000  
C 7  35751189.764 9                      -637.123          23.000  
G 9  21984122.773 9                     -2895.187          17.000  
G 1  20369879.322 9                      2181.202          15.000  
C27  20593162.817 4 107234003.344 2     -2007.251          31.000  
G 8  20047996.619 9                     -2801.169          22.000  
C 1  36341008.445 9                      -832.253          29.000  
C 6  36642284.731 9                     -2373.000          10.000  
C16  37076867.305 4 193069008.662 2     -2457.276          30.000  
C13  38175013.569 4 198787315.865 3       750.916          27.000  
> 2021  5 17  2 36  6.9960000  0 15                     
G 7  19924049.271 9                      1300.216          21.000  
G21  19485111.960 8 102394950.636 3      -117.979          31.000  
C30  21410076.459 2 111487846.621 1       830.357          35.000  
C 3  35409560.298 4 184386840.70632      -805.155          31.000  
C10  36281881.240 4 188929241.404 4      -746.399          26.000  
C 9  35634102.223 8 185556080.07635     -2178.684          26.000  
C 2  36046395.158 9                      -834.977          29.000  
C 7  35751312.002 9                      -638.578          22.000  
G 9  21984670.369 9                     -2892.432          19.000  
G 1  20369465.952 9                      2181.202          12.000  
C27  20593548.353 4 107236011.684 2     -2008.865          32.000  
G 8  20048532.589 9                     -2803.419          23.000  
C 1  36341168.276 8 189237968.22025      -833.702          29.000  
C16  37077339.351 4 193071466.148 2     -2457.755          32.000  
C13  38174869.753 8                       751.915          26.000  
> 2021  5 17  2 36  7.9960000  0 16                     
G 7  19923799.955 9                      1302.674          21.000  
G21  19485131.426 8 102395068.236 3      -117.881          31.000  
C30  21409917.008 2 111487016.327 1       830.008          35.000  
C 3  35409714.938 4 184387646.57022      -804.683          31.000  
C10  36282024.039 4 188929988.018 3      -746.100          27.000  
C 9  35634518.149 8 185558258.85624     -2178.687          28.000  
C 2  36046555.024 8 187703840.10534      -832.419          31.000  
C 7  35751434.485 9                      -638.459          23.000  
G 9  21985218.433 9                     -2892.487          19.000  
G 1  20369047.610 9                      2179.537          12.000  
C27  20593934.238 2 107238020.755 1     -2009.367          33.000  
G 8  20049069.607 9                     -2801.929          23.000  
C 1  36341328.347 8 189238801.26124      -832.906          30.000  
C16  37077811.449 4 193073923.977 2     -2457.646          33.000  
G 4  22685302.091 9                     -3718.337          11.000  
C13  38174725.475 9                       751.710          27.000  
> 2021  5 17  2 36  8.9960000  0 16                     
G 7  19923553.768 9                      1294.077          21.000  
G21  19485152.842 8 102395186.499 3      -118.370          31.000  
C30  21409757.779 4 111486186.515 2       829.606          35.000  
C 3  35409869.708 4 184388452.45733      -804.632          31.000  
C10  36282167.973 4 188930734.678 3      -747.224          27.000  
C 9  35634939.449 8 185560437.87624     -2179.424          28.000  
C 2  36046714.951 8 187704671.89035      -832.774          30.000  
C 7  35751556.724 9                      -639.671          23.000  
G 9  21985767.988 9                     -2896.780          20.000  
G 1  20368632.765 9                      2179.537          11.000  
C27  20594320.045 4 107240030.262 2     -2009.629          33.000  
G 8  20049605.005 9                     -2803.029          24.000  
C 1  36341488.871 9                      -816.695          29.000  
C16  37078283.831 4 193076381.922 2     -2457.810          33.000  
G 4  22686011.072 9                     -3718.337          11.000  
C13  38174580.629 9                       751.596          27.000  
> 2021  5 17  2 36  9.9960000  0 15                     
G 7  19923307.135 9                      1295.781          21.000  
G21  19485176.072 8 102395305.140 2      -119.527          31.000  
C30  21409598.271 2 111485356.852 1       829.002          36.000  
C 3  35410024.090 4 184389256.11632      -804.986          32.000  
C10  36282310.663 4 188931480.861 4      -746.071          27.000  
C 9  35635355.454 4 185562616.59023     -2178.347          29.000  
C 2  36046874.769 9 187705504.44824      -832.809          31.000  
C 7  35751680.778 9                      -638.735          24.000  
G 9  21986319.886 9                     -2900.515          20.000  
G 1  20368218.061 9                      2179.537          11.000  
C27  20594705.848 4 107242039.901 2     -2010.006          34.000  
G 8  20050138.018 9                     -2802.940          24.000  
C 1  36341648.497 9 189240468.78535      -832.205          30.000  
C16  37078755.816 4 193078839.661 2     -2458.626          33.000  
C13  38174438.349 8 198784276.26035       751.501          27.000  
> 2021  5 17  2 36 10.9960000  0 16                     
G 7  19923056.332 9                      1292.073          21.000  
G21  19485192.859 8 102395424.311 3      -119.554          30.000  
C30  21409438.776 2 111484527.465 1       829.101          36.000  
C 3  35410178.786 4 184390061.62522      -803.862          33.000  
C10  36282452.787 4 188932226.950 3      -746.387          28.000  
C 9  35635771.005 4 185564795.47323     -2179.394          29.000  
C 2  36047034.569 8 187706336.87933      -832.446          31.000  
C 7  35751804.055 9                      -636.534          24.000  
G 9  21986869.546 9                     -2896.266          20.000  
G 1  20367802.009 9                      2179.537          13.000  
C27  20595091.794 4 107244049.877 2     -2009.808          34.000  
G 8  20050670.882 9                     -2802.793          23.000  
C 1  36341808.267 8 189241301.54524      -831.868          30.000  
C16  37079227.975 4 193081297.283 2     -2457.407          34.000  
G16  23263764.747 9                     -2567.596          11.000  
C13  38174293.638 4 198783524.90524       751.314          28.000  
> 2021  5 17  2 36 11.9960000  0 16                     
G 7  19922807.902 9                      1299.783          21.000  
G21  19485219.026 8 102395543.866 3      -119.484          30.000  
C30  21409279.407 4 111483698.291 2       828.526          33.000  
C 3  35410332.898 9                      -803.876          32.000  
C10  36282598.444 4 188932972.735 3      -746.038          27.000  
C 9  35636192.541 4 185566974.16523     -2178.382          29.000  
C 2  36047194.540 8 187707169.06024      -831.948          31.000  
C 7  35751927.725 9                      -640.033          24.000  
G 9  21987417.945 9                     -2893.683          20.000  
G 1  20367386.759 9                      2179.537          12.000  
C27  20595477.828 4 107246060.043 2     -2009.724          31.000  
G 8  20051203.659 9                     -2802.304          23.000  
C 1  36341968.028 9                      -827.930          29.000  
C16  37079700.056 4 193083754.744 2     -2456.906          33.000  
G16  23264253.021 9                     -2567.596          11.000  
C13  38174150.529 4 198782773.29824       751.732          28.000  
> 2021  5 17  2 36 12.9960000  0 14                     
G 7  19922559.629 9                      1302.515          21.000  
G21  19485242.758 8 102395664.067 3      -121.243          30.000  
C30  21409120.270 2 111482869.444 1       829.059          34.000  
C 3  35410487.324 8 184391668.20634      -804.236          31.000  
C10  36282740.240 8                      -746.074          27.000  
C 9  35636609.178 4 185569152.94823     -2178.950          28.000  
C 2  36047355.675 9 187708009.25835      -832.510          29.000  
C 7  35752049.431 9                      -638.381          23.000  
G 9  21987968.666 9                     -2900.921          19.000  
C27  20595863.953 4 107248070.598 2     -2011.259          32.000  
G 8  20051738.814 9                     -2802.384          24.000  
C 1  36342128.029 9                      -832.178          28.000  
C16  37080172.123 4 193086212.232 2     -2457.391          33.000  
C13  38174005.919 4 198782021.67123       751.066          27.000  
> 2021  5 17  2 36 13.9960000  0 15                     
G 7  19922313.498 9                      1293.432          20.000  
G21  19485264.205 8 102395784.954 3      -121.471          30.000  
C30  21408960.867 2 111482041.151 1       828.128          34.000  
C 3  35410641.889 8 184392472.61533      -805.356          32.000  
C10  36282883.571 9                      -745.143          27.000  
C 9  35637030.055 4 185571331.94723     -2178.870          29.000  
C 2  36047515.388 9                      -838.428          31.000  
C 7  35752172.425 9                      -635.760          23.000  
G 9  21988519.739 9                     -2900.994          19.000  
G 1  20366557.581 9                      2179.537          10.000  
C27  20596249.734 4 107250081.607 2     -2011.688          33.000  
G 8  20052274.802 9                     -2804.330          23.000  
C 1  36342287.725 9                      -828.516          29.000  
C16  37080644.060 4 193088669.839 2     -2457.557          34.000  
C13  38173861.523 4 198781269.98223       752.277          28.000  
> 2021  5 17  2 36 14.9960000  0 16                     
G 7  19922064.736 9                      1299.126          20.000  
G21  19485288.687 8 102395906.027 3      -120.579          31.000  
C30  21408801.904 2 111481212.877 1       828.503          39.000  
C 3  35410795.987 4 184393275.56022      -804.237          35.000  
C10  36283025.799 8 188935209.05535      -744.386          27.000  
C 9  35637447.713 4 185573510.23212     -2178.626          33.000  
C 2  36047675.232 9 187709672.35734      -832.155          34.000  
C 7  35752294.921 9                      -637.578          24.000  
G 9  21989071.820 9                     -2900.282          18.000  
G 1  20366141.834 9                      2179.537          12.000  
C27  20596635.362 4 107252092.680 2     -2011.378          36.000  
G 8  20052808.656 9                     -2803.426          22.000  
C 8  37415846.710 9                       894.047          11.000  
C 1  36342447.460 9 189244628.92835      -832.052          29.000  
C16  37081116.136 2 193091127.148 1     -2457.261          37.000  
C13  38173716.935 4 198780518.080 3       751.826          28.000  
> 2021  5 17  2 36 15.9960000  0 16                     
G 7  19921816.507 9                      1297.371          21.000  
G21  19485312.943 8 102396027.702 2      -122.446          32.000  
C30  21408642.775 1 111480384.874 1       827.770          38.000  
C 3  35410950.322 4 184394079.36432      -803.490          35.000  
C10  36283168.752 8 188935954.04624      -745.747          29.000  
C 9  35637869.799 4 185575688.979 2     -2178.792          32.000  
C 2  36047834.762 8 187710503.05632      -831.888          34.000  
C 7  35752417.151 8 186172187.23935      -637.355          26.000  
G 9  21989622.671 9                     -2903.263          19.000  
G 1  20365728.722 9                      2181.456          13.000  
C27  20597021.369 2 107254104.013 1     -2011.562          35.000  
G 8  20053338.427 9                     -2803.263          23.000  
C 8  37415678.726 9                       894.047          12.000  
C 1  36342607.343 8 189245461.02924      -832.688          31.000  
C16  37081588.440 2 193093584.333 1     -2457.640          36.000  
C13  38173575.082 8 198779765.938 3       751.796          31.000  
> 2021  5 17  2 36 16.9960000  0 16                     
G 7  19921567.946 9                      1297.932          23.000  
G21  19485338.028 8 102396150.061 2      -122.603          32.000  
C30  21408483.765 1 111479557.445 1       827.423          38.000  
C 3  35411104.961 2 184394883.37721      -803.987          35.000  
C10  36283310.796 8 188936699.06223      -746.293          30.000  
C 9  35638284.582 4 185577868.020 2     -2179.039          32.000  
C 2  36047994.828 4 187711334.95422      -831.919          34.000  
C 7  35752540.559 8 186172824.58924      -637.640          26.000  
G 9  21990174.190 9                     -2899.614          20.000  
G 1  20365313.520 9                      2181.456          14.000  
C27  20597407.495 4 107256115.951 2     -2012.024          35.000  
G 8  20053868.146 9                     -2803.699          23.000  
C 8  37415511.623 9                       894.047          14.000  
C 1  36342767.004 8 189246293.24523      -832.113          31.000  
C16  37082060.603 2 193096041.743 1     -2457.904          37.000  
C13  38173427.684 8 198779013.983 3       752.241          31.000  
> 2021  5 17  2 36 17.9960000  0 16                     
G 7  19921322.321 9                      1295.408          23.000  
G21  19485360.438 4 102396273.282 2      -122.944          32.000  
C30  21408325.042 1 111478730.614 1       826.818          39.000  
C 3  35411259.505 4 184395687.56422      -804.401          35.000  
C10  36283457.588 8 188937444.09723      -744.727          30.000  
C 9  35638703.911 4 185580047.362 2     -2179.881          32.000  
C 2  36048154.393 4 187712166.98022      -831.224          34.000  
C 7  35752665.812 8 186173461.90124      -636.904          26.000  
G 9  21990726.228 9                     -2897.295          20.000  
G 1  20364900.133 9                      2187.359          16.000  
C27  20597793.424 2 107258128.455 1     -2012.273          35.000  
G 8  20054400.626 9                     -2804.867          23.000  
C 8  37415339.236 9                       894.047          14.000  
C 1  36342926.979 4 189247125.68523      -832.946          32.000  
C16  37082532.636 2 193098499.351 1     -2457.361          36.000  
C13  38173284.034 8 198778262.183 3       752.032          31.000  
> 2021  5 17  2 36 19.9960000  0 17                     
G 7  19920828.611 9                      1290.842          23.000  
G21  19485411.628 4 102396522.054 2      -125.229          32.000  
C30  21408007.950 1 111477078.560 1       825.785          39.000  
C 3  35411568.504 4 184397296.26522      -803.708          35.000  
C10  36283739.784 8 188938934.38324      -744.683          30.000  
C 9  35639542.708 4 185584406.688 2     -2179.856          32.000  
C 2  36048474.103 4 187713831.46822      -831.800          33.000  
C 7  35752909.120 8                      -637.877          25.000  
G 9  21991828.876 9                     -2897.418          22.000  
G 1  20364075.946 9                      2172.610          18.000  
C27  20598566.294 4 107262155.092 2     -2013.081          35.000  
G 8  20055471.516 9                     -2805.723          24.000  
C 8  37414997.679 9                       894.047          17.000  
C 1  36343246.479 8 189248790.84123      -832.165          32.000  
C16  37083476.811 2 193103415.108 1     -2457.683          36.000  
C13  38172995.962 8 198776758.878 3       751.658          31.000  
G30  22942447.470 9                      2503.000          19.000  
> 2021  5 17  2 36 20.9960000  0 16                     
G 7  19920582.606 9                      1299.456          23.000  
G21  19485431.024 4 102396647.399 2      -125.801          33.000  
C30  21407849.584 1 111476253.177 1       825.262          39.000  
C 3  35411723.022 4 184398102.71732      -804.513          35.000  
C10  36283885.397 8 188939679.481 3      -745.461          30.000  
C 9  35639961.596 4 185586586.647 2     -2180.438          32.000  
C 2  36048634.178 4 187714663.77222      -832.229          34.000  
C 7  35753030.967 8 186175374.23725      -637.738          26.000  
G 9  21992380.447 9                     -2894.105          22.000  
G 1  20363663.127 9                      2181.913          18.000  
C27  20598952.794 4 107264169.079 2     -2014.422          35.000  
G 8  20056005.715 9                     -2805.431          24.000  
C 1  36343406.197 4 189249623.44622      -832.056          32.000  
C16  37083948.765 2 193105873.104 1     -2458.324          36.000  
C13  38172853.961 8 198776007.257 3       752.421          30.000  
G30  22941967.703 9                      2503.000          19.000  
> 2021  5 17  2 36 21.9960000  0 16                     
G 7  19920337.396 9                      1297.895          24.000  
G21  19485455.904 4 102396773.303 2      -126.634          33.000  
C30  21407691.555 2 111475428.110 1       824.828          38.000  
C 3  35411877.203 4 184398906.03332      -804.960          35.000  
C10  36284028.554 8 188940424.325 3      -745.491          30.000  
C 9  35640380.763 4 185588766.569 2     -2180.581          33.000  
C 2  36048793.830 4 187715497.92732      -833.091          33.000  
C 7  35753151.343 8                      -637.930          26.000  
G 9  21992937.092 9                     -2907.426          20.000  
G 1  20363248.802 9                      2176.815          18.000  
C27  20599339.539 4 107266183.334 2     -2014.583          34.000  
G 8  20056538.099 9                     -2803.127          23.000  
C 1  36343566.041 4 189250456.04022      -832.916          32.000  
C16  37084420.968 2 193108331.036 1     -2458.199          36.000  
C13  38172707.702 8 198775255.446 3       752.877          30.000  
G30  22941494.317 9                      2503.000          19.000  
> 2021  5 17  2 36 22.9960000  0 16                     
G 7  19920092.709 9                      1295.004          25.000  
G21  19485480.888 4 102396899.671 2      -127.511          33.000  
C30  21407533.033 1 111474603.306 1       824.499          39.000  
C 3  35412031.555 4 184399710.11622      -804.487          35.000  
C10  36284171.110 8 188941168.960 3      -744.418          30.000  
C 9  35640799.416 4 185590946.448 2     -2180.161          33.000  
C 2  36048953.430 4 187716329.95122      -832.035          33.000  
C 7  35753274.284 8 186176648.44225      -637.427          26.000  
G 9  21993490.530 9                     -2905.977          20.000  
G 1  20362835.541 9                      2180.085          18.000  
C27  20599726.140 2 107268197.880 1     -2015.008          34.000  
G 8  20057072.752 9                     -2808.903          22.000  
C 1  36343725.937 4 189251288.39822      -832.176          32.000  
C16  37084893.014 2 193110788.849 1     -2458.376          37.000  
C13  38172563.476 8 198774503.619 3       751.279          31.000  
G30  22941028.680 9                      2503.000          19.000  
> 2021  5 17  2 36 23.9960000  0 16                     
G 7  19919846.294 9                      1294.731          25.000  
G21  19485504.987 4 102397026.745 2      -127.719          33.000  
C30  21407374.515 1 111473778.786 1       824.475          38.000  
C 3  35412186.094 4 184400514.26622      -804.003          35.000  
C10  36284316.470 8 188941913.433 3      -743.928          30.000  
C 9  35641218.116 4 185593126.386 2     -2180.018          33.000  
C 2  36049113.016 4 187717159.84732      -831.694          33.000  
C 7  35753395.070 8 186177285.37625      -636.956          25.000  
G 9  21994047.205 9                     -2909.602          21.000  
G 1  20362420.462 9                      2179.160          18.000  
C27  20600112.915 2 107270212.772 1     -2014.810          34.000  
G 8  20057609.704 9                     -2804.289          22.000  
C 1  36343885.811 4 189252120.93922      -832.668          32.000  
C16  37085364.937 2 193113246.688 1     -2458.356          36.000  
C13  38172420.707 8 198773751.753 3       751.150          31.000  
G30  22940557.712 9                      2503.000          18.000  
> 2021  5 17  2 36 24.9960000  0 16                     
G 7  19919599.644 9                      1295.447          25.000  
G21  19485529.575 4 102397155.005 2      -128.160          29.000  
C30  21407216.246 2 111472954.299 1       824.688          35.000  
C 3  35412340.759 4 184401319.44933      -804.052          31.000  
C10  36284453.585 8 188942657.505 3      -743.092          29.000  
C 9  35641636.777 4 185595306.142 2     -2178.691          30.000  
C 2  36049272.276 9                      -828.095          30.000  
C 7  35753518.015 9                      -637.751          25.000  
G 9  21994601.027 9                     -2898.928          21.000  
G 1  20362004.165 9                      2178.386          18.000  
C27  20600499.713 4 107272228.435 2     -2015.762          30.000  
G 8  20058142.223 9                     -2807.348          23.000  
C 1  36344045.629 8 189252954.20724      -833.164          28.000  
C16  37085836.839 4 193115704.489 2     -2456.979          33.000  
C13  38172276.646 8 198773000.012 4       752.069          29.000  
G30  22940079.153 9                      2503.000          17.000  
> 2021  5 17  2 36 25.9960000  0 16                     
G 7  19919354.669 8 104676907.80334      1295.618          35.000  
G21  19485553.560 4 102397284.657 2      -129.978          35.000  
C30  21407057.929 1 111472129.262 1       825.321          38.000  
C 3  35412495.224 4 184402123.55722      -804.060          35.000  
C10  36284598.675 8 188943400.424 5      -742.370          22.000  
C 9  35642055.303 4 185597485.130 2     -2178.139          32.000  
C 2  36049431.409 9 187718819.41735      -829.404          31.000  
C 7  35753643.836 9                      -629.295          23.000  
G 9  21995154.321 9                     -2907.377          22.000  
G 1  20361588.117 9                      2172.136          22.000  
C27  20600888.442 8 107274244.721 3     -2017.270          26.000  
G 8  20058671.929 9 105409031.55735     -2806.676          27.000  
C 1  36344205.805 8 189253788.73223      -835.230          31.000  
C16  37086308.632 2 193118162.130 1     -2457.777          35.000  
C13  38172129.938 4 198772248.489 3       750.908          28.000  
G30  22939604.961 9                      2503.000          15.000  
> 2021  5 17  2 36 26.9960000  0 15                     
G 7  19919105.301 9 104675604.30735      1294.670          34.000  
G21  19485576.551 4 102397416.608 2      -131.107          33.000  
C30  21406899.307 2 111471303.295 1       825.375          38.000  
C 3  35412649.746 2 184402927.85322      -804.895          35.000  
C10  36284741.234 8 188944142.045 4      -741.884          29.000  
C 9  35642474.035 4 185599663.359 2     -2179.324          34.000  
C 2  36049590.254 8 187719648.11123      -830.138          32.000  
C 7  35753769.189 9                      -636.607          23.000  
G 9  21995704.517 9                     -2901.331          22.000  
G 1  20361173.674 9                      2176.999          24.000  
C27  20601275.597 9 107276216.93535     -2017.614          35.000  
G 8  20059202.669 9                     -2807.626          28.000  
C 1  36344366.552 4 189254625.62522      -835.979          34.000  
C16  37086780.460 2 193120619.564 1     -2456.851          36.000  
C13  38171984.202 9                       752.008          26.000  
> 2021  5 17  2 36 27.9960000  0 15                     
G 7  19918862.290 8 104674310.11422      1294.474          34.000  
G21  19485602.050 4 102397547.208 2      -129.177          33.000  
C30  21406740.950 2 111470478.855 1       824.190          39.000  
C 3  35412804.255 4 184403731.61922      -802.769          35.000  
C10  36284885.059 8 188944884.508 4      -742.866          30.000  
C 9  35642892.875 4 185601842.281 2     -2178.369          33.000  
C 2  36049749.374 4 187720473.13233      -830.974          32.000  
C 7  35753894.787 9                      -630.710          23.000  
G 9  21996254.539 9                     -2901.331          19.000  
G 1  20360758.110 9                      2176.708          24.000  
C27  20601660.994 8 107278233.68823     -2016.561          33.000  
G 8  20059729.290 8                     -2805.727          27.000  
C 1  36344526.788 4 189255459.90722      -833.392          33.000  
C16  37087252.410 2 193123077.004 1     -2457.171          36.000  
C13  38171840.085 9                       740.625          23.000  
> 2021  5 17  2 36 28.9960000  0 15                     
G 7  19918612.673 8 104673015.22523      1297.401          29.000  
G21  19485629.446 8 102397678.559 3      -133.005          33.000  
C30  21406582.629 2 111469653.613 1       826.132          39.000  
C 3  35412958.650 4 184404536.79432      -802.724          35.000  
C10  36285026.362 8 188945625.887 3      -739.798          30.000  
C 9  35643311.422 4 185604020.390 2     -2177.573          33.000  
C 2  36049908.310 9                      -827.783          31.000  
C 7  35754018.282 9                      -630.293          25.000  
G 9  21996806.992 9                     -2930.097          19.000  
G 1  20360340.697 9                      2176.295          31.000  
C27  20602047.416 8 107280250.42523     -2016.329          32.000  
G 8  20060261.993 8                     -2806.994          27.000  
C 1  36344687.060 4 189256294.44922      -835.959          33.000  
C16  37087724.211 2 193125533.733 1     -2456.290          36.000  
C13  38171698.756 9                       756.118          22.000  
> 2021  5 17  2 36 29.9960000  0 15                     
G 7  19918364.405 8 104671718.43024      1300.176          30.000  
G21  19485657.694 8 102397813.215 3      -136.153          32.000  
C30  21406423.967 1 111468826.240 1       828.354          38.000  
C 3  35413113.001 4 184405340.13322      -803.276          35.000  
C10  36285169.140 9                      -737.183          28.000  
C 9  35643729.298 4 185606196.428 2     -2174.811          33.000  
C 2  36050066.523 9                      -820.117          31.000  
C 7  35754142.271 9                      -636.048          24.000  
G 9  21997361.655 9                     -2912.298          18.000  
G 1  20359917.424 9                      2173.542          29.000  
C27  20602436.325 8 107282268.41023     -2017.874          36.000  
G 8  20060796.018 9                     -2806.505          27.000  
C 1  36344848.187 8 189257133.14623      -839.829          32.000  
C16  37088196.034 4 193127989.920 2     -2455.778          33.000  
C13  38171555.817 9                       756.633          19.000  
> 2021  5 17  2 36 30.9960000  0 15                     
G 7  19918116.572 9                      1299.385          26.000  
G21  19485681.793 8 102397951.939 3      -141.336          32.000  
C30  21406264.533 2 111467996.102 1       832.435          36.000  
C 3  35413267.183 2 184406143.49531      -803.876          33.000  
C10  36285314.500 9                      -735.559          27.000  
C 9  35644146.856 4 185608370.016 2     -2172.771          32.000  
C 2  36050224.329 9 187722946.53135      -819.484          30.000  
C 7  35754262.036 9                      -640.197          25.000  
G 9  21997918.570 9                     -2918.672          20.000  
G 1  20359502.074 9 106989904.79634      2171.029          33.000  
C27  20602824.976 8 107284288.64623     -2021.121          35.000  
G 8  20061333.528 8 105423002.20734     -2809.600          32.000  
C 1  36345009.880 8 189257976.89124      -845.478          30.000  
C16  37088667.526 4 193130445.228 2     -2454.271          32.000  
C13  38171409.698 9                       756.633          16.000  
> 2021  5 17  2 36 31.9960000  0 16                     
G 7  19917870.306 9 104669113.98435      1301.217          31.000  
G21  19485708.095 8 102398094.471 3      -145.122          33.000  
C30  21406104.349 2 111467162.737 1       834.615          38.000  
C 3  35413421.530 4 184406947.34822      -802.551          34.000  
C10  36285450.485 9                      -734.340          26.000  
C 9  35644563.903 4 185610540.417 2     -2169.205          34.000  
C 2  36050381.281 8 187723763.97223      -815.881          33.000  
C 7  35754384.672 9                      -640.576          26.000  
G 9  21998473.727 9                     -2924.620          19.000  
G 1  20359091.335 9                      2166.609          30.000  
C27  20603212.763 8 107286303.90335     -2022.812          34.000  
G 8  20061868.940 9                     -2809.576          28.000  
C 1  36345172.669 4 189258825.45923      -851.556          32.000  
C16  37089138.739 4 193132898.868 2     -2453.863          35.000  
G 4  22702220.195 9                     -3708.580          16.000  
C13  38171266.868 9                       756.633          10.000  
> 2021  5 17  2 36 32.9960000  0 16                     
G 7  19917621.475 8 104667812.36225      1301.731          32.000  
G21  19485735.518 4 102398239.143 2      -145.045          33.000  
C30  21405943.890 2 111466327.692 1       834.498          38.000  
C 3  35413575.654 4 184407749.92622      -802.192          34.000  
C10  36285589.908 9                      -731.591          27.000  
C 9  35644980.470 4 185612709.093 2     -2168.534          34.000  
C 2  36050537.600 4 187724577.85233      -814.675          33.000  
C 7  35754508.149 9                      -642.711          26.000  
G 9  21999029.290 9                     -2921.708          18.000  
G 1  20358674.838 8 106985565.54425      2168.695          30.000  
C27  20603601.751 4 107288327.26822     -2024.395          36.000  
G 8  20062403.139 9                     -2813.124          28.000  
C 8  37412731.179 9                       879.963          29.000  
C 1  36345336.173 4 189259671.41932      -850.395          33.000  
C16  37089609.799 4 193135351.605 2     -2451.552          34.000  
G 4  22702918.657 9                     -3697.349          14.000  
> 2021  5 17  2 36 33.9960000  0 17                     
G 7  19917377.651 8 104666511.17723      1301.123          34.000  
G21  19485763.665 4 102398384.054 2      -144.928          33.000  
C30  21405783.553 2 111465493.192 1       834.023          38.000  
C 3  35413729.989 4 184408553.36532      -802.452          34.000  
C10  36285730.164 9 188949289.17635      -732.966          33.000  
C 9  35645397.321 4 185614878.124 2     -2171.351          35.000  
C 2  36050694.054 4 187725392.98232      -815.354          33.000  
C 7  35754629.917 9                      -638.670          26.000  
G 9  21999585.284 9                     -2923.685          17.000  
G 1  20358266.987 8 106983396.54224      2169.203          31.000  
C27  20603991.523 4 107290350.48922     -2023.910          38.000  
G 8  20062939.192 9                     -2810.052          28.000  
C 8  37412548.872 9 194816996.84834       879.616          32.000  
C 1  36345499.533 4 189260521.88422      -850.625          33.000  
C 6  36655074.903 9                     -2381.295          31.000  
C 4  37284919.533 9                      -864.758          29.000  
C16  37090079.162 8                     -2452.376          31.000  
> 2021  5 17  2 36 34.9960000  0 19                     
G 7  19917132.432 4 104665210.08622      1301.668          35.000  
G21  19485791.598 4 102398529.592 2      -146.381          33.000  
C30  21405623.600 4 111464659.414 2       832.938          40.000  
C 3  35413884.000 4 184409356.04422      -802.571          35.000  
C10  36285867.698 8 188950020.40223      -729.970          33.000  
C 9  35645814.224 4 185617047.531 2     -2169.956          35.000  
C 2  36050850.343 4 187726206.34122      -814.218          33.000  
C 7  35754753.307 9                      -636.376          28.000  
G 9  22000125.604 9                     -2877.553          18.000  
G 1  20357853.696 8 106981228.26223      2168.292          32.000  
C27  20604379.171 4 107292373.77121     -2022.851          39.000  
G 8  20063473.060 9 105434261.56835     -2810.247          32.000  
C 8  37412378.314 8 194816116.32724       877.390          31.000  
C 1  36345662.898 4 189261373.22332      -850.472          33.000  
G27  22249240.960 9                     -3909.930          21.000  
C 6  36655538.390 9                     -2382.310          26.000  
C 4  37285073.282 9                      -853.076          30.000  
C16  37090550.732 9                     -2453.191          31.000  
G30  22935343.513 9                      2478.302          13.000  
> 2021  5 17  2 36 35.9960000  0 17                     
G 7  19916882.113 4 104663908.27222      1302.045          35.000  
G21  19485819.327 4 102398676.267 3      -146.658          33.000  
C30  21405463.743 4 111463825.969 3       834.481          39.000  
C 3  35414038.129 4 184410158.14332      -802.721          35.000  
C10  36286012.068 4 188950750.23622      -729.290          33.000  
C 9  35646231.215 4                     -2166.210          30.000  
C 2  36051006.452 9                      -804.395          27.000  
C 7  35754871.284 8 186184989.02635      -636.412          30.000  
G 9  22000664.759 9                     -2870.200          19.000  
G 1  20357442.211 8 106979061.51724      2166.093          31.000  
C27  20604766.928 4 107294396.78721     -2022.718          38.000  
G 8  20064006.452 8 105437071.11323     -2809.336          33.000  
C 8  37412211.699 8 194815237.00625       880.545          31.000  
C 1  36345826.319 4 189262223.41533      -851.696          33.000  
G27  22249990.652 9                     -3909.930          23.000  
C16  37091021.744 9                     -2457.405          25.000  
G30  22934871.772 9                      2478.302          14.000  
> 2021  5 17  2 36 36.9960000  0 18                     
G 7  19916632.854 4 104662605.06822      1304.101          35.000  
G21  19485847.491 4 102398824.528 3      -148.885          33.000  
C30  21405304.200 4 111462994.059 2       828.546          35.000  
C 3  35414192.485 4 184410962.53922      -806.259          35.000  
C10  36286153.467 4 188951477.83522      -726.416          32.000  
C 9  35646649.008 8 185621423.56333     -2173.250          34.000  
C 7  35754994.984 8 186185623.96923      -633.097          34.000  
G 9  22001205.960 9                     -2873.771          19.000  
G 1  20357030.517 8                      2162.153          31.000  
C27  20605156.744 4 107296419.01522     -2021.262          36.000  
G 8  20064541.410 8 105439878.58522     -2805.707          34.000  
C 8  37412041.747 9                       874.810          29.000  
C 1  36345989.989 4 189263075.88423      -853.643          34.000  
G27  22250739.393 9                     -3920.197          26.000  
C 4  37285400.587 9                      -843.867          29.000  
C16  37091495.094 9                     -2462.156          26.000  
C28  24356784.500 9                     -3835.136          30.000  
G30  22934398.016 9                      2478.302          13.000  
> 2021  5 17  2 36 37.9960000  0 16                     
G 7  19916383.779 9                      1305.137          28.000  
G21  19485876.275 4 102398974.975 3      -151.410          33.000  
C30  21405145.878 9                       824.965          26.000  
C 3  35414347.648 4 184411770.75423      -810.815          35.000  
C10  36286297.275 9                      -730.962          13.000  
C 9  35647067.342 4 185623599.91122     -2179.551          34.000  
C 7  35755114.780 8 186186253.31423      -626.614          33.000  
G 9  22001752.143 9                     -2873.771          17.000  
G 1  20356618.570 9                      2151.265          26.000  
C27  20605544.296 4 107298438.06921     -2017.590          39.000  
G 8  20065074.379 4 105442680.31422     -2798.897          35.000  
C 1  36346154.026 4 189263929.96933      -854.987          33.000  
G27  22251489.072 9                     -3905.870          25.000  
C 4  37285570.238 9                      -856.689          29.000  
C16  37091968.876 9                     -2467.380          25.000  
G30  22933926.459 9                      2478.302          12.000  
> 2021  5 17  2 36 38.9960000  0 17                     
G 7  19916139.624 9                      1309.512          18.000  
G21  19485905.125 4 102399127.438 2      -153.097          36.000  
C30  21404988.565 9                       840.466          32.000  
C 3  35414503.653 4 184412582.54032      -815.350          34.000  
C10  36286436.266 9                      -730.962          12.000  
C 9  35647486.256 9                     -2163.754          24.000  
C 7  35755237.830 8 186186877.64723      -621.307          33.000  
G 9  22002298.095 9                     -2869.037          16.000  
G 1  20356206.884 9 106972588.65434      2149.056          33.000  
C27  20605931.446 4 107300454.390 2     -2014.699          37.000  
G 8  20065606.275 4 105445476.85822     -2794.061          36.000  
C 1  36346318.817 9                      -849.365          31.000  
G27  22252238.244 9                     -3905.870          24.000  
C 4  37285735.536 9                      -812.646          27.000  
C16  37092437.589 9                     -2464.867          25.000  
G 4  22707140.489 9                     -3712.242          25.000  
G30  22933455.517 9                      2478.302          11.000  
> 2021  5 17  2 36 39.9960000  0 19                     
G 7  19915890.723 9                      1309.512          17.000  
G21  19485932.980 8 102399280.334 4      -152.565          29.000  
C30  21404828.969 9                       829.274          26.000  
C 3  35414660.569 4 184413399.67833      -821.470          31.000  
C10  36286574.162 9                      -730.962          12.000  
C 9  35647907.343 9                     -2163.754          20.000  
C 7  35755354.947 8 186187496.92423      -617.094          33.000  
G 9  22002843.554 9                     -2869.037          14.000  
G 1  20355800.211 9 106970441.13925      2152.992          31.000  
C27  20606317.358 4 107302467.678 3     -2011.037          33.000  
G 8  20066138.834 4 105448268.01522     -2789.474          33.000  
C 8  37411542.592 9                       860.612          27.000  
C 1  36346482.879 9 189265642.90935      -851.394          31.000  
G27  22252984.097 9                     -3910.264          23.000  
C 6  36657827.492 9                     -2409.587          25.000  
C 4  37285906.578 9                      -974.707          27.000  
C16  37092917.601 9 193152523.70434     -2483.776          31.000  
G 4  22707849.500 9                     -3739.830          26.000  
C13  38170109.386 9                       743.374          15.000  
> 2021  5 17  2 36 40.9960000  0 17                     
G 7  19915643.916 9                      1309.512          16.000  
G21  19485963.343 8 102399431.887 4      -150.197          31.000  
C30  21404676.210 9                       808.264          25.000  
C 3  35414817.600 9                      -820.690          31.000  
C 9  35648326.576 9                     -2183.765          15.000  
C 7  35755476.266 4 186188112.77922      -614.853          32.000  
G 9  22003388.847 9                     -2869.037          11.000  
G 1  20355396.723 9                      2145.422          26.000  
C27  20606704.020 4 107304478.741 2     -2009.589          38.000  
G 8  20066669.386 4 105451055.64822     -2786.072          33.000  
C 8  37411379.385 9                       861.739          26.000  
C 1  36346646.650 9                      -847.136          30.000  
G27  22253729.745 9                     -3918.565          21.000  
C 6  36658290.634 9 190889308.81335     -2415.251          27.000  
C16  37093397.019 9                     -2487.504          28.000  
G 4  22708559.855 9                     -3739.830          22.000  
C13  38169967.773 9                       743.374          14.000  
> 2021  5 17  2 36 41.9960000  0 15                     
G 7  19915395.472 9                      1309.512          13.000  
G21  19485996.010 8 102399581.546 4      -149.780          31.000  
C30  21404523.747 9                       797.906          22.000  
C 3  35414975.428 9                      -822.408          31.000  
C 9  35648748.208 9                     -2183.765          13.000  
C 7  35755593.823 4 186188726.66123      -613.110          32.000  
G 1  20354987.925 9                      2143.526          26.000  
C27  20607090.005 4 107306488.406 2     -2008.955          36.000  
G 8  20067198.677 8 105453841.40923     -2786.402          33.000  
C 1  36346808.361 9                      -840.527          30.000  
G27  22254467.824 9                     -3871.690          21.000  
C16  37093870.256 9                     -2483.619          18.000  
G 4  22709270.537 9                     -3739.830          19.000  
C13  38169831.827 9                       718.503          17.000  
G30  22932043.698 9                      2478.302          11.000  
> 2021  5 17  2 36 42.9960000  0 16                     
G 7  19915144.927 9                      1309.512          12.000  
G21  19486022.574 8 102399739.65035      -150.575          31.000  
C30  21404367.332 9                       792.717          19.000  
C 3  35415133.335 8 184415862.08334      -821.788          31.000  
C 9  35649169.670 9                     -2183.765          12.000  
C 7  35755709.025 8 186189339.12823      -611.141          32.000  
G 1  20354581.056 8                      2141.216          27.000  
C27  20607475.743 4 107308497.331 2     -2007.556          36.000  
G 8  20067728.496 8 105456625.875 3     -2784.507          31.000  
C 8  37411046.723 9                       860.907          26.000  
C 1  36346962.398 9                      -768.262          28.000  
G27  22255205.706 9                     -3871.690          21.000  
C16  37094349.509 9                     -2485.876          19.000  
G 4  22709981.288 9                     -3739.830          16.000  
C13  38169694.760 9                       715.805          18.000  
G30  22931571.574 9                      2478.302          12.000  
> 2021  5 17  2 36 43.9960000  0 16                     
G 7  19914892.963 9                      1309.512          11.000  
G21  19486050.280 8 102399890.35124      -151.616          31.000  
C30  21404218.395 9                       792.717          15.000  
C 3  35415291.831 4 184416686.53622      -825.670          32.000  
C 9  35649589.714 9                     -2183.765          10.000  
C 7  35755824.720 4 186189949.19122      -607.100          32.000  
G 1  20354174.331 8 106961899.75635      2138.742          28.000  
C27  20607861.471 4 107310505.188 2     -2006.800          37.000  
G 8  20068254.537 8 105459408.159 3     -2780.846          32.000  
C 1  36347122.404 9                      -922.559          26.000  
G27  22255942.550 9                     -3871.690          21.000  
C 6  36659681.398 9                     -2421.413          25.000  
C16  37094831.580 9                     -2495.276          30.000  
G 4  22710692.978 9                     -3739.830          13.000  
C13  38169561.419 9                       718.460          18.000  
G30  22931096.928 9                      2478.302          12.000  
> 2021  5 17  2 36 44.9960000  0  7                     
G 7  19914646.897 9                      1300.048          11.000  
G21  19486076.665 8 102400041.86824      -150.677          31.000  
C 7  35755944.180 8 186190556.60413      -607.152          33.000  
C27  20608246.711 2 107312512.039 1     -2006.528          37.000  
G 8  20068783.131 8 105462188.156 3     -2778.634          33.000  
G27  22256678.941 9                     -3871.690          20.000  
C13  38169426.589 9                       710.105          18.000  
> 2021  5 17  2 36 45.9960000  0 10                     
G21  19486107.683 8 102400195.07423      -153.169          35.000  
C 3  35415606.746 9                      -823.828          34.000  
C 7  35756059.317 4 186191162.885 2      -604.804          34.000  
C27  20608631.859 4 107314518.314 2     -2004.957          38.000  
G 8  20069313.360 8 105464966.831 2     -2778.416          33.000  
C 8  37410556.812 9                       855.158          29.000  
G27  22257414.934 9                     -3871.690          19.000  
C16  37095780.383 9                     -2504.639          31.000  
C 4  37286875.314 9                      -847.906          29.000  
C13  38169291.896 9                       709.772          17.000  
> 2021  5 17  2 36 46.9960000  0 11                     
C30  21403765.871 9                       792.717          10.000  
C 3  35415771.756 9                      -822.047          35.000  
C 9  35650846.038 9                     -2183.765          11.000  
C 7  35756176.451 4 186191768.238 2      -604.427          34.000  
G 1  20352953.575 9                      2133.545          34.000  
C27  20609017.212 4 107316524.493 2     -2006.779          40.000  
G 8  20069839.558 8 105467744.808 3     -2778.504          30.000  
C 8  37410392.907 9                       854.731          29.000  
G27  22258150.374 9                     -3871.690          17.000  
C 4  37287029.700 9                      -792.871          28.000  
C13  38169157.594 9                       704.870          17.000  
> 2021  5 17  2 36 47.9960000  0  9                     
G21  19486168.606 9                      -153.271          31.000  
C30  21403614.657 9                       792.717          12.000  
C 1  36347787.427 9                      -837.094          28.000  
C 7  35756293.420 4 186192374.859 2      -607.660          34.000  
C27  20609402.652 4 107318531.708 2     -2007.287          39.000  
G 8  20070371.694 8 105470524.162 4     -2780.792          31.000  
G27  22258887.096 9                     -3871.690          19.000  
C 4  37287184.929 9                      -842.236          27.000  
C13  38169022.534 9                       718.205          17.000  
> 2021  5 17  2 36 48.9960000  0  9                     
G21  19486194.720 9 102400643.65135      -153.335          35.000  
C 3  35416087.264 9                      -820.883          32.000  
C 1  36347954.709 9                      -878.711          27.000  
C 7  35756409.756 4 186192981.483 2      -605.852          29.000  
G 1  20352143.584 9                      2138.500          29.000  
C27  20609788.389 2 107320539.287 2     -2006.562          37.000  
G 8  20070899.039 8 105473304.069 3     -2777.496          34.000  
G27  22259624.747 9                     -3871.690          18.000  
C13  38168890.013 9                       702.054          16.000  
> 2021  5 17  2 36 49.9960000  0  9                     
C 3  35416244.194 9                      -833.984          33.000  
C 1  36348108.786 9                      -842.627          29.000  
C 7  35756527.567 8 186193587.000 3      -605.372          30.000  
G 1  20351730.214 9                      2131.583          29.000  
C27  20610173.790 4 107322546.593 2     -2007.029          37.000  
G 8  20071431.629 8 105476083.151 4     -2779.708          31.000  
G27  22260359.122 9                     -3871.690          17.000  
C16  37097703.803 9                     -2504.941          25.000  
C13  38168756.837 9                       708.769          16.000  
> 2021  5 17  2 36 50.9960000  0  8                     
G21  19486244.309 9                      -150.817          31.000  
C 1  36348268.076 9                      -835.010          28.000  
C 7  35756640.714 8 186194190.651 3      -601.938          32.000  
C27  20610559.013 8 107324553.415 3     -2005.490          37.000  
G 8  20071959.917 8 105478860.449 4     -2777.172          32.000  
G27  22261095.779 9                     -3871.690          19.000  
C 6  36662949.702 9                     -2431.276          26.000  
C13  38168620.586 9                       708.769          15.000  
> 2021  5 17  2 36 51.9960000  0  8                     
G21  19486286.229 9                      -162.145          31.000  
C 3  35416564.689 9                      -823.156          32.000  
C 1  36348434.957 9                      -849.902          28.000  
C 7  35756757.033 8 186194793.411 4      -603.867          27.000  
C27  20610944.270 4 107326560.211 2     -2007.059          36.000  
G 8  20072488.392 9                     -2786.768          27.000  
G27  22261828.334 9                     -3871.690          22.000  
C13  38168482.131 9                       708.769          14.000  
> 2021  5 17  2 36 52.9960000  0  7                     
C 3  35416730.889 9                      -806.172          30.000  
C 1  36348594.351 9                      -843.994          27.000  
C 7  35756878.705 9                      -594.577          25.000  
C27  20611329.388 9                     -2011.009          27.000  
G 8  20073019.319 9                     -2778.672          27.000  
G27  22262558.683 9                     -3857.896          29.000  
C13  38168346.382 9                       708.769          13.000  
> 2021  5 17  2 36 53.9960000  0  6                     
C 3  35416884.613 9                      -828.188          28.000  
C 7  35756994.949 9                      -603.939          23.000  
C27  20611716.416 9                     -2010.808          26.000  
G 8  20073545.212 9                     -2775.242          26.000  
G27  22263292.621 9                     -3857.896          22.000  
C13  38168210.898 9                       708.769          11.000  
> 2021  5 17  2 36 54.9960000  0  6                     
G 7  19912178.115 9                      1309.734          13.000  
G21  19486376.913 9                      -155.515          31.000  
C 7  35757109.488 9                      -608.096          22.000  
C27  20612102.711 9                     -2012.717          27.000  
G 8  20074077.291 9                     -2788.510          31.000  
G27  22264026.285 9                     -3857.896          23.000  
> 2021  5 17  2 36 55.9960000  0  6                     
G 7  19911930.806 9                      1282.735          19.000  
C 7  35757226.239 9                      -615.531          29.000  
G 1  20349304.320 9                      2146.688          22.000  
C27  20612488.435 8 107334611.76234     -2014.834          37.000  
G 8  20074606.713 9                     -2791.405          30.000  
G27  22264760.403 9                     -3878.038          23.000  
> 2021  5 17  2 36 56.9960000  0  7                     
G 7  19911682.502 9                      1292.654          17.000  
C 3  35417354.316 9                      -822.938          30.000  
C 1  36349253.673 9                      -863.328          28.000  
C 7  35757342.235 9                      -613.563          29.000  
C27  20612878.051 9                     -2015.784          31.000  
G 8  20075136.140 9                     -2790.751          26.000  
G27  22265497.548 9                     -3878.038          24.000  
> 2021  5 17  2 36 57.9960000  0  6                     
G 7  19911436.803 9                      1282.357          16.000  
G21  19486466.490 9                      -157.113          27.000  
C 7  35757460.748 9 186198448.09234      -614.871          30.000  
C27  20613262.357 8 107338634.47734     -2017.994          35.000  
G 8  20075669.161 8 105498344.55634     -2793.974          32.000  
G27  22266236.835 9                     -3880.985          25.000  
> 2021  5 17  2 36 58.9960000  0  7                     
G 7  19911193.739 9                      1282.357          14.000  
G21  19486498.293 9                      -153.817          31.000  
C 7  35757576.447 8 186199062.34125      -612.321          29.000  
C27  20613653.203 8 107340651.42223     -2017.140          32.000  
G 8  20076201.515 8 105501135.98325     -2790.976          26.000  
G 1  20348067.562 9                      2145.821          25.000  
G27  22266975.023 9                     -3879.090          26.000  
> 2021  5 17  2 36 59.9960000  0  8                     
G 7  19910951.849 9                      1268.379          17.000  
G21  19486525.018 9                      -153.939          27.000  
C 3  35417829.429 9                      -819.000          31.000  
C 7  35757695.279 8 186199670.65235      -611.738          30.000  
C27  20614039.790 8 107342667.28625     -2016.722          32.000  
G 8  20076730.121 8 105503925.28724     -2788.443          32.000  
C 4  37289082.356 9                      -797.391          27.000  
G27  22267711.693 9                     -3876.390          28.000  
> 2021  5 17  2 37  0.9960000  0  7                     
G 7  19910712.584 9                      1266.182          16.000  
G21  19486554.373 9                      -155.526          28.000  
C10  36289509.864 9                      -753.013          12.000  
C 7  35757809.643 9                      -612.135          31.000  
C27  20614426.073 8 107344683.67823     -2017.337          35.000  
G 8  20077260.451 8 105506714.33923     -2789.297          32.000  
G27  22268453.750 9                     -3876.045          27.000  
> 2021  5 17  2 37  1.9960000  0  7                     
G 7  19910470.079 9                      1266.182          15.000  
G21  19486580.959 9                      -159.433          30.000  
C10  36289655.739 9                      -753.013          13.000  
C 7  35757928.584 9 186200878.36035      -612.708          31.000  
C27  20614811.788 8 107346700.64923     -2015.169          35.000  
G 8  20077794.393 9                     -2790.769          28.000  
G27  22269191.772 9                     -3876.543          26.000  
> 2021  5 17  2 37  2.9960000  0  8                     
G 7  19910231.395 9                      1266.182          13.000  
G21  19486619.546 9                      -159.677          28.000  
C10  36289795.943 9                      -753.013          13.000  
C 7  35758042.730 9                      -610.300          29.000  
C27  20615199.959 8 107348717.41823     -2015.558          34.000  
G 8  20078323.937 9                     -2788.639          28.000  
G27  22269933.284 9                     -3882.885          25.000  
C 1  36350218.482 9                      -837.344          28.000  
> 2021  5 17  2 37  3.9960000  0  8                     
G 7  19909990.599 9                      1266.182          11.000  
G21  19486651.680 9                      -158.090          28.000  
C10  36289940.850 9                      -753.013          13.000  
C 7  35758167.098 8                      -610.690          28.000  
C27  20615588.318 8 107350746.86135     -2017.985          34.000  
G 8  20078852.260 9                     -2786.466          27.000  
G27  22270671.101 9                     -3877.969          26.000  
C16  37104090.251 9                     -2450.000          11.000  
> 2021  5 17  2 37  4.9960000  0  5                     
G21  19486678.401 9                      -158.090          28.000  
C10  36290085.734 9                      -753.013          12.000  
C 7  35758283.425 9 186202733.82335      -612.656          28.000  
C27  20615974.457 8 107352765.66025     -2019.947          35.000  
G 8  20079385.905 9 105517884.46435     -2790.899          34.000  
> 2021  5 17  2 37  5.9960000  0  6                     
G21  19486712.137 9                      -158.090          29.000  
C10  36290229.677 9                      -753.013          11.000  
C 7  35758400.259 8 186203345.46424      -611.234          28.000  
C27  20616360.599 8 107354784.49624     -2019.927          31.000  
G 8  20079913.032 8 105520674.98424     -2790.920          31.000  
G27  22272139.781 9                     -3877.135          27.000  
> 2021  5 17  2 37  6.9960000  0  6                     
G 7  19909267.615 9                      1287.673          14.000  
G21  19486743.372 9                      -167.930          28.000  
C 7  35758518.872 8 186203956.17624      -611.096          27.000  
C27  20616749.290 8 107356802.93523     -2018.813          32.000  
G 8  20080447.899 8 105523464.69623     -2789.341          31.000  
G27  22272875.330 9 117044759.46834     -3875.533          32.000  
> 2021  5 17  2 37  7.9960000  0  5                     
G 7  19909018.203 9                      1287.489          14.000  
C 7  35758635.976 4 186204567.02123      -610.386          28.000  
C27  20617135.677 8 107358821.84423     -2017.909          33.000  
G 8  20080976.383 8 105526255.02124     -2790.476          32.000  
G27  22273614.643 8 117048635.30124     -3874.592          32.000  
> 2021  5 17  2 37  8.9960000  0  6                     
G21  19486804.540 9                      -164.911          32.000  
C 7  35758753.984 8 186205176.09925      -610.041          28.000  
C27  20617526.387 8 107360839.85924     -2018.602          32.000  
G 8  20081508.397 8 105529043.67523     -2788.123          31.000  
G27  22274356.923 8 117052509.10125     -3871.833          30.000  
C 6  36670924.971 9                     -2371.828          10.000  
> 2021  5 17  2 37  9.9960000  0  5                     
C 7  35758870.250 8 186205784.35625      -607.666          27.000  
C27  20617910.401 8 107362857.80124     -2017.234          31.000  
G 8  20082038.800 8 105531831.71524     -2786.509          30.000  
G27  22275093.986 8 117056381.15425     -3869.926          29.000  
C 6  36671381.900 9                     -2371.828          12.000  
> 2021  5 17  2 37 10.9960000  0  6                     
G21  19486856.502 9                      -169.024          30.000  
C 7  35758985.736 8 186206391.11125      -606.031          25.000  
C27  20618300.331 8 107364875.19524     -2017.796          25.000  
G 8  20082570.421 8 105534618.52124     -2786.226          28.000  
G27  22275826.197 8                     -3867.678          28.000  
C 6  36671839.441 9                     -2373.903          11.000  
> 2021  5 17  2 37 11.9960000  0  5                     
C30  21399957.641 9                       782.032          29.000  
C 7  35759102.281 9                      -605.513          25.000  
C27  20618685.086 8 107366891.72623     -2015.777          33.000  
G 8  20083099.734 8 105537403.80324     -2785.124          28.000  
G27  22276559.769 8                     -3866.069          29.000  
> 2021  5 17  2 37 12.9960000  0  5                     
G21  19486920.457 9                      -163.477          32.000  
C 7  35759217.361 9                      -604.052          26.000  
C27  20619074.043 8 107368908.31024     -2016.765          31.000  
G 8  20083629.008 8 105540187.76214     -2783.862          29.000  
G27  22277296.600 8 117067981.06825     -3864.650          28.000  
> 2021  5 17  2 37 13.9960000  0  4                     
C 7  35759333.366 9                      -605.197          26.000  
C27  20619462.873 8 107370924.66123     -2016.524          31.000  
G 8  20084156.240 8 105542971.500 4     -2784.377          28.000  
G27  22278032.759 8 117071843.70225     -3862.488          28.000  
> 2021  5 17  2 37 14.9960000  0  6                     
G21  19486977.807 9                      -169.049          31.000  
C 7  35759448.507 9                      -604.368          26.000  
C27  20619850.896 8 107372941.14913     -2017.735          30.000  
G 8  20084688.263 8 105545748.24535     -2784.774          28.000  
G27  22278769.276 8 117075706.84625     -3863.572          27.000  
C 6  36673665.383 9                     -2373.903          12.000  
> 2021  5 17  2 37 15.9960000  0  5                     
C 7  35759562.963 8 186209405.53135      -606.344          25.000  
C27  20620238.413 8 107374959.610 3     -2020.248          30.000  
G 8  20085214.744 8 105548534.45224     -2786.420          27.000  
G27  22279508.511 8 117079572.50925     -3867.041          27.000  
C 6  36674119.534 9                     -2373.903          11.000  
> 2021  5 17  2 37 16.9960000  0  5                     
G21  19487045.641 9                      -162.062          28.000  
C 7  35759680.765 8                      -605.883          24.000  
C27  20620622.444 8 107376978.891 4     -2019.640          29.000  
G 8  20085747.561 8 105551321.82224     -2788.379          27.000  
G27  22280242.646 8 117083439.20725     -3867.273          26.000  
> 2021  5 17  2 37 17.9960000  0  4                     
C 7  35759799.522 8                      -607.985          24.000  
C27  20621011.266 4 107378999.665 3     -2021.321          29.000  
G 8  20086279.264 4 105554111.13724     -2791.280          27.000  
G27  22280975.669 8                     -3870.767          27.000  
> 2021  5 17  2 37 18.9960000  0  5                     
G 7  19906319.715 9                      1304.892          10.000  
C 7  35759916.316 9                      -611.216          23.000  
C27  20621402.534 4 107381021.959 3     -2024.107          29.000  
G 8  20086807.260 8 105556903.17624     -2794.049          27.000  
G27  22281714.345 9                     -3868.714          25.000  
> 2021  5 17  2 37 19.9960000  0  6                     
G 7  19906068.174 9                      1277.765          29.000  
G21  19487137.036 9                      -158.691          31.000  
C 7  35760033.224 9                      -617.137          25.000  
C27  20621789.327 4 107383047.696 3     -2028.196          30.000  
G 8  20087339.526 4 105559700.74424     -2800.434          28.000  
G27  22282450.932 9                     -3887.375          22.000  
> 2021  5 17  2 37 20.9960000  0  5                     
G 7  19905801.098 9 104605818.56634      1273.857          34.000  
C 7  35760153.260 8                      -622.650          27.000  
C27  20622180.478 8 107385077.730 3     -2031.453          33.000  
G 8  20087873.333 8 105562505.20323     -2808.192          30.000  
G27  22283192.719 9                     -3897.427          20.000  
> 2021  5 17  2 37 21.9960000  0  6                     
G 7  19905553.288 8 104604545.62123      1271.805          31.000  
G21  19487223.018 9 102406047.69535      -164.642          34.000  
C 7  35760270.695 8 186213094.74935      -626.591          27.000  
C27  20622569.526 8 107387111.014 3     -2034.144          34.000  
G 8  20088413.753 9                     -2815.635          20.000  
G27  22283934.650 9                     -3903.307          23.000  
> 2021  5 17  2 37 22.9960000  0  6                     
G 7  19905309.796 8 104603274.80024      1269.631          26.000  
C 7  35760393.392 9                      -629.822          24.000  
C27  20622959.753 4 107389146.756 1     -2037.296          37.000  
G 8  20088949.231 9                     -2815.635          18.000  
G27  22284674.530 9 117106754.57835     -3905.645          31.000  
C28  24390150.464 9                     -3813.216          24.000  
> 2021  5 17  2 37 23.9960000  0  8                     
G 7  19905069.847 9                      1268.917          26.000  
G21  19487266.949 9                      -164.618          32.000  
C 7  35760513.842 9                      -629.822          20.000  
C27  20623349.364 4 107391184.867 1     -2038.540          35.000  
G 8  20089481.746 9                     -2813.850          16.000  
G27  22285420.052 8 117110661.65824     -3907.635          29.000  
C 6  36677787.404 9                     -2390.627          12.000  
C28  24390887.199 9 127009718.70035     -3816.206          26.000  
> 2021  5 17  2 37 24.9960000  0  8                     
G 7  19904830.674 9                      1267.673          27.000  
C 7  35760635.436 9                      -629.822          15.000  
C27  20623743.957 4 107393223.640 1     -2039.137          35.000  
G 8  20090015.596 9                     -2813.850          15.000  
G27  22286169.887 8 117114569.29524     -3907.648          30.000  
C 6  36678246.362 9                     -2390.627          12.000  
C13  38163370.867 9                       781.875          10.000  
C28  24391621.116 8 127013534.49424     -3815.251          28.000  
> 2021  5 17  2 37 25.9960000  0  9                     
G 7  19904589.080 8 104599320.74035      1267.754          27.000  
G21  19487331.248 9 102406615.98635      -165.375          35.000  
C 7  35760754.311 9                      -629.822          13.000  
C27  20624135.784 4 107395262.811 1     -2039.721          36.000  
G 8  20090549.429 9                     -2813.850          13.000  
G27  22286911.722 8 117118476.90023     -3907.809          29.000  
C 6  36678707.624 9                     -2390.627          13.000  
C13  38163221.484 9                       781.875          11.000  
C28  24392354.911 8 127017350.52124     -3816.342          28.000  
> 2021  5 17  2 37 26.9960000  0  8                     
G 7  19904346.453 8 104598053.68624      1266.781          27.000  
C 7  35760878.159 9                      -647.501          13.000  
C27  20624526.926 2 107397302.324 1     -2039.823          36.000  
G 8  20091086.786 9                     -2813.850          13.000  
C16  37115390.554 9                     -2471.875          30.000  
G27  22287656.537 4 117122384.41223     -3907.525          30.000  
C 6  36679168.009 9                     -2390.627          10.000  
C28  24393089.111 4 127021166.40723     -3815.862          28.000  
> 2021  5 17  2 37 27.9960000  0  7                     
G 7  19904105.731 4 104596786.34324      1267.574          27.000  
G21  19487411.834 9                      -165.607          35.000  
C 7  35761002.793 9                      -647.501          12.000  
C27  20624918.212 4 107399341.618 1     -2039.799          35.000  
G 8  20091623.642 9                     -2813.850          12.000  
G27  22288396.692 8 117126291.30723     -3907.241          30.000  
C28  24393822.666 4 127024981.76623     -3815.572          28.000  
> 2021  5 17  2 37 28.9960000  0  5                     
G 7  19903865.049 4 104595519.75024      1266.260          27.000  
C27  20625310.598 2 107401381.553 1     -2040.339          35.000  
G 8  20092159.608 9                     -2822.608          12.000  
G27  22289139.243 8 117130198.33823     -3906.791          30.000  
C28  24394555.043 4 127028797.36923     -3815.640          27.000  
> 2021  5 17  2 37 29.9960000  0  6                     
G 7  19903622.866 4 104594253.72624      1266.238          27.000  
G21  19487465.467 9 102407321.99535      -166.095          37.000  
C27  20625702.478 2 107403421.999 1     -2040.041          35.000  
G 8  20092694.418 9                     -2822.608          14.000  
G27  22289882.478 8 117134105.55624     -3907.099          30.000  
C28  24395288.153 4 127032613.16524     -3814.990          28.000  
> 2021  5 17  2 37 30.9960000  0  6                     
G 7  19903379.924 4 104592987.64924      1266.080          27.000  
G21  19487498.491 9 102407489.31722      -167.340          37.000  
C27  20626094.322 2 107405462.437 2     -2040.418          35.000  
G 8  20093230.297 9                     -2821.538          16.000  
G27  22290626.320 8 117138011.78614     -3906.839          30.000  
C28  24396020.564 4 127036428.56423     -3815.138          28.000  
> 2021  5 17  2 37 31.9960000  0  6                     
G 7  19903137.728 4 104591721.78724      1266.490          27.000  
G21  19487530.259 8 102407657.05722      -167.920          36.000  
C27  20626486.193 2 107407503.074 1     -2040.773          35.000  
G 8  20093765.652 9                     -2821.538          15.000  
G27  22291370.672 8 117141918.278 3     -3906.628          29.000  
C28  24396754.904 4 127040243.79823     -3815.395          28.000  
> 2021  5 17  2 37 32.9960000  0  6                     
G 7  19902896.370 4 104590457.11725      1264.720          27.000  
G21  19487561.809 4 102407826.09121      -169.446          36.000  
C27  20626878.365 2 107409544.768 1     -2042.229          35.000  
G 8  20094301.295 9                     -2821.538          15.000  
G27  22292114.069 8 117145825.403 3     -3907.379          29.000  
C28  24397488.197 4 127044059.70623     -3816.328          28.000  
> 2021  5 17  2 37 33.9960000  0  6                     
G 7  19902654.087 4 104589192.38624      1265.046          27.000  
G21  19487594.214 4 102407995.26521      -169.342          36.000  
C27  20627270.489 2 107411586.371 1     -2042.013          35.000  
G 8  20094839.054 9                     -2813.454          14.000  
G27  22292855.589 4 117149731.944 3     -3905.367          28.000  
C28  24398221.207 4 127047875.168 3     -3814.756          28.000  
> 2021  5 17  2 37 34.9960000  0  6                     
G 7  19902412.279 4 104587927.79823      1264.165          27.000  
G21  19487626.480 2 102408164.76621      -170.178          36.000  
C27  20627662.756 2 107413628.079 1     -2042.285          35.000  
G 8  20095375.339 9                     -2813.454          13.000  
G27  22293594.942 4 117153638.289 3     -3906.544          28.000  
C28  24398953.597 4 127051690.462 3     -3815.712          28.000  
> 2021  5 17  2 37 35.9960000  0  6                     
G 7  19902171.676 4 104586664.35724      1263.227          26.000  
G21  19487658.641 2 102408335.60721      -171.442          35.000  
C27  20628055.168 2 107415670.930 1     -2043.424          36.000  
G 8  20095909.970 9                     -2817.631          15.000  
G27  22294340.036 4 117157545.249 3     -3906.921          28.000  
C28  24399686.122 2 127055506.412 3     -3816.071          28.000  
> 2021  5 17  2 37 36.9960000  0  5                     
G 7  19901932.826 4 104585401.01814      1263.082          26.000  
C27  20628447.763 2 107417714.323 1     -2044.182          36.000  
G 8  20096448.941 9                     -2823.192          16.000  
G27  22295083.227 4 117161452.401 3     -3907.510          28.000  
C28  24400418.591 4 127059322.677 3     -3816.935          28.000  
> 2021  5 17  2 37 37.9960000  0  6                     
G 7  19901694.578 4 104584138.545 4      1262.065          26.000  
G21  19487728.921 9                      -170.605          35.000  
C27  20628840.302 2 107419757.947 1     -2043.823          36.000  
G 8  20096986.849 9                     -2824.401          16.000  
G27  22295826.415 4 117165359.309 3     -3906.124          28.000  
C28  24401152.320 4 127063138.728 3     -3815.853          27.000  
> 2021  5 17  2 37 38.9960000  0  6                     
G 7  19901454.912 4 104582875.636 4      1262.605          27.000  
G21  19487743.942 9                      -171.484          34.000  
C27  20629232.849 2 107421801.173 1     -2043.628          36.000  
G 8  20097526.379 9                     -2821.507          16.000  
G27  22296569.982 4 117169265.135 3     -3905.662          27.000  
C28  24401884.117 4 127066953.760 4     -3814.247          27.000  
> 2021  5 17  2 37 39.9960000  0  5                     
G 7  19901215.177 8                      1263.373          26.000  
C27  20629624.632 4 107423843.646 2     -2043.038          28.000  
G 8  20098063.968 9                     -2823.250          16.000  
G27  22297310.124 9                     -3918.750          29.000  
C28  24402617.323 9                     -3805.531          25.000  
> 2021  5 17  2 37 40.9960000  0  5                     
G 7  19900979.451 9                      1254.559          22.000  
G21  19487807.365 9                      -178.312          32.000  
C27  20630018.483 9                     -2044.575          20.000  
G27  22298054.480 9                     -3893.359          28.000  
C28  24403346.410 9                     -3802.000          25.000  
> 2021  5 17  2 37 41.9960000  0  5                     
G 7  19900741.233 9                      1254.559          19.000  
C27  20630410.825 9                     -2038.683          19.000  
G 8  20099134.120 9                     -2812.081          28.000  
G27  22298792.350 9 117180957.76235     -3888.276          28.000  
C28  24404074.651 9                     -3798.034          22.000  
> 2021  5 17  2 37 42.9960000  0  5                     
G 7  19900501.332 9                      1254.559          12.000  
C27  20630801.824 9                     -2036.110          29.000  
G 8  20099669.096 9                     -2804.986          25.000  
G27  22299538.748 9                     -3883.322          26.000  
C28  24404805.894 9                     -3802.905          19.000  
> 2021  5 17  2 37 43.9960000  0  6                     
G 7  19900261.985 9                      1254.559          12.000  
G21  19487916.311 9                      -180.800          26.000  
C27  20631191.884 9                     -2035.337          28.000  
G 8  20100201.140 9                     -2800.642          25.000  
G27  22300279.025 9                     -3888.065          23.000  
C28  24405535.736 9                     -3802.905          16.000  
> 2021  5 17  2 37 44.9960000  0  6                     
G 7  19900021.551 9                      1254.559          11.000  
G21  19487949.675 9                      -182.675          27.000  
C27  20631580.295 8 107434036.86235     -2033.594          27.000  
G 8  20100735.854 9                     -2800.553          26.000  
G27  22301013.893 9                     -3878.135          21.000  
C28  24406265.426 9                     -3802.905          14.000  
> 2021  5 17  2 37 45.9960000  0  5                     
G 7  19899783.818 9                      1254.559          12.000  
C27  20631970.295 8 107436071.12225     -2034.306          27.000  
G 8  20101267.457 9                     -2799.876          26.000  
G27  22301751.614 9                     -3875.888          19.000  
C28  24406993.977 9                     -3791.140          14.000  
> 2021  5 17  2 37 46.9970000  0  5                     
G 7  19899541.954 9                      1269.198          25.000  
C27  20632361.677 9                     -2034.091          26.000  
G 8  20101800.583 9                     -2794.045          25.000  
G27  22302490.457 9                     -3874.324          19.000  
C28  24407719.880 9                     -3779.269          16.000  
> 2021  5 17  2 37 47.9970000  0  6                     
G 7  19899296.146 9                      1269.218          16.000  
G21  19488050.464 9                      -182.000          25.000  
C27  20632752.418 9                     -2030.907          25.000  
G 8  20102332.108 9                     -2793.743          24.000  
G27  22303228.505 9                     -3869.051          21.000  
C28  24408443.335 9                     -3777.345          18.000  
> 2021  5 17  2 37 48.9970000  0  6                     
G 7  19899054.020 9                      1269.218          15.000  
G21  19488087.227 9                      -182.000          24.000  
C27  20633143.032 9                     -2031.827          24.000  
G 8  20102864.274 9                     -2787.331          22.000  
G27  22303968.459 9                     -3881.995          18.000  
C28  24409167.244 9                     -3780.158          18.000  
> 2021  5 17  2 37 49.9970000  0  5                     
G 7  19898814.620 9                      1244.226          19.000  
C27  20633531.365 9                     -2031.955          25.000  
G 8  20103395.690 9                     -2792.079          25.000  
G27  22304704.527 9                     -3865.258          19.000  
C28  24409889.736 9                     -3760.941          16.000  
> 2021  5 17  2 37 50.9970000  0  5                     
G 7  19898578.876 9                      1242.109          17.000  
C27  20633921.251 9                     -2027.920          26.000  
G 8  20103927.171 9                     -2789.442          27.000  
G27  22305441.236 9                     -3871.083          19.000  
C28  24410610.696 9                     -3760.941          15.000  
> 2021  5 17  2 37 51.9970000  0  5                     
G 7  19898340.856 9                      1242.109          16.000  
C27  20634312.629 9                     -2031.449          26.000  
G 8  20104457.749 9                     -2788.261          26.000  
G27  22306170.502 9                     -3857.840          29.000  
C28  24411335.172 9                     -3767.122          14.000  
> 2021  5 17  2 37 52.9970000  0  6                     
G 7  19898103.807 9                      1242.109          14.000  
G21  19488226.213 9                      -189.014          31.000  
C27  20634702.458 9 107450278.54735     -2029.879          28.000  
G 8  20104987.861 8                     -2790.041          28.000  
G27  22306903.621 9                     -3864.391          17.000  
C28  24412056.935 9                     -3769.872          17.000  
> 2021  5 17  2 37 53.9970000  0  5                     
G 7  19897865.935 9                      1242.109          16.000  
C27  20635091.969 8 107452308.94223     -2030.464          32.000  
G 8  20105517.375 8 105655213.65733     -2788.798          32.000  
G27  22307638.751 9                     -3854.917          18.000  
C28  24412779.404 9                     -3767.221          18.000  
> 2021  5 17  2 37 54.9970000  0  6                     
G 7  19897629.685 9                      1248.726          15.000  
G21  19488325.475 9                      -189.688          30.000  
C27  20635482.565 9                     -2030.249          34.000  
G 8  20106053.393 8 105658003.43624     -2790.538          32.000  
G27  22308372.868 9                     -3851.960          21.000  
C28  24413501.765 9                     -3760.435          19.000  
> 2021  5 17  2 37 55.9970000  0  6                     
G 7  19897379.658 9                      1269.616          34.000  
G21  19488358.233 9                      -188.721          29.000  
C27  20635871.531 8 107456372.93833     -2032.177          36.000  
G 8  20106578.640 8 105660794.23923     -2790.144          32.000  
G27  22309104.578 9                     -3859.621          22.000  
C28  24414226.948 9                     -3774.202          20.000  
> 2021  5 17  2 37 56.9970000  0  5                     
G 7  19897136.053 9                      1261.174          22.000  
C27  20636261.840 4 107458405.05522     -2028.353          33.000  
G 8  20107111.356 9                     -2788.281          31.000  
G27  22309836.331 9                     -3865.418          23.000  
C28  24414952.341 9                     -3774.257          21.000  
> 2021  5 17  2 37 57.9970000  0  7                     
G 7  19896894.760 9                      1243.708          21.000  
G21  19488396.645 9                      -192.376          34.000  
C 7  35764540.018 9                      -599.198          29.000  
C27  20636652.406 8 107460437.56425     -2029.191          31.000  
G 8  20107642.109 9                     -2792.216          31.000  
G27  22310572.285 9                     -3869.172          22.000  
C28  24415677.249 9                     -3765.250          20.000  
> 2021  5 17  2 37 58.9970000  0  7                     
G 7  19896650.335 9                      1258.249          21.000  
C10  36297569.138 9                      -752.715          17.000  
C 7  35764655.996 9 186235913.03335      -599.768          30.000  
C27  20637042.497 8 107462464.00635     -2033.917          35.000  
G 8  20108175.239 8 105669165.39534     -2794.234          31.000  
G27  22311306.250 9                     -3877.476          23.000  
C28  24416400.425 9                     -3774.359          21.000  
> 2021  5 17  2 37 59.9970000  0  9                     
G 7  19896407.110 9                      1251.334          21.000  
G21  19488503.859 9                      -192.781          31.000  
C10  36297715.358 9                      -752.715          15.000  
C 7  35764773.013 9                      -603.248          25.000  
G 1  20323284.470 9                      2131.123          31.000  
C27  20637432.937 9                     -2037.628          30.000  
G 8  20108709.015 9                     -2796.234          27.000  
G27  22312042.396 9                     -3869.040          26.000  
C28  24417123.675 9                     -3768.113          21.000  
> 2021  5 17  2 38  0.9970000  0  8                     
G 7  19896163.156 9                      1262.752          30.000  
G21  19488547.393 9                      -196.250          36.000  
C10  36297862.638 9                      -752.715          14.000  
C 7  35764885.968 9                      -603.751          30.000  
C27  20637823.455 9 107466530.30835     -2037.688          34.000  
G 8  20109237.931 9                     -2797.369          27.000  
G27  22312779.035 9                     -3867.137          25.000  
C28  24417848.968 9                     -3786.136          22.000  
> 2021  5 17  2 38  1.9970000  0  7                     
G21  19488571.776 9                      -194.830          34.000  
C10  36298005.468 9                      -752.715          13.000  
C 7  35765002.204 9 186237720.44635      -605.919          34.000  
C27  20638217.128 9 107468569.45725     -2039.275          38.000  
G 8  20109773.758 9 105677573.89835     -2803.138          32.000  
G27  22313516.660 9                     -3870.520          25.000  
C28  24418577.200 9                     -3797.551          21.000  
> 2021  5 17  2 38  2.9970000  0  6                     
C10  36298149.279 9                      -752.715          12.000  
C 7  35765120.639 8 186238328.18725      -609.753          27.000  
C27  20638611.656 8 107470635.28033     -2041.029          40.000  
G 8  20110306.744 9                     -2811.802          26.000  
G27  22314253.609 9                     -3874.694          24.000  
C28  24419305.843 9                     -3793.298          22.000  
> 2021  5 17  2 38  3.9970000  0  8                     
C10  36298297.501 9                      -752.715          14.000  
C 7  35765237.852 9                      -611.580          32.000  
G 1  20321678.535 9                      2121.814          34.000  
C27  20639002.074 9                     -2043.079          38.000  
G 8  20110840.947 9                     -2806.753          35.000  
C 8  37397553.006 9                       868.945          29.000  
G27  22314993.228 9                     -3873.060          24.000  
C28  24420035.794 9                     -3793.995          23.000  
> 2021  5 17  2 38  4.9970000  0  8                     
G21  19488679.439 9                      -175.228          25.000  
C10  36298416.185 9                      -721.343          25.000  
C 7  35765355.213 9                      -613.060          30.000  
C27  20639393.766 9 107474713.33134     -2045.710          40.000  
G 8  20111374.143 9                     -2805.762          27.000  
C16  37133498.745 9                     -2480.127          31.000  
G27  22315734.788 9                     -3878.591          23.000  
C28  24420760.689 9                     -3797.566          26.000  
> 2021  5 17  2 38  5.9970000  0  8                     
G 7  19894947.957 9                      1255.725          36.000  
C10  36298520.480 9                      -726.648          35.000  
C 7  35765473.966 8 186240174.38135      -617.086          30.000  
C27  20639788.319 9                     -2048.879          35.000  
G 8  20111911.811 9                     -2814.614          35.000  
G27  22316469.294 9                     -3894.732          29.000  
C28  24421491.225 9                     -3813.177          25.000  
G30  22891918.079 9                      2510.040          11.000  
> 2021  5 17  2 38  6.9970000  0  8                     
G 7  19894712.043 9 104547402.36633      1255.023          33.000  
C10  36298659.009 9 189016617.99633      -728.333          36.000  
C 7  35765591.725 8 186240793.06123      -619.269          36.000  
C27  20640182.023 8 107478812.11034     -2050.724          37.000  
G 8  20112443.257 9 105691602.48334     -2817.688          33.000  
G27  22317205.148 9                     -3894.135          29.000  
C28  24422221.416 9                     -3804.495          25.000  
G30  22891436.553 9                      2537.628          13.000  
> 2021  5 17  2 38  7.9970000  0 10                     
G21  19488790.178 9                      -191.505          27.000  
G 7  19894473.320 8 104546149.12122      1251.318          35.000  
C10  36298795.221 8 189017346.50422      -730.076          35.000  
C 7  35765710.059 8 186241412.66622      -619.224          34.000  
G 1  20320048.436 9                      2138.657          31.000  
C27  20640574.500 8 107480862.48422     -2049.958          37.000  
G 8  20112979.712 8 105694421.33435     -2819.374          36.000  
G27  22317949.945 9                     -3891.058          29.000  
C28  24422950.299 9                     -3810.111          31.000  
G30  22890952.026 9                      2507.599          13.000  
> 2021  5 17  2 38  8.9970000  0  9                     
G21  19488831.531 9                      -192.004          28.000  
G 7  19894234.479 8 104544896.68322      1249.908          35.000  
C10  36298937.397 4 189018075.60422      -728.918          33.000  
C 7  35765829.070 8 186242033.52522      -619.855          32.000  
C27  20640969.717 4 107482914.06221     -2053.177          37.000  
G 8  20113518.317 8 105697241.18723     -2820.637          33.000  
G27  22318695.514 9                     -3906.602          19.000  
C28  24423684.556 9                     -3817.763          23.000  
G30  22890474.780 9                      2471.710          13.000  
> 2021  5 17  2 38  9.9970000  0 11                     
G 7  19893995.786 4 104543646.18922      1249.225          34.000  
C 3  35428800.712 9                      -801.695          29.000  
C10  36299078.674 4 189018806.52721      -732.588          36.000  
C 7  35765949.485 4 186242656.68122      -624.924          33.000  
C 1  36360974.893 9                      -821.547          28.000  
G 1  20319231.867 9                      2139.209          27.000  
C27  20641362.032 2 107484967.77121     -2055.033          37.000  
G 8  20114055.107 8 105700063.81123     -2823.810          32.000  
G27  22319438.915 9                     -3897.426          20.000  
C28  24424413.194 9                     -3806.006          31.000  
G30  22889994.537 9                      2488.556          14.000  
> 2021  5 17  2 38 10.9970000  0 13                     
G21  19488904.198 9                      -193.412          33.000  
G 7  19893757.722 4 104542397.77721      1247.559          34.000  
C 3  35428952.171 9                      -806.445          28.000  
C10  36299219.436 4 189019539.20422      -732.740          34.000  
C 7  35766071.671 8 186243281.78623      -625.533          31.000  
C 1  36361132.381 9                      -820.898          28.000  
G 1  20318823.636 9                      2138.807          26.000  
C27  20641757.646 2 107487023.61321     -2056.527          39.000  
G 8  20114587.522 8 105702889.05123     -2825.687          31.000  
C16  37136349.919 9 193378687.74734     -2461.464          33.000  
G27  22320178.817 9                     -3909.633          23.000  
C28  24425143.756 9                     -3815.624          25.000  
G30  22889496.700 9                      2488.556          19.000  
> 2021  5 17  2 38 11.9970000  0 14                     
G21  19488938.422 9 102415075.69134      -193.283          28.000  
G 7  19893520.403 4 104541150.60121      1246.643          33.000  
C 3  35429097.824 9                      -803.378          28.000  
C10  36299360.826 4 189020272.87521      -734.023          34.000  
C 7  35766189.329 4 186243908.25322      -626.857          32.000  
C 1  36361289.572 9 189342745.24535      -831.204          28.000  
G 1  20318412.156 9 106774004.72835      2139.302          26.000  
C27  20642152.471 2 107489080.83721     -2057.373          39.000  
G 8  20115130.586 8 105705715.96423     -2827.443          30.000  
C 8  37396195.309 9                       887.595          27.000  
C16  37136816.573 8 193381149.24822     -2460.295          32.000  
G27  22320915.635 9                     -3905.991          25.000  
C28  24425879.959 9 127191935.32434     -3817.167          31.000  
G30  22889002.967 9                      2488.556          21.000  
> 2021  5 17  2 38 12.9970000  0 15                     
G21  19488977.572 9 102415269.71525      -194.123          29.000  
G 7  19893283.163 4 104539903.77522      1246.533          33.000  
C 3  35429253.118 9                      -799.072          28.000  
C10  36299500.991 2 189021006.35921      -732.965          34.000  
C 7  35766310.735 4 186244534.63422      -626.601          32.000  
C 1  36361451.379 9                      -830.281          28.000  
G 1  20318006.621 8 106771865.24624      2140.021          26.000  
C27  20642548.172 1 107491138.40021     -2057.445          39.000  
G 8  20115666.417 4 105708543.10623     -2827.544          30.000  
C 8  37396022.229 9 194730883.15834       886.870          27.000  
C16  37137286.149 8 193383610.47722     -2461.602          32.000  
G27  22321659.857 8                     -3906.027          26.000  
G 4  22773948.970 9                     -3706.719          22.000  
C28  24426613.893 8 127195752.80222     -3816.935          32.000  
G30  22888509.807 9                      2488.556          24.000  
> 2021  5 17  2 38 13.9970000  0 15                     
G21  19489012.014 8 102415463.85324      -194.934          30.000  
G 7  19893046.320 4 104538656.88622      1246.649          34.000  
C 3  35429408.948 9                      -802.246          28.000  
C10  36299641.923 2 189021739.29421      -732.991          35.000  
C 7  35766430.208 4 186245160.41222      -625.588          32.000  
C 1  36361608.911 9                      -828.973          29.000  
G 1  20317598.836 8 106769725.72225      2139.801          26.000  
C27  20642942.944 1 107493195.84221     -2057.479          39.000  
G 8  20116203.474 8 105711369.86323     -2826.193          31.000  
C 8  37395852.569 9 194729995.52323       887.635          28.000  
C16  37137761.829 4 193386071.19222     -2461.088          32.000  
G27  22322405.867 8                     -3905.779          27.000  
G 4  22774649.090 9                     -3706.719          23.000  
C28  24427346.222 4 127199569.84722     -3816.977          32.000  
G30  22888014.504 9                      2488.556          26.000  
> 2021  5 17  2 38 14.9970000  0 15                     
G21  19489047.006 8 102415658.41023      -194.536          30.000  
G 7  19892808.744 4 104537410.28022      1246.997          34.000  
C 3  35429559.962 9                      -797.656          28.000  
C10  36299781.040 4 189022471.95822      -732.719          35.000  
C 7  35766550.261 9                      -625.935          33.000  
C 1  36361772.123 9 189345258.03135      -829.705          29.000  
G 1  20317187.050 8                      2139.866          26.000  
C27  20643338.396 2 107495253.01211     -2057.478          41.000  
G 8  20116742.432 8 105714196.75123     -2827.633          31.000  
C 8  37395686.679 9                       889.266          28.000  
C16  37138234.176 8 193388499.73935     -2460.368          33.000  
G27  22323150.406 8 117308939.82134     -3905.416          27.000  
G 4  22775346.720 9                     -3706.719          25.000  
C28  24428082.399 4 127203386.77322     -3816.831          33.000  
G30  22887521.758 9                      2488.556          27.000  
> 2021  5 17  2 38 15.9970000  0 16                     
G21  19489090.431 8 102415853.67323      -196.252          30.000  
G 7  19892571.565 4 104536164.21622      1245.508          34.000  
C 3  35429714.462 9                      -810.746          28.000  
C10  36299921.174 4 189023204.13411      -733.247          35.000  
C 7  35766670.672 8 186246406.49733      -626.118          33.000  
C 1  36361932.072 9                      -815.771          29.000  
G 1  20316781.062 8 106765447.56325      2138.620          26.000  
C27  20643732.915 2 107497311.186 1     -2058.414          40.000  
G 8  20117282.368 8 105717023.90024     -2828.012          30.000  
C 8  37395514.515 8 194728234.23535       888.170          28.000  
C16  37138706.056 8 193390960.44523     -2460.871          32.000  
G27  22323892.058 4 117312845.12424     -3905.261          27.000  
C 4  37301117.370 9                      -837.141          28.000  
G 4  22776055.334 9                     -3706.719          25.000  
C28  24428815.260 4 127207203.75622     -3817.123          33.000  
G30  22887036.206 9                      2485.850          27.000  
> 2021  5 17  2 38 16.9970000  0 16                     
G21  19489128.023 8 102416049.67623      -196.165          30.000  
G 7  19892334.547 4 104534918.64422      1245.715          34.000  
C 3  35429869.551 9                      -783.545          28.000  
C10  36300061.230 4 189023936.738 1      -732.521          35.000  
C 7  35766790.808 4 186247031.96022      -625.447          33.000  
C 1  36362092.173 9                      -834.473          29.000  
G 1  20316372.491 8 106763309.02225      2139.167          26.000  
C27  20644129.406 2 107499369.812 1     -2059.075          40.000  
G 8  20117816.703 8 105719851.25823     -2827.025          30.000  
C 8  37395345.566 8 194727346.86924       886.593          28.000  
C16  37139179.145 4 193393421.23022     -2461.279          32.000  
G27  22324636.057 4 117316750.47224     -3905.426          27.000  
C 4  37301279.788 9                      -831.494          28.000  
G 4  22776762.931 9                     -3706.719          25.000  
C28  24429544.269 4 127211020.92022     -3817.643          33.000  
G30  22886554.410 9 120269655.07635      2484.595          28.000  
> 2021  5 17  2 38 17.9970000  0 16                     
G21  19489164.769 8 102416245.98523      -195.672          30.000  
G 7  19892097.477 2 104533673.30822      1244.977          34.000  
C 3  35430022.589 9                      -824.951          28.000  
C10  36300205.242 4 189024669.005 1      -732.480          35.000  
C 7  35766910.852 4 186247657.12222      -624.971          33.000  
C 1  36362251.459 9                      -823.047          29.000  
G 1  20315962.826 8                      2138.615          25.000  
C27  20644524.732 2 107501428.569 1     -2058.868          40.000  
G 8  20118359.688 8 105722678.56323     -2826.370          30.000  
C 8  37395176.186 4 194726459.21823       887.250          28.000  
C16  37139654.759 8 193395881.81123     -2461.021          32.000  
G27  22325379.200 4 117320655.53524     -3904.519          27.000  
C 4  37301435.920 9                      -764.551          28.000  
G 4  22777471.297 9                     -3701.746          25.000  
C28  24430280.498 4 127214837.82722     -3817.164          32.000  
G30  22886073.660 8 120267169.70223      2485.480          29.000  
> 2021  5 17  2 38 18.9970000  0 16                     
G21  19489202.632 8 102416442.91423      -197.455          30.000  
G 7  19891860.743 4 104532428.29622      1244.574          34.000  
C 3  35430178.978 9                      -806.641          28.000  
C10  36300343.932 4 189025401.131 2      -732.085          35.000  
C 7  35767031.062 4 186248282.15122      -625.276          33.000  
C 1  36362410.600 9                      -832.365          29.000  
G 1  20315556.122 8 106759032.72225      2137.483          25.000  
C27  20644920.206 2 107503487.687 1     -2059.393          40.000  
G 8  20118892.238 8 105725506.142 3     -2828.536          31.000  
C 8  37395002.268 4 194725571.56023       887.292          28.000  
C16  37140126.975 4 193398342.33722     -2460.352          32.000  
G27  22326123.923 4 117324560.51824     -3905.017          28.000  
C 4  37301578.344 9                      -757.959          27.000  
G 4  22778177.983 9                     -3698.557          25.000  
C28  24431015.170 4 127218654.71722     -3816.906          32.000  
G30  22885596.087 8 120264684.49223      2484.644          29.000  
> 2021  5 17  2 38 19.9970000  0 16                     
G21  19489237.960 8 102416640.64223      -198.211          31.000  
G 7  19891623.665 4 104531183.93122      1243.860          34.000  
C 3  35430332.880 9                      -797.655          27.000  
C10  36300483.979 4 189026133.315 2      -732.120          35.000  
C 7  35767151.164 4 186248907.23522      -624.908          33.000  
C 1  36362570.549 9                      -833.154          29.000  
G 1  20315149.105 8                      2136.940          25.000  
C27  20645314.328 2 107505547.365 1     -2060.391          39.000  
G 8  20119432.401 8 105728333.922 3     -2827.542          30.000  
C 8  37394834.354 4 194724684.07423       887.175          28.000  
C16  37140597.485 4 193400803.10823     -2461.058          32.000  
G27  22326866.688 4 117328465.60724     -3904.845          28.000  
C 4  37301740.033 9                      -849.658          27.000  
G 4  22778883.290 9                     -3702.410          25.000  
C28  24431748.672 4 127222471.80022     -3817.568          32.000  
G30  22885116.612 8 120262199.52423      2484.259          29.000  
> 2021  5 17  2 38 20.9970000  0 15                     
G21  19489275.813 8 102416839.17423      -198.133          31.000  
G 7  19891387.101 4 104529940.20722      1243.591          35.000  
C 3  35430486.621 9                      -796.826          28.000  
C10  36300624.728 4 189026865.644 2      -732.437          34.000  
C 7  35767271.465 4 186249532.44722      -625.679          33.000  
C 1  36362730.629 9                      -844.678          28.000  
G 1  20314740.342 8 106754758.34625      2136.389          25.000  
C27  20645710.409 2 107507607.616 1     -2060.540          40.000  
G 8  20119972.943 8 105731162.250 3     -2828.796          30.000  
C 8  37394664.563 4 194723796.80223       887.387          28.000  
C16  37141071.477 4 193403264.08822     -2461.104          32.000  
G27  22327611.402 4 117332370.97723     -3905.797          27.000  
G 4  22779588.824 9                     -3706.880          25.000  
C28  24432481.368 4 127226289.14422     -3817.575          32.000  
G30  22884647.489 8 120259714.87123      2484.381          29.000  
> 2021  5 17  2 38 21.9970000  0 15                     
G21  19489320.595 8 102417038.52823      -199.944          31.000  
G 7  19891150.306 4 104528697.07722      1243.494          34.000  
C 3  35430642.748 9                      -833.154          28.000  
C10  36300766.044 4 189027597.986 2      -732.768          35.000  
C 7  35767391.876 4 186250157.67822      -624.659          33.000  
C 1  36362890.708 9                      -830.664          28.000  
G 1  20314336.313 8 106752621.90725      2136.150          25.000  
C27  20646105.338 1 107509668.413 1     -2060.530          40.000  
G 8  20120509.803 8                     -2829.895          30.000  
C 8  37394491.151 4 194722909.95324       886.746          28.000  
C16  37141543.187 4 193405725.30323     -2461.218          31.000  
G27  22328353.970 4 117336276.34023     -3905.167          27.000  
G 4  22780293.686 9                     -3701.943          25.000  
C28  24433215.621 4 127230106.65923     -3816.990          32.000  
G30  22884175.247 8 120257230.44023      2485.199          30.000  
> 2021  5 17  2 38 22.9970000  0 16                     
G21  19489356.992 8 102417238.38823      -200.791          31.000  
G 7  19890913.855 4 104527454.21022      1242.871          34.000  
C 3  35430799.316 9                      -794.189          28.000  
C10  36300906.235 2 189028330.039 1      -731.889          34.000  
C 7  35767512.034 4 186250782.60022      -624.336          34.000  
C 1  36363051.050 9                      -841.113          28.000  
G 1  20313932.131 8                      2138.753          23.000  
C27  20646501.344 1 107511729.396 1     -2060.646          40.000  
G 8  20121051.611 8 105736839.40635     -2828.356          29.000  
C 8  37394322.683 4 194722023.03523       886.773          28.000  
C16  37142016.127 8 193408186.59723     -2461.403          32.000  
G27  22329096.629 4 117340181.38524     -3904.447          26.000  
C 6  36705454.707 9                     -2384.694          18.000  
G 4  22780998.618 9                     -3702.647          24.000  
C28  24433947.875 4 127233923.94823     -3816.587          31.000  
G30  22883702.219 8 120254745.94324      2485.150          30.000  
> 2021  5 17  2 38 23.9970000  0 15                     
G21  19489391.360 8 102417438.84623      -201.244          32.000  
G 7  19890677.523 4 104526211.32122      1242.383          34.000  
C 3  35430951.294 9                      -798.145          27.000  
C10  36301046.892 4 189029061.383 2      -730.934          33.000  
C 7  35767631.651 4 186251406.66322      -623.505          32.000  
C 1  36363205.554 9                      -748.047          27.000  
G 1  20313528.608 9                      2137.329          22.000  
C27  20646897.289 4 107513790.187 2     -2060.967          34.000  
G 8  20121589.741 8 105739667.31224     -2828.347          30.000  
C 8  37394152.543 4 194721136.62224       886.377          27.000  
C16  37142489.377 8 193410648.66724     -2461.822          25.000  
G27  22329840.436 9                     -3903.956          26.000  
C 6  36705914.341 9                     -2384.694          17.000  
C28  24434677.089 9                     -3819.037          23.000  
G30  22883222.360 9                      2484.293          28.000  
> 2021  5 17  2 38 24.9970000  0 15                     
G21  19489432.739 8 102417639.88223      -201.985          30.000  
G 7  19890441.159 2 104524968.904 1      1241.949          34.000  
C 3  35431105.428 9                      -804.639          27.000  
C10  36301187.484 4 189029792.701 2      -731.764          33.000  
C 7  35767751.421 4 186252030.81323      -624.651          30.000  
C30  21389035.554 9                       774.387          16.000  
G 1  20313124.072 9                      2134.711          24.000  
C27  20647293.082 4 107515851.539 2     -2061.096          33.000  
G 8  20122126.488 8 105742495.61223     -2828.021          30.000  
C 8  37393983.263 4 194720250.12223       886.077          28.000  
C16  37142962.038 4 193413110.46624     -2461.336          27.000  
G27  22330584.020 9                     -3911.847          22.000  
C 6  36706377.313 9                     -2384.694          15.000  
C28  24435410.714 9                     -3813.554          22.000  
G30  22882755.035 8 120249689.01435      2484.137          28.000  
> 2021  5 17  2 38 25.9970000  0 13                     
G21  19489473.232 8 102417842.01423      -202.687          31.000  
G 7  19890205.232 2 104523727.497 1      1240.399          35.000  
C10  36301328.194 4 189030524.406 2      -731.480          33.000  
C 7  35767872.468 8 186252655.20523      -623.811          31.000  
G 1  20312716.841 9                      2134.393          25.000  
C27  20647689.316 4 107517913.698 2     -2062.958          32.000  
G 8  20122661.673 4 105745324.61423     -2829.015          30.000  
C 8  37393811.849 4 194719364.12525       885.025          27.000  
C16  37143436.370 4 193415572.44823     -2460.762          29.000  
G27  22331328.499 9                     -3902.467          19.000  
C 6  36706835.272 9                     -2384.694          15.000  
C28  24436144.954 9                     -3825.993          21.000  
G30  22882279.630 8 120247204.73524      2484.406          28.000  
> 2021  5 17  2 38 26.9970000  0 11                     
G21  19489507.491 8 102418045.11523      -203.870          30.000  
G 7  19889969.183 4 104522486.378 2      1241.028          35.000  
C10  36301468.799 4 189031255.870 2      -730.362          32.000  
C 7  35767992.984 9                      -624.361          29.000  
G 1  20312316.616 9 106741943.74535      2131.990          30.000  
C27  20648084.563 4 107519976.076 3     -2062.202          35.000  
G 8  20123195.745 8 105748153.44223     -2828.403          30.000  
C16  37143911.334 8 193418035.52524     -2463.018          28.000  
G27  22332073.348 9                     -3901.532          16.000  
C28  24436879.691 9                     -3822.751          20.000  
G30  22881804.024 8 120244720.52023      2484.521          30.000  
> 2021  5 17  2 38 27.9970000  0 12                     
G21  19489543.997 8 102418248.88725      -204.704          29.000  
G 7  19889734.753 4 104521244.999 2      1243.817          33.000  
C10  36301610.835 8 189031986.314 3      -728.707          32.000  
C 7  35768109.927 8 186253916.16135      -620.896          29.000  
G 1  20311910.990 9                      2128.267          21.000  
C27  20648481.503 8 107522038.212 3     -2062.277          35.000  
G 8  20123740.567 8 105750981.14123     -2825.893          33.000  
C16  37144383.297 8 193420499.945 5     -2464.162          26.000  
G27  22332817.727 9                     -3902.111          19.000  
C 4  37303009.262 9                      -871.436          27.000  
C28  24437613.826 9                     -3800.575          18.000  
G30  22881327.062 4 120242235.15322      2485.785          32.000  
> 2021  5 17  2 38 28.9970000  0 13                     
G21  19489582.379 8 102418453.38723      -206.011          33.000  
G 7  19889497.683 4 104520003.364 2      1239.661          33.000  
C10  36301748.762 8 189032715.584 4      -728.307          31.000  
C 7  35768228.706 8 186254537.54525      -620.233          29.000  
C 1  36363994.862 9                      -825.244          28.000  
G 1  20311510.699 9                      2129.552          23.000  
C27  20648878.949 8 107524099.400 3     -2058.364          31.000  
G 8  20124277.969 8 105753807.57023     -2826.082          33.000  
C16  37144853.061 9                     -2459.212          24.000  
G27  22333560.150 9                     -3903.122          20.000  
C 4  37303174.524 9                      -816.797          28.000  
C28  24438346.465 9                     -3820.418          18.000  
G30  22880853.947 4 120239748.74122      2487.244          28.000  
> 2021  5 17  2 38 29.9970000  0 13                     
G21  19489624.617 8 102418659.41924      -210.801          32.000  
G 7  19889259.234 9                      1244.672          33.000  
C 3  35431875.593 9                      -811.621          29.000  
C10  36301890.689 9                      -730.301          30.000  
C 7  35768349.047 8 186255155.96124      -616.497          29.000  
C 1  36364166.699 9                      -970.850          27.000  
G 1  20311100.580 9                      2130.319          22.000  
C27  20649273.686 8 107526159.332 2     -2058.223          34.000  
G 8  20124815.221 8 105756630.93022     -2821.135          33.000  
C16  37145328.082 9                     -2470.107          23.000  
G27  22334301.776 9                     -3897.552          19.000  
C28  24439076.281 9                     -3806.008          19.000  
G30  22880380.509 8 120237259.54523      2489.520          32.000  
> 2021  5 17  2 38 30.9970000  0 11                     
G21  19489662.096 9                      -208.420          27.000  
G 7  19889019.298 8 104517518.11934      1243.915          32.000  
C10  36302028.389 9                      -725.443          30.000  
C 7  35768464.319 8 186255771.09424      -613.986          29.000  
G 1  20310696.472 9                      2126.220          22.000  
C27  20649669.196 4 107528217.388 2     -2057.928          34.000  
G 8  20125351.859 8 105759451.088 3     -2819.036          31.000  
C16  37145802.026 9                     -2469.111          22.000  
G27  22335041.155 9                     -3889.391          20.000  
C28  24439805.019 9                     -3808.031          20.000  
G30  22879906.828 9                      2492.681          26.000  
> 2021  5 17  2 38 31.9970000  0 11                     
G21  19489700.936 9 102419069.17735      -209.682          32.000  
G 7  19888787.232 8 104516273.75124      1244.629          32.000  
C10  36302166.110 8 189034878.90434      -720.621          31.000  
C 7  35768583.683 8 186256383.55224      -610.198          29.000  
G 1  20310290.580 9                      2117.333          26.000  
C27  20650063.086 4 107530274.353 2     -2055.693          34.000  
G 8  20125888.510 8 105762268.519 3     -2816.264          31.000  
C16  37146276.973 9                     -2470.251          20.000  
G27  22335781.118 9                     -3881.219          19.000  
C28  24440535.376 9                     -3791.045          21.000  
G30  22879438.246 9                      2494.977          27.000  
> 2021  5 17  2 38 32.9970000  0 12                     
G21  19489743.357 9                      -209.610          26.000  
G 7  19888548.993 8 104515028.44223      1244.651          31.000  
C 3  35432341.453 9                      -808.719          30.000  
C10  36302304.966 9 189035599.67625      -719.428          31.000  
C 7  35768700.603 8 186256992.97724      -608.242          29.000  
G 1  20309890.852 9                      2115.802          26.000  
C27  20650456.388 4 107532329.785 2     -2055.591          34.000  
G 8  20126425.026 8 105765082.674 3     -2813.694          30.000  
C16  37146755.205 9                     -2485.498          24.000  
G27  22336521.029 9                     -3871.371          20.000  
C28  24441262.832 9                     -3792.929          22.000  
G30  22878956.354 9                      2499.090          25.000  
> 2021  5 17  2 38 33.9970000  0 12                     
G21  19489782.720 9                      -213.478          32.000  
G 7  19888312.198 8 104513782.70424      1244.904          31.000  
C 3  35432497.445 9                      -818.506          31.000  
C10  36302443.865 8 189036319.10223      -719.314          31.000  
C 7  35768817.149 8 186257599.99224      -606.174          29.000  
G 1  20309489.192 9                      2109.856          24.000  
C27  20650849.358 9                     -2046.631          30.000  
G 8  20126960.403 8 105767894.389 4     -2809.736          29.000  
C16  37147234.074 9                     -2489.444          26.000  
G27  22337254.745 9                     -3875.498          25.000  
C28  24441988.028 9                     -3793.422          24.000  
G30  22878481.468 9                      2499.090          21.000  
> 2021  5 17  2 38 34.9970000  0 12                     
G21  19489823.811 9                      -215.195          27.000  
G 7  19888075.625 8 104512536.45923      1246.674          31.000  
C 3  35432655.718 9                      -826.273          29.000  
C10  36302584.566 8 189037036.91523      -718.166          31.000  
C 7  35768932.691 8 186258204.60524      -604.091          29.000  
C30  21387548.485 9                       752.124          30.000  
G 1  20309086.851 9                      2110.316          26.000  
C27  20651246.564 9                     -2052.639          32.000  
G 8  20127494.768 8 105770703.986 4     -2809.251          30.000  
G27  22337987.087 9                     -3872.721          25.000  
C28  24442712.793 9                     -3784.721          25.000  
G30  22878011.751 9                      2482.481          18.000  
> 2021  5 17  2 38 35.9970000  0 12                     
G21  19489861.478 8 102419913.03034      -214.090          33.000  
G 7  19887837.042 8 104511288.26534      1246.606          32.000  
C 3  35432824.963 9                      -873.975          29.000  
C10  36302718.737 8 189037753.77223      -716.352          31.000  
C 7  35769048.569 8 186258807.35924      -600.863          30.000  
C30  21387402.427 8 111369794.60533       750.760          35.000  
G 1  20308687.917 9                      2106.574          31.000  
C27  20651640.669 8 107538480.61932     -2052.274          35.000  
G 8  20128026.550 8 105773511.698 3     -2807.084          30.000  
G27  22338723.539 9 117390784.19935     -3868.950          26.000  
C28  24443437.164 9                     -3780.317          26.000  
G30  22877542.786 9                      2482.481          15.000  
> 2021  5 17  2 38 36.9970000  0 11                     
G21  19489903.720 8 102420127.09623      -213.697          33.000  
G 7  19887601.167 8 104510041.68023      1246.979          32.000  
C10  36302855.821 8 189038469.51823      -715.737          31.000  
C 7  35769165.324 8 186259408.42823      -600.219          31.000  
C 9  35697414.479 9 185885773.31235     -2221.316          30.000  
C27  20652034.446 4 107540532.05322     -2051.118          35.000  
G 8  20128561.644 8 105776317.780 3     -2806.118          30.000  
C 8  37391958.422 9                       861.684          23.000  
C16  37148670.571 9                     -2494.915          24.000  
G27  22339459.881 8 117394651.51725     -3866.235          26.000  
C28  24444161.178 9                     -3779.246          26.000  
> 2021  5 17  2 38 37.9970000  0 11                     
G21  19489942.338 4 102420342.05922      -215.061          32.000  
G 7  19887365.148 4 104508795.44522      1246.912          32.000  
C 3  35433128.759 9                      -834.641          33.000  
C10  36302993.778 8 189039184.89623      -715.994          35.000  
C 7  35769279.894 8 186260008.66223      -599.866          32.000  
C30  21387113.486 9                       748.633          35.000  
G 1  20307885.059 9                      2101.290          29.000  
C27  20652427.852 4 107542583.36121     -2050.641          38.000  
G 8  20129094.695 8 105779123.199 3     -2805.383          31.000  
G27  22340196.215 8 117398517.26724     -3865.449          26.000  
C28  24444884.429 8                     -3777.812          27.000  
> 2021  5 17  2 38 38.9970000  0 16                     
G21  19489983.010 4 102420557.09921      -214.515          35.000  
G 7  19887128.449 4 104507549.72022      1245.514          36.000  
C 3  35433280.475 9                      -820.117          35.000  
C10  36303130.440 4 189039899.65112      -715.549          34.000  
C 7  35769394.263 4 186260608.06912      -600.118          34.000  
C 9  35698265.954 9                     -2219.287          34.000  
C 2  36070933.244 9                      -780.766          31.000  
G 1  20307481.575 9 106716535.18734      2104.757          33.000  
C27  20652821.948 2 107544634.78621     -2051.176          39.000  
G 8  20129627.712 8 105781928.487 3     -2805.938          34.000  
C 8  37391621.921 9                       864.258          29.000  
C16  37149633.352 9                     -2496.330          29.000  
G27  22340932.305 4 117402382.52724     -3864.826          28.000  
G16  23335969.311 9                     -2553.898          29.000  
G 4  22792268.903 9                     -3703.595          13.000  
C28  24445610.785 8 127294685.25835     -3778.726          26.000  
> 2021  5 17  2 38 39.9970000  0 18                     
G21  19490024.258 4 102420772.15622      -215.365          35.000  
G 7  19886888.483 4 104506304.87122      1244.409          35.000  
C 3  35433439.927 9                      -822.664          32.000  
C10  36303270.015 4 189040615.375 2      -716.211          33.000  
C 7  35769509.757 4 186261207.877 2      -600.234          33.000  
C30  21386828.965 9                       746.682          37.000  
C 1  36365759.319 9                      -816.391          29.000  
C 2  36071096.958 9                      -857.812          29.000  
G 1  20307065.562 9                      2103.558          33.000  
C27  20653216.319 2 107546686.51621     -2052.527          38.000  
G 8  20130160.489 8 105784734.038 3     -2805.087          33.000  
C 8  37391464.891 9                       865.515          29.000  
C16  37150103.897 9                     -2495.047          29.000  
G27  22341665.214 4 117406247.42523     -3864.677          28.000  
G16  23336457.145 9                     -2553.898          21.000  
G 4  22792974.210 9                     -3703.595          15.000  
C28  24446333.604 8 127298462.26124     -3776.842          31.000  
G30  22875635.917 9 120212277.90735      2498.645          30.000  
