     3.03           OBSERVATION DATA    M: Mixed            RINEX VERSION / TYPE
RTKCONV demo5 b33c                      20210520 075819 UTC PGM / RUN BY / DATE 
log: C:\Users\Ivan_PolyU_Dktp\Dropbox\HUAWEI Exp\20210517_  COMMENT             
format: RINEX                                               COMMENT             
                                                            MARKER NAME         
                                                            MARKER NUMBER       
                                                            MARKER TYPE         
                                                            OBSERVER / AGENCY   
                                                            REC # / TYPE / VERS 
                                                            ANT # / TYPE        
        0.0000        0.0000        0.0000                  APPROX POSITION XYZ 
        0.0000        0.0000        0.0000                  ANTENNA: DELTA H/E/N
G   12 C1C L1C D1C S1C C2L L2L D2L S2L C2S L2S D2S S2S      SYS / # / OBS TYPES 
R    8 C1C L1C D1C S1C C2C L2C D2C S2C                      SYS / # / OBS TYPES 
E    8 C1C L1C D1C S1C C7Q L7Q D7Q S7Q                      SYS / # / OBS TYPES 
J    8 C1C L1C D1C S1C C2L L2L D2L S2L                      SYS / # / OBS TYPES 
S    4 C1C L1C D1C S1C                                      SYS / # / OBS TYPES 
C    8 C2I L2I D2I S2I C7I L7I D7I S7I                      SYS / # / OBS TYPES 
  2021     5    17     2    33   13.0050000     GPS         TIME OF FIRST OBS   
  2021     5    17     2    46   19.0050000     GPS         TIME OF LAST OBS    
G                                                           SYS / PHASE SHIFT   
R                                                           SYS / PHASE SHIFT   
E                                                           SYS / PHASE SHIFT   
J                                                           SYS / PHASE SHIFT   
S                                                           SYS / PHASE SHIFT   
C                                                           SYS / PHASE SHIFT   
  0                                                         GLONASS SLOT / FRQ #
 C1C    0.000 C1P    0.000 C2C    0.000 C2P    0.000        GLONASS COD/PHS/BIS 
                                                            END OF HEADER       
> 2021  5 17  2 33 13.0050000  0 23                     
G21  22049460.634 9                       327.015          24.000                                                                                                                                  
G27  24664769.281 9                     -3587.061          21.000                                                                                                                                  
G 1  23009427.719 8                      2573.797          27.000                                                                                                                                  
G 8  22522476.848 8                     -2432.885          27.000    22522479.457 9                     -1895.886          22.000                                                                  
C 7  38295838.220 8                      -327.601          26.000    38295819.793 4                      -253.103          26.000  
C30  24005732.255 1 125004154.038 3      1227.635          37.000                                                                  
C27  23093832.712 1 120255658.426 2     -1609.895          38.000                                                                  
C37  24427059.200 4                     -1641.048          27.000                                                                  
R19  20833884.423 8                     -1675.765          26.000    20833878.717 4                     -1303.716          30.000  
R15  24761250.217 9                     -2928.395          26.000                                                                  
G 4  25128493.651 9                     -3386.467          18.000                                                                                                                                  
G 9  24456093.344 2 128517615.344 5     -2530.973          33.000    24456086.504 2                     -1971.537          29.000                                                                  
C10  38823021.981 9                      -440.465          15.000                                                                  
E13  26764305.762 4 140647353.258 5     -2308.640          31.000    26764302.806 8                     -1768.843          25.000  
S28  38785860.053 1 203820998.499 2      -518.782          40.000  
E21  26124490.569 8                      -488.719          24.000    26124482.053 8                      -375.327          25.000  
E18  21295550.802 9                      2080.269          21.000    21295537.094 9                      1597.223          16.000  
J 3  40100962.799 8                     -1348.234          25.000    40100952.517 9                     -1048.659          15.000  
C16                                                                  39562145.052 9                     -1643.744          18.000  
C 9                                                                  38128379.659 9                     -1425.675          22.000  
R18                                                                  23642387.427 9                     -3444.530          11.000  
R 9                                                                  22545924.386 9                      1668.588          22.000  
J 7                                                                  37980474.783 9                      -402.490          16.000  
> 2021  5 17  2 33 14.0050000  0 22                     
G21  22049399.172 9                       322.846          24.000                                                                                                                                  
G27  24665453.547 9                     -3577.014          22.000                                                                                                                                  
G 1  23008939.781 8                      2572.607          28.000                                                                                                                                  
G 8  22522938.730 8                     -2433.146          27.000    22522941.942 9                     -1897.313          22.000                                                                  
C 7  38295902.097 8                      -326.723          25.000    38295882.797 4                      -253.140          25.000  
C30  24005496.528 1 125002926.501 3      1226.904          37.000                                                                  
C27  23094141.878 1 120257268.590 3     -1609.756          37.000                                                                  
C37  24427375.055 4                     -1641.913          27.000                                                                  
R19  20834197.124 9                     -1676.590          26.000    20834192.034 4                     -1304.974          30.000  
R15  24761797.515 9                     -2928.558          26.000                                                                  
G 4  25129137.704 9                     -3393.748          18.000                                                                                                                                  
G 9  24456574.762 2 128520146.066 5     -2530.032          33.000    24456568.121 2                     -1971.744          29.000                                                                  
C10  38823105.249 9                      -440.465          15.000                                                                  
E13  26764745.693 2 140649662.192 5     -2309.032          31.000    26764742.463 4                     -1768.343          25.000  
S28  38785958.776 1 203821517.370 2      -518.853          40.000  
E21  26124585.397 8                      -489.141          24.000    26124574.662 8                      -374.443          25.000  
E18  21295154.241 9                      2069.095          22.000    21295144.006 9                      1580.284          16.000  
J 3  40101219.901 8                     -1350.199          25.000    40101210.943 9                     -1045.006          16.000  
C16                                                                  39562552.729 9                     -1641.852          19.000  
C 9                                                                  38128729.958 9                     -1418.788          22.000  
R 9                                                                  22545528.516 9                      1665.310          24.000  
J 7                                                                  37980573.249 9                      -399.439          16.000  
> 2021  5 17  2 33 15.0050000  0 22                     
G21  22049336.275 9                       321.541          24.000                                                                                                                                  
G27  24666136.825 9                     -3580.287          22.000                                                                                                                                  
G 1  23008452.540 8                      2571.993          28.000                                                                                                                                  
G 8  22523400.732 8                     -2433.290          27.000    22523404.386 9                     -1894.988          21.000                                                                  
C 7  38295966.064 8                      -327.979          25.000    38295945.175 4                      -253.443          25.000  
C30  24005260.903 1 125001699.237 3      1226.499          37.000                                                                  
C27  23094450.877 1 120258879.115 3     -1611.199          37.000                                                                  
C37  24427693.717 4                     -1641.423          28.000                                                                  
R19  20834508.413 9                     -1677.427          27.000    20834505.526 4                     -1304.352          30.000  
R15  24762348.218 9                     -2930.719          27.000                                                                  
G 4  25129782.261 9                     -3383.461          16.000                                                                                                                                  
G 9  24457056.112 2 128522676.981 4     -2531.295          33.000    24457049.821 2                     -1972.332          29.000                                                                  
C10  38823190.746 9                      -440.465          14.000                                                                  
E13  26765185.595 4                     -2308.936          31.000    26765182.176 8                     -1769.022          25.000  
S28  38786057.565 1 203822035.990 2      -518.726          40.000  
E21  26124678.175 8                      -489.327          24.000    26124667.935 8                      -375.507          25.000  
E18  21294759.395 9                      2072.643          22.000    21294748.536 9                      1596.037          16.000  
J 3  40101475.984 8                     -1350.257          25.000    40101468.752 9                     -1065.672          17.000  
C16                                                                  39562962.883 9                     -1630.375          19.000  
C 9                                                                  38129081.176 9                     -1416.099          22.000  
R 9                                                                  22545131.148 9                      1665.895          24.000  
J 7                                                                  37980673.202 9                      -419.403          16.000  
> 2021  5 17  2 33 16.0050000  0 21                     
G21  22049273.579 9                       319.274          24.000                                                                                                                                  
G27  24666820.309 9                     -3582.156          23.000                                                                                                                                  
G 1  23007963.500 8                      2572.100          28.000                                                                                                                                  
G 8  22523863.510 8                     -2433.182          26.000    22523865.065 9                     -1894.137          21.000                                                                  
C 7  38296027.650 8                      -328.274          25.000    38296006.879 4                      -252.365          25.000  
C30  24005025.519 1 125000472.394 3      1225.903          37.000                                                                  
C27  23094760.071 1 120260489.988 3     -1611.124          37.000                                                                  
C37  24428009.626 4                     -1641.855          28.000                                                                  
R19  20834823.018 9                     -1678.544          27.000    20834819.245 4                     -1306.084          30.000  
R15  24762897.714 9                     -2931.008          27.000                                                                  
G 4  25130427.005 9                     -3381.111          16.000                                                                                                                                  
G 9  24457537.612 2 128525208.084 5     -2530.721          33.000    24457531.556 2                     -1972.479          29.000                                                                  
E13  26765624.991 4                     -2309.713          30.000    26765621.390 8                     -1769.657          25.000  
S28  38786156.205 1 203822554.590 2      -519.066          40.000  
E21  26124772.302 9                      -489.902          24.000    26124760.688 8                      -374.617          25.000  
E18  21294366.548 9                      2083.515          22.000    21294354.679 9                      1582.019          16.000  
J 3  40101732.423 8                     -1348.183          25.000    40101727.403 9                     -1053.923          17.000  
C16                                                                  39563370.593 9                     -1640.173          18.000  
C 9                                                                  38129433.541 9                     -1418.531          22.000  
R 9                                                                  22544734.478 9                      1665.623          25.000  
J 7                                                                  37980772.434 9                      -398.031          16.000  
> 2021  5 17  2 33 17.0050000  0 21                     
G21  22049211.569 9                       318.315          24.000                                                                                                                                  
G27  24667504.815 9                     -3575.755          24.000                                                                                                                                  
G 1  23007476.107 8                      2572.262          28.000                                                                                                                                  
G 8  22524324.396 8                     -2433.657          26.000    22524327.385 9                     -1890.836          21.000                                                                  
C 7  38296090.619 8                      -326.168          26.000    38296070.258 4                      -252.685          25.000  
C30  24004789.828 1 124999245.722 3      1226.058          37.000                                                                  
C27  23095069.490 1 120262101.120 3     -1611.385          37.000                                                                  
C37  24428326.863 4                     -1641.811          29.000                                                                  
R19  20835135.057 8                     -1678.786          26.000    20835133.095 4                     -1305.379          30.000  
R15  24763444.331 9                     -2930.177          27.000                                                                  
G 4  25131070.881 9                     -3395.296          14.000                                                                                                                                  
G 9  24458019.101 2 128527739.244 5     -2530.898          33.000    24458013.362 2                     -1972.544          29.000                                                                  
E13  26766065.111 4                     -2309.216          31.000    26766060.801 8                     -1770.688          25.000  
S28  38786254.933 1 203823073.035 2      -518.532          40.000  
E21  26124866.007 8                      -489.971          24.000    26124853.963 8                      -374.895          25.000  
E18  21293972.773 9                      2076.644          22.000    21293959.395 9                      1592.871          15.000  
J 3  40101988.722 8                     -1348.191          25.000    40101984.041 9                     -1043.322          17.000  
C16                                                                  39563777.299 9                     -1641.229          18.000  
C 9                                                                  38129784.185 9                     -1409.282          22.000  
R 9                                                                  22544337.483 9                      1665.095          25.000  
J 7                                                                  37980870.277 9                      -402.842          16.000  
> 2021  5 17  2 33 18.0050000  0 21                     
G21  22049151.406 9                       324.634          24.000                                                                                                                                  
G27  24668189.386 9                     -3583.067          25.000                                                                                                                                  
G 1  23006987.958 8                      2571.660          29.000                                                                                                                                  
G 8  22524784.635 8                     -2433.728          26.000    22524791.009 9                     -1897.381          21.000                                                                  
C 7  38296155.163 8                      -327.306          25.000    38296133.457 4                      -253.275          25.000  
C30  24004554.306 1 124998019.469 3      1225.857          37.000                                                                  
C27  23095378.789 1 120263712.662 3     -1611.828          37.000                                                                  
C37  24428644.419 8                     -1642.073          29.000                                                                  
R19  20835448.811 9                     -1680.038          27.000    20835447.007 4                     -1306.119          30.000  
R15  24763991.553 8                     -2930.192          27.000                                                                  
G 4  25131717.756 9                     -3388.673          14.000                                                                                                                                  
G 9  24458500.489 2 128530270.658 4     -2531.187          33.000    24458495.233 2                     -1972.784          29.000                                                                  
E13  26766504.724 2 140658900.550 5     -2310.152          30.000    26766500.636 4                     -1769.573          25.000  
S28  38786353.668 1 203823591.480 2      -518.420          41.000  
E21  26124959.244 8                      -489.026          23.000    26124946.569 8                      -373.836          25.000  
E18  21293582.224 9                      2073.461          22.000    21293566.576 9                      1589.088          14.000  
J 3  40102245.018 8                     -1347.261          25.000    40102240.181 9                     -1050.925          17.000  
C16                                                                  39564186.191 9                     -1652.302          19.000  
C 9                                                                  38130137.460 9                     -1414.884          22.000  
R 9                                                                  22543939.870 9                      1666.866          25.000  
J 7                                                                  37980969.287 9                      -400.470          16.000  
> 2021  5 17  2 33 19.0050000  0 21                     
G21  22049088.768 9                       316.629          24.000                                                                                                                                  
G27  24668872.498 8                     -3582.171          26.000                                                                                                                                  
G 1  23006500.821 8                      2571.945          29.000                                                                                                                                  
G 8  22525249.124 8                     -2434.507          26.000    22525253.593 9                     -1890.068          21.000                                                                  
C 7  38296216.808 8                      -328.862          25.000    38296196.686 4                      -251.905          25.000  
C30  24004318.914 1 124996793.589 3      1225.454          37.000                                                                  
C27  23095688.269 1 120265324.569 3     -1612.008          37.000                                                                  
C37  24428956.199 4                     -1643.020          29.000                                                                  
R19  20835761.559 9                     -1680.740          27.000    20835761.196 4                     -1307.196          30.000  
R15  24764539.607 8                     -2931.338          27.000                                                                  
G 4  25132366.218 9                     -3403.291          11.000                                                                                                                                  
G 9  24458982.098 2 128532802.273 5     -2532.096          33.000    24458977.065 2                     -1972.842          29.000                                                                  
E13  26766944.519 4 140661210.853 5     -2310.377          30.000    26766939.322 8                     -1772.805          25.000  
S28  38786452.418 1 203824109.932 2      -518.586          41.000  
E21  26125050.830 8                      -489.716          23.000    26125040.375 4                      -375.654          25.000  
E18  21293188.153 9                      2067.234          23.000    21293171.671 9                      1582.282          15.000  
J 3  40102499.844 8                     -1347.258          26.000    40102498.765 9                     -1050.647          17.000  
C16                                                                  39564596.249 9                     -1647.539          19.000  
C 9                                                                  38130489.189 9                     -1421.475          21.000  
R 9                                                                  22543544.091 9                      1665.065          26.000  
J 7                                                                  37981067.894 9                      -395.301          16.000  
> 2021  5 17  2 33 20.0050000  0 21                     
G21  22049027.063 9                       319.385          24.000                                                                                                                                  
G27  24669557.211 8                     -3582.085          26.000                                                                                                                                  
G 1  23006014.295 8                      2571.250          29.000                                                                                                                                  
G 8  22525709.879 8                     -2434.477          26.000    22525716.563 9                     -1904.353          21.000                                                                  
C 7  38296278.986 8                      -326.336          25.000    38296259.058 8                      -254.188          25.000  
C30  24004083.621 1 124995568.172 3      1224.904          37.000                                                                  
C27  23095997.884 1 120266936.997 3     -1612.962          37.000                                                                  
C37  24429268.735 4                     -1643.491          30.000                                                                  
R19  20836074.758 8                     -1681.810          26.000    20836075.650 4                     -1308.314          30.000  
R15  24765086.628 8                     -2931.906          28.000                                                                  
G 4  25133010.321 9                     -3397.538          10.000                                                                                                                                  
G 9  24459463.682 2 128535334.127 4     -2531.954          32.000    24459458.889 2                     -1972.887          29.000                                                                  
E13  26767384.334 4                     -2310.946          30.000    26767379.273 8                     -1771.144          25.000  
S28  38786551.121 1 203824628.496 2      -518.746          41.000  
E21  26125144.606 9                      -493.020          22.000    26125133.792 8                      -376.201          25.000  
E18  21292794.667 9                      2072.064          23.000    21292778.065 9                      1572.578          15.000  
J 3  40102758.023 8                     -1349.112          25.000    40102756.806 9                     -1056.651          17.000  
C16                                                                  39565006.218 9                     -1649.939          19.000  
C 9                                                                  38130840.574 9                     -1419.613          21.000  
R 9                                                                  22543145.781 9                      1666.340          25.000  
J 7                                                                  37981165.412 9                      -408.437          15.000  
> 2021  5 17  2 33 21.0050000  0 20                     
G21  22048967.435 9                       314.794          26.000                                                                                                                                  
G27  24670236.139 8                     -3584.868          25.000                                                                                                                                  
G 1  23005525.383 8                      2572.757          29.000                                                                                                                                  
G 8  22526175.082 8                     -2435.135          27.000    22526180.136 9                     -1899.649          21.000                                                                  
C 7  38296340.360 8                      -327.493          25.000    38296320.746 8                      -253.791          25.000  
C30  24003848.198 1 124994342.356 3      1226.477          38.000                                                                  
C27  23096307.753 1 120268550.175 3     -1613.506          40.000                                                                  
C37  24429582.237 8                     -1644.118          28.000                                                                  
R19  20836389.778 8                     -1682.401          26.000    20836390.226 4                     -1308.195          30.000  
R15  24765636.165 8                     -2932.014          27.000                                                                  
G 9  24459945.291 2 128537865.146 4     -2529.875          33.000    24459940.393 2                     -1971.063          29.000                                                                  
E13  26767823.526 4                     -2313.206          29.000    26767819.286 8                     -1772.469          25.000  
S28  38786649.672 1 203825146.439 2      -517.674          41.000  
E21  26125237.122 9                      -491.687          22.000    26125226.328 8                      -376.894          25.000  
E18  21292401.061 9                      2071.876          21.000    21292385.685 9                      1579.382          14.000  
J 3  40103015.379 8                     -1349.638          25.000    40103013.981 9                     -1053.777          18.000  
C16                                                                  39565414.601 9                     -1643.181          17.000  
C 9                                                                  38131192.674 9                     -1412.402          20.000  
R 9                                                                  22542747.204 9                      1658.739          25.000  
J 7                                                                  37981265.504 9                      -403.490          16.000  
> 2021  5 17  2 33 22.0050000  0 22                     
G21  22048908.833 8                       315.488          27.000                                                                                                                                  
G27  24670914.750 9                     -3590.069          24.000                                                                                                                                  
G 1  23005029.125 8                      2574.094          28.000                                                                                                                                  
G 8  22526643.602 8                     -2438.857          28.000    22526644.743 9                     -1899.204          22.000                                                                  
C 7  38296401.907 8                      -330.474          25.000    38296384.366 8                      -254.561          24.000  
C30  24003612.374 1 124993114.528 3      1229.541          38.000                                                                  
C27  23096617.815 1 120270164.788 2     -1616.064          39.000                                                                  
C37  24429900.497 8                     -1644.984          27.000                                                                  
R19  20836705.321 8                     -1684.678          26.000    20836704.826 4                     -1311.045          30.000  
R15  24766183.776 9                     -2929.337          26.000                                                                  
G 4  25134301.378 9                     -3388.871          11.000                                                                                                                                  
G 9  24460426.263 2                     -2525.855          32.000    24460421.703 2                     -1967.347          30.000                                                                  
E13  26768263.583 2                     -2318.104          28.000    26768258.888 8                     -1777.388          24.000  
S28  38786747.896 1 203825661.839 2      -513.351          41.000  
E18  21292009.816 9                      2053.421          19.000    21291991.153 9                      1582.448          15.000  
J 3  40103274.041 9                     -1351.993          25.000    40103272.023 9                     -1052.414          18.000  
E21                                                                  26125320.004 8                      -379.977          25.000  
C16                                                                  39565821.712 9                     -1645.497          15.000  
C 9                                                                  38131544.369 9                     -1410.633          20.000  
C 8                                                                  40011613.514 8                       951.011          25.000  
R 9                                                                  22542347.685 9                      1665.902          24.000  
J 7                                                                  37981363.250 9                      -395.822          19.000  
> 2021  5 17  2 33 23.0050000  0 21                     
G21  22048847.121 9                       306.978          25.000                                                                                                                                  
G27  24671597.808 9                     -3595.257          24.000                                                                                                                                  
G 1  23004539.200 8                      2575.822          27.000                                                                                                                                  
G 8  22527107.383 8                     -2441.824          29.000    22527110.901 9                     -1907.205          23.000                                                                  
C 7  38296463.845 8                      -332.671          25.000    38296449.053 8                      -258.302          24.000  
C30  24003375.812 1 124991883.360 3      1233.296          35.000                                                                  
C27  23096928.419 1 120271781.569 2     -1617.929          42.000                                                                  
C37  24430216.378 9                     -1650.805          26.000                                                                  
R19  20837021.771 8                     -1688.489          26.000    20837019.940 4                     -1312.901          31.000  
G 4  25134949.761 9                     -3388.871          12.000                                                                                                                                  
G 9  24460906.499 2 128542915.982 5     -2520.001          33.000    24460901.785 2                     -1963.853          30.000                                                                  
E13  26768704.762 4                     -2323.591          29.000    26768701.178 8                     -1781.827          25.000  
S28  38786845.179 1 203826173.087 2      -509.146          39.000  
E18  21291617.082 9                      2072.359          16.000    21291600.290 9                      1582.448          14.000  
J 3  40103530.282 9                     -1356.199          23.000    40103528.321 9                     -1038.639          18.000  
E21                                                                  26125415.464 8                      -381.834          25.000  
C16                                                                  39566229.500 9                     -1637.623          14.000  
C 9                                                                  38131895.233 9                     -1411.193          22.000  
C 8                                                                  40011376.564 8                       951.463          26.000  
R 9                                                                  22541949.317 9                      1666.460          24.000  
J 7                                                                  37981461.386 9                      -398.108          19.000  
> 2021  5 17  2 33 24.0050000  0 22                     
G21  22048784.937 9                       305.453          23.000                                                                                                                                  
G27  24672281.002 9                     -3603.300          22.000                                                                                                                                  
G 1  23004049.552 9                      2576.769          26.000                                                                                                                                  
G 8  22527574.523 8                     -2444.900          29.000    22527575.700 9                     -1890.277          22.000                                                                  
C 7  38296529.640 9                      -339.970          24.000    38296513.589 9                      -261.781          22.000  
C30  24003138.623 1 124990648.568 3      1236.705          37.000                                                                  
C27  23097239.483 1 120273400.355 2     -1619.523          43.000                                                                  
C37  24430534.252 9                     -1650.563          25.000                                                                  
R19  20837339.042 9                     -1689.203          26.000    20837335.615 2  86695536.72214     -1314.237          33.000  
G16  25747181.581 9                     -2257.962          22.000                                                                                                                                  
G 4  25135592.648 9                     -3402.816          12.000                                                                                                                                  
G 9  24461385.485 2 128545433.745 5     -2515.285          32.000    24461380.906 2                     -1959.968          29.000                                                                  
E13  26769146.843 2                     -2327.587          29.000    26769143.119 8                     -1784.688          26.000  
S28  38786941.616 1 203826679.991 4      -505.167          36.000  
E21  26125514.083 8                      -502.499          27.000    26125512.163 4                      -384.723          28.000  
E18  21291223.877 9                      2065.932          15.000    21291204.872 9                      1594.175          14.000  
J 3  40103789.862 9                     -1359.053          22.000    40103788.029 9                     -1057.946          20.000  
C16                                                                  39566635.910 9                     -1637.094          13.000  
C 9                                                                  38132244.593 9                     -1400.730          23.000  
C 8                                                                  40011138.250 4                       952.691          28.000  
R 9                                                                  22541550.271 9                      1660.166          23.000  
J 7                                                                  37981559.948 9                      -401.184          22.000  
> 2021  5 17  2 33 25.0050000  0 21                     
G21  22048726.037 9                       311.277          22.000                                                                                                                                  
G27  24672965.853 9                     -3599.021          20.000                                                                                                                                  
G 1  23003560.833 9                      2590.424          24.000                                                                                                                                  
G 8  22528039.216 9                     -2441.021          25.000    22528043.614 9                     -1920.167          19.000                                                                  
C 7  38296595.596 9                      -342.433          21.000    38296577.781 9                      -253.303          20.000  
C 9  38132605.552 9                     -1817.833          25.000    38132594.409 9                     -1410.953          24.000  
C30  24002901.105 1 124989411.743 2      1236.490          40.000                                                                  
C27  23097551.073 1 120275020.759 2     -1620.504          40.000                                                                  
R19  20837655.273 8                     -1691.229          25.000    20837651.569 2  86696851.382 4     -1315.368          34.000  
G 4  25136238.094 9                     -3384.798          12.000                                                                                                                                  
G 9  24461863.620 2 128547948.207 5     -2514.686          32.000    24461859.603 2                     -1958.836          29.000                                                                  
E13  26769589.657 2                     -2329.335          31.000    26769586.730 4                     -1784.389          27.000  
S28  38787037.526 2 203827184.015 5      -503.258          31.000  
E21  26125608.237 8                      -504.437          27.000    26125606.859 4                      -385.644          29.000  
E18  21290830.311 9                      2056.000          16.000    21290809.960 9                      1580.089          12.000  
J 2  39994846.917 9                       580.111          21.000                                                                  
J 3  40104048.938 9                     -1356.289          24.000    40104047.055 9                     -1058.375          20.000  
C16                                                                  39567043.467 9                     -1637.094          12.000  
C 8                                                                  40010901.672 4                       952.688          32.000  
R 9                                                                  22541151.689 9                      1664.715          22.000  
J 7                                                                  37981658.485 9                      -413.302          23.000  
> 2021  5 17  2 33 26.0050000  0 19                     
G21  22048668.333 9                       313.261          25.000                                                                                                                                  
G27  24673649.384 9                     -3588.636          18.000                                                                                                                                  
G 1  23003071.272 9                      2575.153          22.000                                                                                                                                  
G 8  22528509.687 9                     -2443.510          21.000    22528511.660 9                     -1913.892          15.000                                                                  
C 7  38296658.474 9                      -327.756          19.000    38296642.890 9                      -252.372          17.000  
C 9  38132952.315 8                     -1820.474          27.000    38132943.663 9                     -1406.600          24.000  
C30  24002663.598 1 124988175.544 2      1235.479          40.000                                                                  
C27  23097862.442 1 120276641.317 4     -1621.490          35.000                                                                  
R19  20837971.621 8                     -1691.296          24.000    20837967.762 2  86698166.596 4     -1315.291          33.000  
G 9  24462342.022 2                     -2516.161          30.000    24462338.284 2                     -1960.268          28.000                                                                  
E26  24488616.206 9                       443.573          27.000    24488616.737 8                       339.932          25.000  
E13  26770032.378 4                     -2329.712          32.000    26770029.600 4                     -1784.165          27.000  
S28  38787133.491 8                      -503.926          29.000  
E21  26125705.630 8                      -503.025          29.000    26125702.109 4                      -383.778          30.000  
E18  21290439.015 9                      2049.304          15.000                                                                  
J 2  39994728.858 9                       580.111          24.000    39994712.847 9                       452.810          23.000  
J 3  40104307.198 9                     -1355.597          31.000    40104307.102 9                     -1068.182          21.000  
R 9                                                                  22540752.722 9                      1644.645          21.000  
J 7                                                                  37981756.042 9                      -404.242          24.000  
> 2021  5 17  2 33 27.0050000  0 21                     
G21  22048611.404 9                       292.570          25.000                                                                                                                                  
G27  24674333.905 9                     -3598.491          18.000                                                                                                                                  
G 1  23002583.273 9                      2580.783          23.000    23002582.607 9                      2007.758          18.000                                                                  
G 8  22528976.505 9                     -2428.031          17.000    22528978.367 9                     -1895.515          13.000                                                                  
C 7  38296723.159 9                      -332.290          16.000    38296705.448 9                      -248.937          16.000  
C 9  38133301.606 8                     -1819.237          27.000    38133293.537 9                     -1413.530          24.000  
C30  24002426.213 1 124986939.518 2      1235.930          38.000                                                                  
C27  23098174.103 1 120278262.886 4     -1622.828          39.000                                                                  
R16  21645547.001 9                      -458.356          11.000                                                                  
R19  20838288.429 9                     -1693.642          24.000    20838284.094 2  86699482.727 3     -1316.768          34.000  
G 4  25137523.525 9                     -3368.110          12.000                                                                                                                                  
G 9  24462820.937 8                     -2513.418          24.000    24462816.927 4                     -1958.828          27.000                                                                  
E13  26770475.035 4 140679783.791 5     -2329.916          32.000    26770473.489 4                     -1785.888          28.000  
S28  38787230.649 8                      -502.246          35.000  
E21  26125798.849 8                      -502.806          29.000    26125797.209 4                      -386.367          29.000  
E18  21290045.993 9                      2058.542          15.000                                                                  
J 2  39994615.813 9                       578.444          26.000                                                                  
J 3  40104567.690 8                     -1355.627          27.000    40104565.532 9                     -1057.972          22.000  
C 8                                                                  40010427.008 8                       955.568          28.000  
R 9                                                                  22540353.262 9                      1661.590          21.000  
J 7                                                                  37981855.332 9                      -399.964          22.000  
> 2021  5 17  2 33 28.0050000  0 23                     
G 7  22529798.112 9                      1689.966          39.000                                                                    22529782.998 9                      1316.003          31.000  
G21  22048550.955 9                       321.658          25.000                                                                                                                                  
G27  24675021.691 9                     -3582.766          19.000                                                                                                                                  
G 1  23002095.246 9                      2577.777          22.000    23002092.171 9                      2013.293          17.000                                                                  
G 8  22529445.928 9                     -2424.637          17.000    22529440.535 9                     -1885.946          13.000                                                                  
C 7  38296788.125 9                      -337.015          16.000                                                                  
C 9  38133650.854 9                     -1814.117          25.000    38133644.054 9                     -1407.829          22.000  
C30  24002189.235 8                      1228.897          27.000                                                                  
C27  23098485.714 8                     -1621.973          29.000                                                                  
R16  21645632.590 9                      -453.860          18.000                                                                  
R19  20838604.434 9                     -1687.468          21.000    20838601.147 9                     -1327.034          20.000  
G 4  25138168.122 9                     -3369.574          14.000                                                                                                                                  
G 9  24463305.315 9                     -2548.027          21.000    24463295.824 9                     -1965.214          23.000                                                                  
S28  38787326.080 9                      -471.143          27.000  
E21  26125896.828 9                      -502.854          26.000    26125897.567 9                      -387.924          24.000  
E18  21289636.517 9                      2057.410          35.000    21289633.489 9                      1576.186          32.000  
E 4  28908713.361 9                     -1401.466          25.000                                                                  
J 3  40104826.629 9                     -1349.435          25.000    40104824.382 9                     -1054.586          22.000  
E13                                                                  26770917.281 9                     -1785.651          24.000  
C 8                                                                  40010188.458 8                       958.933          36.000  
R 9                                                                  22539953.948 9                      1666.629          24.000  
J 7                                                                  37981952.906 9                      -401.501          21.000  
J 2                                                                  39994491.643 9                       453.944          24.000  
> 2021  5 17  2 33 29.0050000  0 23                     
G 7  22529476.207 9                      1690.309          25.000                                                                                                                                  
G21  22048488.254 9                       322.836          39.000                                                                                                                                  
G27  24675710.527 9                     -3559.549          21.000                                                                                                                                  
G 1  23001603.995 9                      2581.018          25.000    23001601.172 9                      2008.850          21.000                                                                  
G30  25589159.446 9                      2827.367          23.000                                                                                                                                  
G 8  22529914.582 9                     -2425.048          19.000    22529901.145 9                     -1885.946          12.000                                                                  
C 7  38296851.630 9                      -312.997          16.000                                                                  
C 9  38134002.793 9                     -1845.367          21.000    38133987.598 9                     -1376.579          17.000  
C30  24001955.896 9                      1224.392          19.000                                                                  
C27  23098798.089 9                     -1618.326          21.000                                                                  
R16  21645716.767 9                      -439.859          30.000                                                                  
R19  20838919.385 9                     -1687.468          18.000    20838920.793 9                     -1327.034          16.000  
G 4  25138811.860 9                     -3372.022          15.000                                                                                                                                  
G 9  24463791.533 9                     -2528.237          33.000    24463776.935 9                     -1970.381          21.000                                                                  
E26  24488357.837 9                       451.735          33.000    24488358.783 9                       346.062          30.000  
E21  26125990.285 9                      -489.940          24.000    26125996.782 9                      -369.781          20.000  
E18  21289247.856 9                      2053.500          25.000                                                                  
J 2  39994393.949 9                       592.749          34.000                                                                  
J 3  40105085.110 9                     -1354.551          23.000    40105081.756 9                     -1053.562          20.000  
J 7  37982050.982 9                      -521.992          28.000    37982047.095 9                      -394.700          34.000  
E13                                                                  26771353.935 9                     -1772.778          20.000  
C 8                                                                  40009950.184 4                       962.606          35.000  
R 9                                                                  22539553.877 9                      1677.550          21.000  
> 2021  5 17  2 33 30.0050000  0 23                     
G 7  22529159.046 9                      1697.073          24.000                                                                                                                                  
G21  22048424.819 8 115865253.79135       323.050          36.000                                                                                                                                  
G27  24676391.508 9                     -3579.495          22.000                                                                                                                                  
G 1  23001113.690 8                      2585.824          32.000    23001109.805 9                      2013.075          22.000                                                                  
G30  25588627.284 9                      2821.874          26.000                                                                                                                                  
C 7  38296916.631 9                      -335.771          26.000    38296896.785 9                      -259.567          17.000  
C 9  38134355.638 9                     -1835.494          16.000                                                                  
C30  24001717.206 8                      1215.304          29.000                                                                  
C27  23099109.989 8 120283126.79835     -1618.530          41.000                                                                  
R16  21645799.321 9                      -434.038          31.000    21645807.059 9                      -338.582          33.000  
R19  20839235.547 9                     -1683.713          20.000    20839241.480 9                     -1314.160          32.000  
G 9  24464265.229 8                     -2540.617          32.000    24464260.063 9                     -1977.675          29.000                                                                  
E26  24488269.012 8 128686721.63415       450.884          37.000    24488271.142 4  98604119.56615       344.935          35.000  
S28  38787532.794 9                      -526.531          39.000  
E21  26126080.381 8 137293478.93115      -487.788          37.000    26126079.483 8                      -373.284          31.000  
E18  21288851.392 9                      2055.267          37.000    21288850.390 9                      1574.786          38.000  
J 2  39994271.931 8 210171317.05135       594.522          36.000    39994266.842 8                       462.820          30.000  
J 3  40105339.722 8 210754982.63835     -1344.343          38.000    40105337.634 8                     -1050.137          36.000  
J 7  37982144.434 9                      -512.715          28.000    37982142.834 8                      -397.052          34.000  
E13                                                                  26771799.082 8                     -1770.621          33.000  
C 8                                                                  40009710.447 4 161102524.68635       961.326          31.000  
G 8                                                                  22530366.349 9                     -1888.723          28.000                                                                  
R 9                                                                  22539149.308 9                      1665.028          21.000  
> 2021  5 17  2 33 31.0050000  0 23                     
G 7  22528840.995 9                      1682.789          36.000    22528831.655 9                      1310.306          29.000                                                                  
G21  22048364.833 4 115864938.89525       323.367          35.000                                                                                                                                  
G27  24677076.544 9                     -3588.135          34.000    24677055.496 9                     -2794.580          33.000                                                                  
G 1  23000607.696 8                      2584.567          35.000    23000611.396 9                      2014.019          35.000                                                                  
G30  25588092.966 9                      2821.874          25.000                                                                                                                                  
G 8  22530842.491 9                     -2445.917          40.000    22530831.986 9                     -1904.396          33.000                                                                  
C 7  38296979.880 9                      -333.519          35.000    38296964.410 9                      -253.126          33.000  
C 9  38134709.522 9                     -1828.393          15.000                                                                  
C30  24001485.669 9                      1218.397          18.000                                                                  
C27  23099421.474 4 120284746.19823     -1619.842          40.000                                                                  
R16  21645879.324 8                      -434.712          31.000    21645883.752 8                      -338.527          33.000  
R19  20839551.760 9                     -1693.801          24.000    20839553.641 9                     -1316.342          31.000  
G 9  24464747.917 9                     -2545.409          24.000    24464743.587 9                     -1967.364          16.000                                                                  
S37  37982244.766 9                      -520.328          33.000  
E26  24488186.538 4 128686270.967 4       451.391          37.000    24488186.073 4  98603774.204 3       345.686          35.000  
E13  26772245.268 9                     -2315.502          30.000    26772236.778 4                     -1772.251          32.000  
E21  26126172.624 8                      -488.026          34.000    26126173.113 4                      -373.749          35.000  
E18  21288461.473 8 111871614.02714      2053.503          37.000    21288460.424 4  85719804.44014      1573.851          38.000  
J 2  39994155.418 4 210170723.33124       594.161          36.000    39994155.471 8                       461.616          36.000  
J 3  40105596.018 4 210756328.83425     -1345.141          34.000    40105597.557 8                     -1048.722          34.000  
J 7  37982241.101 9                      -505.713          30.000    37982236.589 4 155530925.70814      -394.991          34.000  
C 8                                                                  40009470.238 4                       963.987          26.000  
R 9                                                                  22538750.845 9                      1668.922          20.000  
> 2021  5 17  2 33 32.0050000  0 25                     
G 7  22528519.504 8 118388168.48734      1679.408          38.000    22528512.869 9                      1308.774          29.000                                                                  
G21  22048302.524 4 115864614.71924       324.915          36.000                                                                                                                                  
G27  24677759.471 9                     -3590.648          31.000    24677747.049 9                     -2797.572          29.000                                                                  
G 1  23000110.139 8                      2588.790          34.000    23000113.165 8                      2016.613          35.000                                                                  
G30  25587555.660 9                      2821.874          21.000                                                                                                                                  
G 8  22531301.276 8                     -2447.940          38.000    22531297.781 8                     -1905.578          33.000                                                                  
C 7  38297042.233 8                      -337.631          33.000    38297030.861 8                      -260.070          32.000  
C 9  38135062.363 9                     -1823.718          16.000                                                                  
C30  24001250.219 9                      1220.957          18.000                                                                  
C27  23099733.672 2 120286366.59523     -1621.165          41.000                                                                  
R16  21645961.962 8                      -435.740          34.000    21645965.566 9                      -339.451          33.000  
R19  20839867.946 9                     -1696.016          25.000    20839869.934 9                     -1316.829          31.000  
R18  23658160.019 9                     -4434.267          29.000                                                                  
G 9  24465233.941 9                     -2523.740          20.000    24465223.349 9                     -1950.745          14.000                                                                  
S37  37982334.064 9                      -506.299          34.000  
E26  24488097.921 4 128685819.257 4       452.658          37.000    24488098.842 2  98603428.101 3       346.978          35.000  
E13  26772688.101 8                     -2318.101          34.000    26772679.843 4                     -1775.028          29.000  
E21  26126270.180 8                      -487.836          34.000    26126266.313 4                      -376.909          30.000  
E18  21288069.101 4 111869561.082 3      2051.722          37.000    21288069.425 2  85718231.446 3      1572.290          38.000  
J 2  39994043.033 4 210170128.80314       593.534          37.000    39994045.549 9                       465.332          36.000  
J 3  40105854.206 4 210757673.94724     -1345.531          38.000    40105851.141 4 164226748.71915     -1048.473          36.000  
J 7  37982334.926 9                      -505.531          30.000    37982333.927 4 155531320.299 4      -393.042          35.000  
C 8                                                                  40009231.673 4                       966.230          25.000  
C10                                                                  38824526.951 9                      -350.549          24.000  
R 9                                                                  22538351.443 9                      1655.281          21.000  
> 2021  5 17  2 33 33.0050000  0 26                     
G 7  22528199.087 4 118386484.81223      1676.835          38.000    22528193.285 9                      1306.669          29.000                                                                  
G21  22048240.629 4 115864289.10724       325.944          36.000                                                                                                                                  
G27  24678444.895 8                     -3591.515          30.000    24678435.003 9                     -2794.434          30.000                                                                  
G 1  22999616.969 8                      2590.359          34.000    22999619.595 8                      2019.878          33.000                                                                  
G30  25587018.083 9                      2821.874          18.000                                                                                                                                  
G 8  22531769.660 9                     -2454.004          37.000    22531765.756 9                     -1900.143          32.000                                                                  
C 7  38297110.253 8                      -338.599          33.000    38297095.812 8                      -262.346          33.000  
C 9  38135414.118 9                     -1816.128          15.000                                                                  
C30  24001024.055 9                      1227.409          19.000                                                                  
C27  23100043.315 2 120287987.95413     -1622.607          41.000                                                                  
R16  21646041.673 8                      -437.271          30.000    21646042.498 9                      -340.920          28.000  
R19  20840186.479 9                     -1695.137          25.000    20840187.550 9                     -1319.768          31.000  
R18  23658989.682 9                     -4447.363          34.000    23658978.408 9                     -3451.451          30.000  
G 4  25141428.271 9                     -3399.779          23.000                                                                                                                                  
S37  37982428.588 9                      -503.451          33.000  
E26  24488012.444 4 128685366.384 3       453.062          37.000    24488013.450 2  98603081.128 4       346.747          36.000  
E21  26126361.783 8                      -490.999          37.000    26126358.352 4                      -375.546          32.000  
E18  21287681.793 4 111867510.061 3      2049.238          38.000    21287679.128 1  85716659.869 2      1570.779          38.000  
J 2  39993930.308 4 210169534.756 5       596.389          35.000    39993930.685 8                       463.652          34.000  
J 3  40106108.942 4 210759019.37924     -1345.655          38.000    40106107.193 8 164227797.143 4     -1047.690          36.000  
J 7  37982430.466 8                      -503.621          29.000    37982429.101 4 155531713.025 4      -392.052          34.000  
E13                                                                  26773120.203 8                     -1776.914          31.000  
C 8                                                                  40008993.348 9                       958.934          22.000  
C10                                                                  38824611.197 9                      -352.161          26.000  
R 9                                                                  22537949.191 9                      1675.730          20.000  
G 9                                                                  24465699.390 9                     -1935.819          13.000                                                                  
> 2021  5 17  2 33 34.0050000  0 25                     
G 7  22527880.721 4 118384811.60734      1675.427          37.000    22527875.685 8                      1305.328          29.000                                                                  
G21  22048179.335 4 115863962.52624       327.592          37.000                                                                                                                                  
G27  24679127.586 9                     -3592.194          32.000    24679117.857 9                     -2800.658          33.000                                                                  
G 1  22999127.695 9                      2585.550          25.000    22999127.342 9                      2020.043          24.000                                                                  
G30  25586483.361 9                      2821.874          20.000                                                                                                                                  
G 8  22532233.634 8                     -2452.281          37.000    22532234.210 9                     -1909.393          30.000                                                                  
C 7  38297173.500 9                      -340.318          32.000    38297162.443 8                      -262.328          33.000  
C 9  38135768.271 9                     -1847.378          13.000                                                                  
C30  24000800.466 9                      1228.252          17.000                                                                  
C27  23100354.816 2 120289611.451 2     -1623.999          41.000                                                                  
R16  21646120.755 8                      -438.006          29.000    21646123.753 8                      -340.038          27.000  
R19  20840503.807 9                     -1693.785          25.000    20840501.911 8                     -1320.450          31.000  
R18  23659818.889 9                     -4450.006          33.000    23659813.128 9                     -3460.938          34.000  
G 4  25142074.763 9                     -3399.779          21.000                                                                                                                                  
G 9  24466230.046 9                     -2507.722          18.000    24466178.087 9                     -1948.496          12.000                                                                  
S37  37982521.934 8                      -500.679          32.000  
E26  24487926.531 4 128684912.763 3       453.804          37.000    24487927.736 2  98602733.486 4       347.943          35.000  
C10  38824716.767 8                      -459.058          34.000    38824697.921 8 156330973.41635      -353.997          32.000  
E13  26773559.748 8                     -2319.776          33.000    26773561.600 4                     -1778.107          34.000  
E21  26126456.183 4 137295436.259 5      -491.130          36.000    26126452.715 2                      -377.199          34.000  
E18  21287292.643 4 111865460.851 3      2048.418          37.000    21287289.709 2  85715089.702 3      1569.836          38.000  
J 2  39993817.388 4                       595.344          34.000    39993817.009 8                       459.855          30.000  
J 3  40106364.156 4 210760365.46025     -1346.118          40.000    40106363.754 4                     -1051.271          32.000  
J 7  37982527.744 8                      -501.632          29.000    37982525.099 4 155532104.269 5      -389.890          34.000  
C 8                                                                  40008754.732 9                       968.006          21.000  
> 2021  5 17  2 33 35.0050000  0 26                     
G 7  22527563.610 4 118383145.38533      1673.582          38.000    22527557.792 8                      1303.166          29.000                                                                  
G21  22048116.198 4 115863634.84924       328.006          37.000                                                                                                                                  
G27  24679806.957 8                     -3592.233          28.000    24679799.437 8                     -2798.283          29.000                                                                  
G 1  22998642.901 9                      2588.077          26.000    22998639.470 9                      2020.799          23.000                                                                  
G30  25585949.333 9                      2821.874          24.000                                                                                                                                  
G 8  22532698.245 4                     -2453.945          37.000    22532700.367 8                     -1913.673          29.000                                                                  
C 7  38297237.787 8                      -339.006          33.000    38297225.924 4                      -262.094          33.000  
C 9  38136122.821 9                     -1816.128          12.000                                                                  
C30  24000574.040 9                      1233.573          18.000                                                                  
C27  23100667.442 2 120291235.425 3     -1624.076          41.000                                                                  
C16  39571077.769 9                     -2103.848          30.000    39571092.091 9                     -1627.796          28.000  
R16  21646200.666 9                      -437.058          18.000                                                                  
R19  20840823.580 9                     -1700.464          24.000    20840818.269 8                     -1320.168          31.000  
R18  23660648.706 9                     -4450.488          33.000    23660646.537 9                     -3461.968          31.000  
G 4  25142726.835 9                     -3399.779          21.000                                                                                                                                  
G 9  24466721.967 9                     -2517.171          27.000    24466658.850 9                     -1960.641          14.000                                                                  
S37  37982616.830 4                      -500.568          32.000  
E26  24487840.398 4 128684458.189 3       455.423          36.000    24487840.949 2  98602385.213 4       348.945          36.000  
C10  38824796.111 8                      -460.042          33.000    38824788.706 4                      -354.185          32.000  
E13  26774005.774 8                     -2317.556          33.000    26774002.531 4                     -1777.242          35.000  
E21  26126549.710 4 137295927.117 5      -489.834          36.000    26126546.022 2                      -377.210          31.000  
E18  21286900.100 4 111863413.062 3      2047.229          37.000    21286899.402 1  85713520.635 3      1568.556          38.000  
J 3  40106620.918 4 210761710.79224     -1344.294          37.000    40106620.555 4                     -1048.343          32.000  
J 7  37982621.329 8                      -498.858          29.000    37982619.625 4                      -389.264          34.000  
C 8                                                                  40008514.786 9                       968.854          19.000  
R20                                                                  22357035.639 9                      2154.744          34.000  
> 2021  5 17  2 33 36.0050000  0 28                     
G 7  22527244.467 4 118381468.12524      1670.882          35.000    22527239.014 8                      1302.146          29.000                                                                  
G21  22048053.804 2 115863305.90424       329.504          36.000                                                                                                                                  
G27  24680490.554 8                     -3592.260          32.000    24680485.035 9                     -2798.535          30.000                                                                  
G 1  22998151.157 9                      2588.063          24.000    22998148.739 9                      2022.512          21.000                                                                  
G 8  22533166.045 4 118412592.14535     -2453.323          38.000    22533165.552 8                     -1911.660          33.000                                                                  
C 7  38297302.671 4                      -339.993          31.000    38297289.302 4                      -262.779          33.000  
C 9  38136463.999 9                     -1829.322          35.000                                                                  
C30  24000322.282 9                      1218.430          40.000                                                                  
C27  23100979.452 2 120292859.440 3     -1624.180          41.000                                                                  
C16  39571503.745 9                     -2105.096          23.000                                                                  
R16  21646283.268 9                      -414.406          16.000                                                                  
R19  20841140.910 9                     -1698.345          24.000    20841135.577 8                     -1321.426          30.000  
R18  23661481.727 8                     -4450.829          34.000    23661479.367 9                     -3460.698          34.000  
R 9  22536723.552 9                      2110.540          34.000    22536725.416 9                      1635.938          30.000  
R20  22356499.692 9                      2770.734          25.000    22356513.330 9                      2153.784          34.000  
G 4  25143373.180 9                     -3399.779          19.000                                                                                                                                  
G 9  24467207.898 9                     -2515.013          25.000    24467140.680 9                     -1954.400          17.000                                                                  
S37  37982711.836 4                      -498.175          31.000  
E26  24487754.509 2 128684002.724 3       455.976          36.000    24487754.119 1  98602036.201 4       349.626          36.000  
C13  40761968.847 9                      1104.581          29.000                                                                  
C10  38824884.479 4                      -461.151          32.000    38824872.841 4                      -356.084          32.000  
E13  26774447.906 8                     -2318.263          34.000    26774443.251 2 107809591.08715     -1776.328          35.000  
E21  26126642.138 4                      -492.349          22.000    26126638.920 9                      -377.574          25.000  
E 1  26838137.345 9                       773.294          29.000    26838105.460 9                       595.829          32.000  
E18  21286510.993 4 111861366.633 3      2045.780          37.000    21286510.564 1  85711952.590 3      1567.291          38.000  
J 3  40106879.210 9                     -1356.006          23.000    40106876.346 9                     -1047.536          24.000  
J 7  37982716.612 8                      -498.046          28.000    37982714.690 2                      -387.960          34.000  
C 8                                                                  40008273.069 9                       974.328          19.000  
> 2021  5 17  2 33 37.0050000  0 27                     
G 7  22526926.246 2 118379795.89823      1669.299          36.000    22526920.766 8                      1302.276          30.000                                                                  
G21  22047991.004 1 115862976.131 4       330.002          35.000                                                                                                                                  
G27  24681173.953 9                     -3602.297          25.000                                                                                                                                  
G 1  22997667.889 9                      2598.034          23.000    22997658.790 9                      2017.965          17.000                                                                  
G30  25584885.783 8                      2800.276          26.000                                                                                                                                  
G 8  22533633.006 8                     -2454.875          35.000    22533635.174 8                     -1913.713          29.000                                                                  
C 7  38297368.025 4                      -340.823          33.000    38297355.921 4                      -262.734          32.000  
C 9  38136811.851 8                     -1830.180          31.000                                                                  
C30  24000078.028 8 124974703.67235      1219.009          40.000                                                                  
C27  23101291.440 1 120294483.852 2     -1624.670          41.000                                                                  
C16  39571922.600 9                     -2116.362          24.000                                                                  
R16  21646360.557 9                      -414.406          11.000                                                                  
R19  20841456.914 9                     -1696.855          24.000    20841453.010 4                     -1321.887          31.000  
R18  23662317.952 8                     -4452.352          35.000    23662312.730 9                     -3464.390          33.000  
R 9  22536330.852 8 120342748.68135      2108.606          36.000    22536333.423 9                      1639.454          29.000  
G 4  25144010.700 9                     -3399.779          19.000                                                                                                                                  
G 9  24467654.950 9                     -2537.986          37.000    24467625.597 9                     -1977.552          31.000                                                                  
S37  37982806.573 2                      -495.575          31.000  
E26  24487667.789 1 128683546.689 3       456.743          36.000    24487667.586 1  98601686.792 3       349.681          36.000  
C10  38824972.116 4 202171868.52435      -463.291          33.000    38824962.831 4 156332040.90325      -356.990          32.000  
E21  26126738.865 9                      -524.502          20.000    26126733.071 9                      -379.862          21.000  
E 1  26837960.092 9                       771.438          34.000    26837958.898 9                       590.586          33.000  
E18  21286122.366 2 111859321.797 3      2043.762          37.000    21286120.796 1  85710385.757 2      1565.979          39.000  
J 3  40107137.584 9                     -1356.006          19.000    40107132.161 9                     -1047.536          20.000  
J 7  37982811.266 8                      -496.644          28.000    37982809.438 2 155533270.398 5      -387.292          34.000  
E13                                                                  26774887.034 9                     -1792.115          23.000  
C 8                                                                  40008030.889 9                       982.156          18.000  
> 2021  5 17  2 33 38.0050000  0 27                     
G 7  22526608.967 2 118378127.62424      1667.439          36.000    22526602.920 8                      1299.046          30.000                                                                  
G21  22047928.209 1 115862645.879 4       329.819          34.000                                                                                                                                  
G27  24681857.538 9                     -3558.463          22.000                                                                                                                                  
G 1  22997164.672 9                      2598.071          30.000    22997166.426 9                      1980.679          29.000                                                                  
G30  25584355.832 8                      2797.438          26.000                                                                                                                                  
G 8  22534100.415 4                     -2465.005          28.000    22534097.633 9                     -1911.771          19.000                                                                  
C 7  38297433.704 8                      -343.839          28.000    38297421.171 4                      -264.009          26.000  
C 9  38137164.099 4                     -1829.177          31.000                                                                  
C30  23999845.271 4 124973485.30925      1217.114          38.000                                                                  
C27  23101603.539 1 120296109.101 3     -1625.945          37.000                                                                  
R19  20841774.178 9                     -1702.680          25.000    20841770.654 4                     -1323.380          30.000  
R 9  22535939.830 8 120340641.33224      2106.097          38.000    22535939.474 9                      1638.789          31.000  
G 4  25144633.935 9                     -3399.779          19.000                                                                                                                                  
G 9  24468126.137 8                     -2541.072          37.000    24468115.641 9                     -1980.919          31.000                                                                  
S37  37982900.953 2                      -496.249          31.000  
E26  24487580.939 1 128683090.318 3       456.554          36.000    24487580.770 1  98601337.098 3       350.023          36.000  
S28  38788316.469 9                      -524.906          37.000  
C10  38825061.836 4 202172331.96025      -463.707          32.000    38825052.020 4                      -358.509          32.000  
E 1  26837809.985 8 141033660.68915       770.306          31.000    26837810.509 4 108064747.92015       589.859          33.000  
E18  21285733.805 1 111857278.481 3      2042.594          36.000    21285732.104 1  85708820.107 2      1564.715          39.000  
J 7  37982906.094 8                      -495.693          28.000    37982903.897 2 155533657.092 5      -386.642          34.000  
E21                                                                  26126829.498 9                      -379.862          15.000  
E13                                                                  26775328.483 9                     -1792.115          19.000  
C 8                                                                  40007788.166 9                       975.205          27.000  
R18                                                                  23663144.939 9                     -3449.462          20.000  
R20                                                                  22355489.972 9                      2147.713          28.000  
J 3                                                                  40107391.939 9                     -1062.844          12.000  
> 2021  5 17  2 33 39.0050000  0 25                     
G 7  22526291.737 2 118376460.97925      1666.821          34.000    22526285.532 4                      1297.921          29.000                                                                  
G21  22047865.387 1 115862315.324 5       330.445          33.000                                                                                                                                  
G27  24682534.102 9                     -3545.458          16.000                                                                                                                                  
G 1  22996675.309 9                      2544.736          25.000    22996685.602 9                      1981.201          28.000                                                                  
G30  25583824.538 8                      2796.450          25.000                                                                                                                                  
G 8  22534568.021 9                     -2454.416          35.000    22534561.783 9                     -1913.176          28.000                                                                  
C 7  38297498.990 9                      -340.980          33.000    38297485.964 4                      -262.895          34.000  
C 9  38137529.587 9                     -1827.483          24.000    38137560.217 9                     -1414.610          30.000  
C30  23999610.538 8                      1224.090          26.000                                                                  
C27  23101915.885 2                     -1626.806          27.000                                                                  
R19  20842092.913 9                     -1705.494          23.000    20842088.646 4                     -1323.234          30.000  
R15  24775381.837 9                     -2902.735          18.000                                                                  
R 9  22535546.280 8 120338535.02614      2106.383          35.000    22535547.995 9                      1638.671          31.000  
G 9  24468607.940 8                     -2545.014          26.000    24468608.448 9                     -1969.416          25.000                                                                  
S37  37982995.224 2                      -494.672          30.000  
E26  24487494.022 1 128682633.740 3       457.203          35.000    24487493.859 1  98600987.260 3       350.208          36.000  
S28  38788420.367 9                      -519.189          27.000  
C10  38825151.720 4                      -464.950          32.000    38825142.008 4                      -359.647          32.000  
E 1  26837662.810 8                       768.967          32.000    26837664.450 4 108064158.243 5       590.801          33.000  
E18  21285345.156 1 111855236.581 4      2042.244          35.000    21285343.661 1  85707255.522 2      1564.479          39.000  
J 7  37983001.119 4                      -494.913          27.000    37982998.209 2 155534043.101 5      -385.162          34.000  
E21                                                                  26126926.241 9                      -371.914          13.000  
E13                                                                  26775775.991 9                     -1787.000          15.000  
C 8                                                                  40007546.156 9                       954.189          21.000  
R18                                                                  23663978.210 9                     -3456.640          18.000  
> 2021  5 17  2 33 40.0050000  0 25                     
G 7  22525974.836 1 118374795.72123      1664.162          36.000    22525968.265 4                      1296.992          29.000                                                                  
G21  22047802.612 1 115861985.065 4       329.582          35.000                                                                                                                                  
G 1  22996189.724 9                      2600.823          27.000    22996203.223 9                      1977.748          26.000                                                                  
G30  25583294.391 9                      2795.649          25.000                                                                                                                                  
G 8  22535034.365 9                     -2465.492          27.000    22535030.008 9                     -1893.826          16.000                                                                  
C 7  38297566.366 9                      -343.309          20.000    38297553.179 9                      -264.138          23.000  
C 9  38137922.215 9                     -1832.851          30.000    38137915.303 9                     -1416.065          30.000  
C30  23999437.706 9                      1213.645          35.000                                                                  
C27  23102228.175 2                     -1628.115          28.000                                                                  
R19  20842410.885 9                     -1702.639          23.000    20842407.161 4                     -1325.309          29.000  
G 4  25145914.786 9                     -3399.779          19.000                                                                                                                                  
G 9  24469134.040 9                     -2537.686          32.000    24469115.080 9                     -1979.280          31.000                                                                  
S37  37983089.369 4                      -493.922          31.000  
E26  24487407.348 1 128682177.480 3       455.353          38.000    24487407.030 1  98600637.641 3       348.954          37.000  
S28  38788568.574 9                      -520.996          36.000  
C10  38825240.705 4                      -466.157          32.000    38825231.659 2                      -360.789          32.000  
E 1  26837518.262 8                       766.270          33.000    26837519.050 2 108063569.572 5       588.790          34.000  
E18  21284957.099 1 111853196.076 3      2039.487          36.000    21284955.406 1  85705692.004 2      1562.706          40.000  
J 3  40107906.347 9                     -1342.898          22.000                                                                  
J 7  37983096.008 4                      -495.623          27.000    37983092.411 2 155534428.850 5      -385.935          34.000  
E21                                                                  26127021.626 9                      -371.914          12.000  
E13                                                                  26776221.629 9                     -1787.000          13.000  
C 8                                                                  40007305.003 9                       938.990          23.000  
R18                                                                  23664814.318 9                     -3430.492          15.000  
R 9                                                                  22535152.485 9                      1646.709          24.000  
> 2021  5 17  2 33 41.0050000  0 23                     
G 7  22525658.046 1 118373131.32323      1664.683          40.000    22525651.652 4                      1297.131          29.000                                                                  
G21  22047739.912 1 115861655.900 4       329.100          37.000                                                                                                                                  
G30  25582763.368 9                      2793.724          25.000                                                                                                                                  
G 8  22535509.371 9                     -2478.093          23.000    22535500.343 9                     -1909.023          19.000                                                                  
C 7  38297633.048 9                      -333.493          18.000    38297622.217 9                      -262.336          23.000  
C 9  38138280.649 9                     -1839.912          23.000                                                                  
C30  23999203.001 8                      1213.345          33.000                                                                  
C27  23102541.088 2                     -1627.996          26.000                                                                  
R19  20842728.470 9                     -1694.113          23.000    20842725.437 4                     -1325.074          28.000  
G 4  25146556.932 9                     -3399.779          19.000                                                                                                                                  
G 9  24469646.949 9                     -2549.854          36.000    24469625.993 9                     -1986.361          25.000                                                                  
S37  37983183.558 2                      -496.122          34.000  
E26  24487320.690 1 128681722.068 3       455.077          39.000    24487320.376 1  98600288.699 3       348.552          37.000  
S28  38788681.146 9                      -524.609          32.000  
C10  38825330.251 2                      -466.219          31.000    38825321.196 2 156333478.87115      -359.175          32.000  
E 1  26837374.130 8                       768.545          35.000    26837373.235 2 108062981.156 4       588.949          35.000  
E18  21284569.191 1 111851156.770 3      2039.323          40.000    21284567.227 1  85704129.421 2      1562.858          40.000  
J 2  39993033.931 9                       597.602          35.000    39993017.578 9                       465.584          30.000  
J 3  40108158.901 9                     -1343.482          35.000    40108149.992 9                     -1045.683          29.000  
J 7  37983189.630 4                      -496.022          28.000    37983186.635 2 155534814.864 5      -385.864          34.000  
E21                                                                  26127128.163 9                      -375.334          29.000  
E13                                                                  26776667.078 9                     -1787.000          11.000  
C 8                                                                  40007067.167 9                       967.618          22.000  
> 2021  5 17  2 33 42.0050000  0 25                     
G 7  22525341.373 1 118371466.89024      1663.475          37.000    22525334.855 4                      1297.749          29.000                                                                  
G21  22047677.478 1 115861327.739 4       327.262          38.000                                                                                                                                  
G30  25582232.019 9                      2795.507          25.000                                                                                                                                  
C 7  38297698.153 9                      -359.071          16.000    38297692.268 9                      -269.178          23.000  
C 9  38138633.437 9                     -1793.756          22.000                                                                  
C30  23998970.907 8                      1204.125          28.000                                                                  
C 8  40006823.877 9                      1256.202          29.000    40006821.569 9                       977.187          24.000  
C27  23102854.323 8                     -1627.584          34.000                                                                  
R16  21646778.900 9                      -438.623          33.000    21646766.214 9                      -339.401          29.000  
R19  20843044.772 9                     -1704.186          25.000    20843043.985 4                     -1325.919          28.000  
R15  24777033.484 9                     -2892.761          24.000                                                                  
G 4  25147202.261 9                     -3399.779          19.000                                                                                                                                  
G 9  24470140.468 9                     -2551.380          28.000    24470126.605 9                     -1952.533          25.000                                                                  
S37  37983277.939 4                      -496.260          33.000  
E26  24487234.093 1 128681267.330 3       454.188          37.000    24487233.883 1  98599940.265 3       348.107          37.000  
S28  38788782.152 9                      -524.609          30.000  
C10  38825419.692 2                      -465.383          32.000    38825410.449 2 156333838.806 5      -359.753          33.000  
E13  26777128.543 9                     -2323.907          33.000                                                                  
E21  26127205.379 9                      -489.430          39.000    26127229.527 8                      -380.175          29.000  
E 1  26837226.678 4 141030586.420 5       768.041          34.000    26837226.900 1 108062392.236 4       589.148          35.000  
E18  21284181.291 1 111849117.942 3      2038.169          37.000    21284179.515 1  85702567.199 2      1561.944          40.000  
J 2  39992913.546 9                       597.390          36.000    39992906.243 8                       464.224          30.000  
J 3  40108411.706 8                     -1343.652          34.000    40108406.577 9                     -1047.897          34.000  
J 7  37983283.922 4                      -496.329          29.000    37983280.906 2 155535201.194 4      -386.981          35.000  
G 8                                                                  22535968.052 9                     -1915.269          19.000                                                                  
> 2021  5 17  2 33 43.0050000  0 24                     
G 7  22525024.671 1 118369802.189 3      1664.261          37.000    22525018.155 2                      1297.222          29.000                                                                  
G21  22047615.293 1 115861000.781 4       326.470          37.000                                                                                                                                  
G27  24685356.235 9                     -3552.316          27.000                                                                                                                                  
G30  25581700.281 9                      2804.303          24.000                                                                                                                                  
C 7  38297767.857 9                      -351.618          14.000    38297759.819 9                      -259.713          23.000  
C 9  38138985.863 9                     -1809.984          21.000                                                                  
C30  23998741.230 9                      1199.737          27.000                                                                  
C27  23103168.811 4 120304252.30434     -1627.951          42.000                                                                  
R16  21646859.171 9                      -439.010          28.000    21646849.536 9                      -340.879          31.000  
R19  20843362.795 9                     -1704.748          24.000    20843362.828 4                     -1325.679          30.000  
R 9  22533973.279 9                      2105.814          25.000                                                                  
G 9  24470624.860 9                     -2547.244          28.000    24470611.105 9                     -1981.905          25.000                                                                  
S37  37983372.333 4                      -496.149          33.000  
E26  24487147.755 1 128680813.572 3       453.536          37.000    24487147.406 1  98599592.564 3       347.642          37.000  
S28  38788878.076 9                      -528.271          29.000  
C10  38825508.840 2                      -464.424          31.000    38825499.853 2 156334198.205 5      -359.161          32.000  
E21  26127289.402 9                      -489.567          31.000                                                                  
E 1  26837080.062 4 141029817.050 5       769.653          34.000    26837080.256 1 108061802.760 4       589.766          35.000  
E18  21283793.014 1 111847079.603 3      2038.381          35.000    21283791.553 1  85701005.375 2      1561.623          41.000  
J 2  39992796.877 4 210163616.96635       597.372          38.000    39992791.198 8                       465.934          35.000  
J 3  40108668.547 4 210772475.19535     -1343.713          39.000    40108660.306 9                     -1046.802          34.000  
J 7  37983378.488 2                      -496.851          29.000    37983375.424 2 155535587.980 5      -386.940          35.000  
C 8                                                                  40006575.977 9                       978.135          22.000  
G 8                                                                  22536436.584 9                     -1888.727          17.000                                                                  
> 2021  5 17  2 33 44.0050000  0 25                     
G 7  22524707.884 1 118368137.602 4      1664.282          37.000    22524701.549 2                      1296.856          34.000                                                                  
G21  22047553.347 1 115860675.395 4       325.250          37.000                                                                                                                                  
G27  24686029.232 9                     -3552.316          25.000                                                                                                                                  
C 7  38297834.675 9                      -317.769          15.000    38297824.765 9                      -251.351          23.000  
C 9  38139340.742 9                     -1843.501          21.000                                                                  
C30  23998510.602 9                      1187.504          26.000                                                                  
C27  23103479.752 2 120305881.25423     -1629.512          42.000                                                                  
C 6  39142136.260 9                     -2026.655          29.000                                                                  
R16  21646944.207 9                      -440.884          27.000                                                                  
R19  20843683.215 9                     -1705.418          24.000    20843681.645 4                     -1327.269          30.000  
R 9  22533582.776 9                      2107.410          32.000                                                                  
G 9  24471105.874 9                     -2570.068          33.000    24471098.303 9                     -2000.059          25.000                                                                  
S37  37983467.057 2                      -498.149          32.000  
E26  24487061.788 1 128680361.015 3       452.230          37.000    24487061.082 1  98599245.820 3       346.113          37.000  
S28  38788981.019 9                      -532.861          28.000  
C10  38825597.975 2                      -463.301          33.000    38825589.042 2 156334557.105 5      -357.614          33.000  
E 1  26836933.423 2 141029046.877 5       770.687          34.000    26836933.937 1 108061212.657 3       590.349          38.000  
E18  21283405.353 1 111845042.005 4      2037.346          36.000    21283404.009 1  85699444.065 2      1561.228          41.000  
J 2  39992684.312 4 210163019.68715       596.216          36.000    39992677.443 8                       464.556          35.000  
J 3  40108925.836 4 210773819.21123     -1344.448          39.000    40108917.000 8 164239309.85614     -1047.480          37.000  
J 7  37983473.098 2                      -497.339          29.000    37983469.850 2 155535975.538 4      -387.883          37.000  
E33                                                                  27531303.676 9                      1781.802          29.000  
C 8                                                                  40006345.700 9                       977.608          24.000  
C16                                                                  39574755.364 9                     -1628.544          28.000  
G 8                                                                  22536898.041 9                     -1889.474          13.000                                                                  
> 2021  5 17  2 33 45.0050000  0 26                     
G 7  22524390.596 1 118366470.551 5      1669.157          37.000    22524384.439 2                      1299.979          33.000                                                                  
G21  22047491.979 1 115860353.089 4       319.398          37.000                                                                                                                                  
G27  24686706.565 9                     -3552.316          22.000                                                                                                                                  
G 1  22993713.665 9                      2586.138          31.000                                                                                                                                  
C 7  38297897.857 9                      -340.982          18.000    38297888.131 9                      -242.303          23.000  
C 9  38139696.818 9                     -1823.778          20.000                                                                  
C30  23998277.197 9                      1198.547          24.000                                                                  
C27  23103791.362 2 120307510.010 3     -1628.453          40.000                                                                  
C 6  39142496.453 9                     -2032.222          36.000                                                                  
R19  20844002.956 9                     -1706.790          24.000    20843999.843 8                     -1326.839          30.000  
R 9  22533188.143 8                      2112.097          31.000                                                                  
G 4  25149132.466 9                     -3392.084          20.000                                                                                                                                  
G 9  24471592.137 9                     -2547.537          28.000    24471588.797 9                     -1995.857          24.000                                                                  
S37  37983562.351 2                      -502.122          33.000  
E26  24486976.026 1 128679910.664 3       448.146          37.000    24486975.372 1  98598900.720 3       343.752          36.000  
S28  38789083.050 9                      -557.275          26.000  
C10  38825686.619 2                      -457.807          33.000    38825677.696 2 156334913.410 5      -354.185          34.000  
E 1  26836787.098 2 141028273.033 5       777.402          35.000    26836787.052 1 108060619.697 4       595.150          37.000  
E18  21283017.662 1 111843003.597 4      2039.033          37.000    21283016.041 1  85697882.184 2      1562.549          39.000  
J 2  39992569.208 4                       594.180          32.000    39992561.107 4                       463.298          28.000  
J 3  40109177.216 4 210775163.77124     -1344.921          37.000    40109174.331 4 164240357.574 4     -1048.901          37.000  
J 7  37983568.015 4                      -502.519          29.000    37983564.913 1 155536364.959 4      -391.393          35.000  
E21                                                                  26127501.982 9                      -376.897          20.000  
C16                                                                  39575145.581 9                     -1627.897          27.000  
G 8                                                                  22537361.820 9                     -1900.053          15.000                                                                  
R20                                                                  22351900.368 9                      2148.919          35.000  
> 2021  5 17  2 33 46.0050000  0 25                     
G 7  22524072.331 1 118364798.029 5      1675.536          37.000    22524066.228 2                      1306.135          32.000                                                                  
G21  22047431.846 1 115860036.422 4       313.564          37.000                                                                                                                                  
G27  24687395.453 9                     -3552.316          20.000                                                                                                                                  
G 1  22993217.183 9                      2574.664          23.000                                                                                                                                  
G 8  22537845.701 9                     -2450.183          23.000    22537827.805 9                     -1900.515          17.000                                                                  
C 7  38297960.578 9                      -334.053          29.000    38297950.307 9                      -258.855          30.000  
C 9  38140040.079 9                     -1829.944          28.000                                                                  
C30  23998031.283 9                      1218.043          22.000                                                                  
C27  23104103.823 2 120309137.871 3     -1627.749          40.000                                                                  
C 6  39142881.718 8                     -2036.582          35.000                                                                  
R19  20844322.200 9                     -1706.452          25.000    20844316.862 8                     -1326.159          30.000  
G16  25756624.970 9                     -2219.182          15.000                                                                                                                                  
G 4  25149769.027 9                     -3382.928          22.000                                                                                                                                  
G 9  24472082.097 9                     -2561.719          27.000    24472075.310 9                     -1987.129          21.000                                                                  
S37  37983658.309 2                      -508.250          33.000  
E26  24486890.962 1 128679464.478 3       443.726          37.000    24486890.531 1  98598558.838 3       340.093          37.000  
C10  38825773.621 2                      -449.796          32.000    38825765.014 2 156335264.461 5      -347.617          34.000  
E 1  26836638.564 1 141027491.575 4       785.353          35.000    26836638.330 1 108060020.912 4       601.967          34.000  
E18  21282629.364 1 111840963.090 3      2041.671          36.000    21282627.596 1  85696318.685 3      1564.621          39.000  
J 3  40109440.666 9                     -1348.115          23.000    40109434.122 8                     -1049.616          26.000  
J 7  37983663.918 2                      -507.795          29.000    37983660.876 2 155536758.396 4      -396.326          35.000  
E21                                                                  26127591.830 9                      -367.284          21.000  
C16                                                                  39575551.064 9                     -1634.974          27.000  
R20                                                                  22351370.367 9                      2142.712          32.000  
J 2                                                                  39992450.758 9                       463.778          26.000  
> 2021  5 17  2 33 47.0050000  0 26                     
G 7  22523752.815 1 118363118.516 4      1683.948          38.000    22523746.657 2                      1312.023          30.000                                                                  
G21  22047372.840 1 115859726.714 4       305.763          36.000                                                                                                                                  
G27  24688092.207 9                     -3577.951          21.000                                                                                                                                  
G 1  22992726.221 9                      2569.816          25.000                                                                                                                                  
G 8  22538305.856 9                     -2446.045          34.000    22538295.018 9                     -1909.681          29.000                                                                  
C 7  38298022.948 8                      -328.178          31.000    38298011.742 8                      -254.528          34.000  
C 9  38140372.091 9                     -1834.974          36.000                                                                  
C30  23997787.632 9                      1214.434          23.000                                                                  
C27  23104413.952 2 120310764.470 3     -1625.688          40.000                                                                  
C 6  39143277.256 9                     -2045.379          26.000                                                                  
R19  20844640.445 9                     -1705.142          25.000    20844636.270 8                     -1326.024          29.000  
R15  24779771.146 9                     -2928.952          29.000    24779825.619 9                     -2280.884          25.000  
G16  25757040.323 9                     -2239.689          17.000                                                                                                                                  
G 4  25150409.589 9                     -3395.624          22.000                                                                                                                                  
G 9  24472565.513 9                     -2541.257          25.000    24472558.938 9                     -1977.466          21.000                                                                  
S37  37983755.561 2 199605982.04935      -513.816          33.000  
E26  24486806.990 1 128679023.304 3       438.022          37.000    24486806.568 1  98598220.793 3       336.282          37.000  
C10  38825859.121 2                      -442.468          30.000    38825850.522 2                      -340.897          33.000  
E 1  26836488.078 1 141026700.525 5       795.967          33.000    26836487.751 1 108059414.789 4       609.902          35.000  
E18  21282240.397 1 111838919.606 3      2044.829          36.000    21282238.647 1  85694752.863 3      1567.032          39.000  
J 3  40109701.621 9                     -1360.781          21.000                                                                  
J 7  37983761.187 2                      -514.467          29.000    37983758.138 1 155537156.732 3      -401.415          36.000  
E21                                                                  26127686.392 9                      -388.348          20.000  
C 8                                                                  40005612.241 9                       955.647          24.000  
C16                                                                  39575926.870 9                     -1639.321          32.000  
R20                                                                  22350842.645 8                      2140.582          34.000  
> 2021  5 17  2 33 48.0050000  0 26                     
G 7  22523431.846 1 118361432.073 4      1688.619          36.000    22523425.758 2                      1316.333          30.000                                                                  
G21  22047315.289 1 115859423.844 3       300.363          36.000                                                                                                                                  
G27  24688792.149 9                     -3577.951          22.000                                                                                                                                  
G 8  22538770.640 9 118442038.89935     -2441.278          36.000    22538766.124 8                     -1903.143          30.000                                                                  
C 7  38298082.513 4                      -325.257          32.000    38298074.401 4 154210475.36134      -250.896          36.000  
C 9  38140705.796 8 198608761.28534     -1835.518          34.000    38140674.060 8 153576689.49234     -1419.325          37.000  
C30  23997515.909 9 124961361.92435      1213.645          40.000                                                                  
C 8  40005386.779 9                      1225.354          25.000    40005372.688 9                       949.490          26.000  
C27  23104727.330 2 120312389.622 3     -1624.859          40.000                                                                  
R19  20844960.130 9                     -1705.559          26.000    20844955.098 8                     -1325.680          28.000  
R15  24780323.597 8                     -2939.586          35.000    24780374.607 9                     -2286.412          25.000  
R 9  22531996.673 9                      2137.081          26.000                                                                  
R20  22350331.963 9                      2747.718          26.000    22350322.994 8                      2138.177          34.000  
G16  25757469.029 9                     -2239.689          18.000                                                                                                                                  
G 4  25151038.319 9                     -3395.605          29.000                                                                                                                                  
G 9  24473040.499 9                     -2539.730          27.000    24473039.393 9                     -1982.597          21.000                                                                  
S37  37983854.001 2 199606499.62324      -519.779          33.000  
E26  24486723.968 1 128678587.082 2       433.812          38.000    24486723.618 1  98597886.567 3       332.730          37.000  
C10  38825943.004 2                      -433.934          31.000    38825934.460 2 156335946.799 5      -336.094          32.000  
E13  26779786.807 9                     -2322.454          26.000                                                                  
E 1  26836335.749 1 141025899.736 4       803.633          34.000    26836335.022 1 108058801.178 4       616.319          34.000  
E18  21281850.988 1 111836872.991 3      2047.339          37.000    21281849.298 1  85693184.704 2      1568.907          39.000  
J 3  40109960.825 9                     -1346.838          19.000                                                                  
J 7  37983859.703 2                      -519.590          30.000    37983856.532 1 155537559.972 3      -405.420          37.000  
E21                                                                  26127784.304 9                      -376.999          19.000  
C16                                                                  39576330.213 8                     -1643.459          30.000  
> 2021  5 17  2 33 49.0050000  0 25                     
G 7  22523110.263 1 118359742.235 3      1689.818          38.000    22523104.121 4                      1315.830          30.000                                                                  
G21  22047258.296 1 115859124.716 3       298.360          35.000                                                                                                                                  
G27  24689480.411 9                     -3577.951          26.000                                                                                                                                  
G 8  22539239.137 4 118444480.13123     -2441.543          38.000    22539231.405 8                     -1901.903          30.000                                                                  
C 7  38298145.298 4 199428505.75335      -324.270          33.000    38298136.197 4 154210726.15623      -250.969          36.000  
C 9  38141050.589 4 198610597.13625     -1836.190          33.000    38141028.080 8 153578109.05823     -1419.788          38.000  
C30  23997278.257 4 124960148.38523      1213.376          40.000                                                                  
C27  23105039.380 1 120314014.323 2     -1625.044          40.000                                                                  
R19  20845278.170 9                     -1705.269          25.000    20845270.809 8                     -1326.390          26.000  
R15  24780880.310 8 132421477.55534     -2942.757          35.000    24780925.542 9                     -2288.078          26.000  
R 9  22531597.194 9                      2139.222          27.000                                                                  
R20  22349815.524 9                      2747.353          27.000    22349805.279 8                      2136.627          32.000  
G16  25757890.253 9                     -2239.689          16.000                                                                                                                                  
G 4  25151660.756 9                     -3387.499          26.000                                                                                                                                  
G 9  24473522.922 9                     -2538.905          25.000    24473522.723 9                     -1976.671          24.000                                                                  
S37  37983953.183 2 199607020.34724      -521.586          34.000  
E26  24486641.755 1 128678153.541 2       433.473          38.000    24486641.272 1  98597554.404 3       332.049          37.000  
C10  38826026.030 2                      -430.642          32.000    38826017.484 2                      -334.609          31.000  
E13  26780234.469 8                     -2321.086          26.000                                                                  
E 1  26836181.852 1 141025094.016 5       805.949          34.000    26836181.438 1 108058183.895 4       617.039          34.000  
E18  21281461.454 1 111834825.228 3      2047.294          37.000    21281459.985 1  85691615.651 2      1568.539          40.000  
J 7  37983958.809 2                      -520.616          30.000    37983955.460 1 155537965.683 3      -406.262          37.000  
E21                                                                  26127878.409 9                      -383.435          19.000  
C 8                                                                  40005140.712 9                       946.823          28.000  
C16                                                                  39576732.446 8                     -1642.797          29.000  
> 2021  5 17  2 33 50.0050000  0 25                     
G 7  22522788.867 1 118358052.886 2      1689.278          38.000    22522782.635 4                      1315.940          29.000                                                                  
G21  22047201.425 1 115858826.391 4       298.090          35.000                                                                                                                                  
G27  24690164.072 9                     -3575.488          29.000                                                                                                                                  
G 8  22539703.153 4 118446921.643 3     -2441.136          38.000    22539697.239 8                     -1903.254          30.000                                                                  
C 7  38298207.575 4 199428829.99925      -323.524          33.000    38298198.722 2 154210976.90723      -250.838          36.000  
C 9  38141400.384 4 198612433.17125     -1836.562          33.000    38141379.499 4 153579528.80423     -1419.705          38.000  
C30  23997045.677 2 124958935.37022      1212.934          40.000                                                                  
C27  23105351.454 1 120315639.535 2     -1625.395          40.000                                                                  
R19  20845595.982 9                     -1707.137          24.000    20845589.337 8                     -1326.277          26.000  
R15  24781433.727 8 132424420.55224     -2942.970          34.000    24781474.856 9                     -2289.144          25.000  
R 9  22531201.780 9                      2138.589          27.000                                                                  
R20  22349299.353 9                      2746.567          27.000    22349287.749 8  92953586.57515      2136.627          33.000  
G16  25758317.732 9                     -2239.689          14.000                                                                                                                                  
G 4  25152284.291 9                     -3387.029          27.000                                                                                                                                  
G 9  24474009.994 9                     -2546.022          22.000    24474006.081 8                     -1977.360          25.000                                                                  
S37  37984052.276 2 199607541.212 5      -521.683          33.000  
E26  24486559.360 1 128677720.697 3       432.501          37.000    24486559.129 1  98597222.703 3       331.835          37.000  
C10  38826109.091 2 202177785.292 5      -432.551          32.000    38826100.430 2                      -333.853          31.000  
E13  26780678.871 8                     -2322.397          26.000                                                                  
E 1  26836028.493 1 141024288.360 4       805.619          33.000    26836027.995 1 108057566.524 5       617.539          34.000  
E18  21281072.033 1 111832778.300 3      2046.718          37.000    21281070.583 1  85690047.211 2      1568.151          39.000  
J 7  37984058.006 4                      -520.636          30.000    37984054.446 1 155538371.526 3      -405.699          37.000  
E21                                                                  26127975.020 9                      -369.349          19.000  
C 8                                                                  40004907.464 9                       947.565          28.000  
C16                                                                  39577139.457 8                     -1643.340          28.000  
> 2021  5 17  2 33 51.0050000  0 25                     
G 7  22522467.552 1 118356364.097 2      1688.318          38.000    22522461.251 2                      1315.691          30.000                                                                  
G21  22047144.855 1 115858528.830 4       297.270          35.000                                                                                                                                  
G27  24690846.996 9                     -3582.873          29.000                                                                                                                                  
G 8  22540169.232 4 118449363.594 2     -2442.579          38.000    22540164.320 8                     -1903.294          31.000                                                                  
C 7  38298269.970 4 199429154.432 5      -325.279          33.000    38298261.416 2 154211227.21113      -251.150          36.000  
C 9  38141748.883 4 198614268.96315     -1836.737          33.000    38141732.104 4 153580948.74222     -1420.166          38.000  
C30  23996813.219 2 124957722.904 2      1212.109          40.000                                                                  
C27  23105663.600 1 120317265.344 2     -1626.113          39.000                                                                  
R19  20845916.764 9                     -1708.427          24.000    20845906.776 8                     -1327.377          25.000  
R15  24781983.786 8 132427364.10224     -2943.981          34.000    24782025.074 9                     -2289.016          25.000  
R 9  22530801.543 9                      2137.637          27.000                                                                  
R20  22348783.851 9                      2745.775          27.000    22348771.916 4  92951450.701 5      2135.504          33.000  
G16  25758751.130 9                     -2239.689          14.000                                                                                                                                  
G 4  25152907.334 9                     -3387.242          29.000                                                                                                                                  
G 9  24474497.121 9                     -2529.964          20.000    24474489.240 8                     -1978.605          25.000                                                                  
S37  37984151.503 2 199608062.239 4      -522.202          33.000  
E26  24486477.202 1 128677288.420 3       431.677          37.000    24486476.986 1  98596891.502 3       330.539          37.000  
C10  38826192.149 2 202178217.784 5      -433.263          32.000    38826183.550 2                      -334.807          31.000  
E13  26781124.047 9                     -2323.028          26.000                                                                  
E 1  26835874.896 1 141023482.736 4       805.581          33.000    26835874.502 1 108056949.268 4       616.478          33.000  
E18  21280682.922 1 111830732.256 3      2045.682          37.000    21280680.915 1  85688479.470 2      1567.350          39.000  
J 7  37984157.165 4                      -520.785          30.000    37984153.586 1 155538777.537 3      -406.528          37.000  
E21                                                                  26128070.714 9                      -375.509          18.000  
C 8                                                                  40004670.604 8                       946.912          28.000  
C16                                                                  39577548.218 4                     -1645.027          27.000  
> 2021  5 17  2 33 52.0050000  0 26                     
G 7  22522146.363 1 118354675.787 2      1688.329          38.000    22522139.904 2                      1315.229          29.000                                                                  
G21  22047088.503 1 115858232.016 3       296.489          35.000                                                                                                                                  
G27  24691531.662 9                     -3583.231          29.000                                                                                                                                  
G30  25576862.096 9                      2841.732          25.000                                                                                                                                  
G 8  22540632.318 2 118451805.834 3     -2442.865          38.000    22540629.364 4                     -1902.454          31.000                                                                  
C 7  38298332.984 4 199429478.727 5      -324.057          33.000    38298323.833 2 154211477.984 3      -250.359          36.000  
C 9  38142100.350 4 198616105.505 5     -1836.532          33.000    38142084.296 4 153582368.34812     -1419.931          38.000  
C30  23996580.043 2 124956510.904 2      1212.049          39.000                                                                  
C 8  40004438.011 9                      1223.795          24.000    40004437.088 8                       946.812          28.000  
C27  23105975.934 1 120318891.611 2     -1626.363          39.000                                                                  
R19  20846237.641 9                     -1706.761          24.000    20846225.474 8                     -1329.032          24.000  
R15  24782534.581 4 132430308.13524     -2944.440          34.000    24782573.753 9                     -2289.918          24.000  
R 9  22530401.470 9                      2138.259          26.000                                                                  
R20  22348267.291 8                      2745.394          26.000    22348258.274 4  92949315.308 4      2135.449          34.000  
G16  25759174.331 9                     -2239.689          17.000                                                                                                                                  
G 4  25153529.438 9                     -3386.677          30.000                                                                                                                                  
G 9  24474981.809 9                     -2531.707          19.000    24474974.971 8                     -1978.373          26.000                                                                  
S37  37984250.873 2 199608583.288 5      -521.512          34.000  
E26  24486394.941 1 128676856.640 3       432.027          37.000    24486394.799 1  98596560.641 2       330.944          38.000  
C10  38826275.500 2 202178650.255 5      -431.924          32.000    38826266.598 2                      -333.953          31.000  
E13  26781570.006 9                     -2321.891          25.000                                                                  
E 1  26835721.425 1 141022677.162 4       805.925          33.000    26835721.070 1 108056331.981 4       616.999          34.000  
E18  21280293.633 1 111828687.057 3      2044.927          37.000    21280291.716 1  85686912.347 2      1566.784          39.000  
J 7  37984256.441 4                      -522.330          30.000    37984252.702 1 155539183.582 3      -406.403          37.000  
E21                                                                  26128164.457 9                      -377.720          20.000  
C16                                                                  39577956.599 4                     -1643.073          27.000  
> 2021  5 17  2 33 53.0050000  0 26                     
G 7  22521825.182 1 118352988.142 2      1687.347          38.000    22521818.930 2                      1314.796          30.000                                                                  
G21  22047032.042 1 115857935.968 4       295.692          35.000                                                                                                                                  
G27  24692211.475 9                     -3583.507          29.000                                                                                                                                  
G30  25576320.897 9                      2843.186          25.000                                                                                                                                  
G 8  22541097.372 4 118454248.486 3     -2442.677          38.000    22541095.230 8                     -1904.172          31.000                                                                  
C 7  38298394.227 2 199429803.208 4      -325.725          33.000    38298385.525 2 154211728.866 3      -250.732          36.000  
C 9  38142452.955 2 198617942.346 5     -1836.970          33.000    38142437.096 2 153583788.706 2     -1420.500          38.000  
C30  23996347.116 2 124955299.523 3      1210.848          39.000                                                                  
C 8  40004209.766 9                      1226.489          25.000    40004202.091 8                       946.694          29.000  
C27  23106288.277 1 120320518.518 2     -1627.054          39.000                                                                  
R19  20846556.801 9                     -1709.052          24.000    20846544.187 8                     -1329.946          24.000  
R15  24783086.764 4 132433252.70224     -2944.675          34.000    24783122.975 9                     -2291.374          24.000  
R 9  22530001.325 8                      2137.329          25.000                                                                  
R20  22347750.947 8                      2744.428          26.000    22347745.075 4  92947180.571 4      2134.174          34.000  
G16  25759600.186 9                     -2239.689          18.000                                                                                                                                  
G 4  25154169.579 9                     -3387.243          31.000                                                                                                                                  
G 9  24475464.622 9                     -2542.467          21.000    24475459.171 8                     -1979.237          25.000                                                                  
S37  37984350.134 2 199609104.549 5      -521.719          34.000  
E26  24486312.865 1 128676425.519 3       430.661          37.000    24486312.688 1  98596230.305 2       329.999          37.000  
C10  38826358.725 2 202179082.863 4      -432.535          32.000    38826349.688 2                      -335.025          31.000  
E13  26782013.476 8                     -2323.028          25.000                                                                  
E 1  26835568.150 1 141021871.731 4       805.643          33.000    26835567.643 1 108055714.827 4       617.260          34.000  
E18  21279904.451 1 111826642.791 3      2043.577          37.000    21279902.689 1  85685345.965 2      1566.092          39.000  
J 7  37984355.558 4                      -521.610          30.000    37984351.814 1 155539589.747 2      -406.133          37.000  
E21                                                                  26128259.552 9                      -374.576          19.000  
C16                                                                  39578365.340 4                     -1643.821          26.000  
> 2021  5 17  2 33 54.0050000  0 26                     
G 7  22521504.137 1 118351300.980 3      1686.527          38.000    22521497.925 2                      1314.338          29.000                                                                  
G21  22046975.823 1 115857640.649 4       294.833          35.000                                                                                                                                  
G27  24692894.505 8                     -3583.313          29.000                                                                                                                                  
G30  25575778.730 9                      2842.184          25.000                                                                                                                                  
G 8  22541562.703 2 118456691.449 3     -2442.751          38.000    22541560.651 4                     -1903.867          31.000                                                                  
C 7  38298456.256 2 199430127.574 5      -324.222          33.000    38298447.700 1 154211979.752 3      -250.564          36.000  
C 9  38142805.660 2 198619779.317 5     -1836.503          33.000    38142789.712 2 153585209.206 3     -1420.455          38.000  
C30  23996115.109 2 124954088.627 2      1210.776          39.000                                                                  
C 8  40003975.154 9                      1225.695          25.000    40003967.645 8                       946.653          28.000  
C27  23106600.681 1 120322145.916 2     -1627.426          39.000                                                                  
R19  20846876.353 9                     -1710.574          25.000    20846863.844 9                     -1331.309          24.000  
R15  24783637.765 4 132436197.72725     -2945.335          34.000    24783671.726 9                     -2289.834          24.000  
R 9  22529601.651 9                      2132.344          25.000                                                                  
R20  22347235.435 8                      2743.123          27.000    22347231.989 2  92945046.267 4      2134.765          34.000  
G16  25760023.792 9                     -2239.689          20.000                                                                                                                                  
G 4  25154809.257 9 132189694.88235     -3387.022          31.000                                                                                                                                  
G 9  24475944.291 9                     -2547.374          23.000    24475945.491 8                     -1978.504          25.000                                                                  
S37  37984449.138 2 199609625.875 5      -520.681          34.000  
E26  24486230.771 1 128675994.923 3       430.198          37.000    24486230.847 1  98595900.358 2       329.856          37.000  
C10  38826441.925 2 202179515.421 5      -432.646          32.000    38826432.804 2                      -334.129          31.000  
E13  26782457.415 9                     -2322.979          24.000                                                                  
E 1  26835414.700 1 141021066.315 5       805.816          34.000    26835414.354 1 108055097.702 4       617.472          34.000  
E18  21279515.770 1 111824599.342 3      2042.864          37.000    21279513.886 1  85683780.199 2      1565.593          39.000  
J 7  37984454.763 4                      -521.954          30.000    37984450.991 1 155539995.989 2      -406.024          37.000  
E21                                                                  26128352.743 9                      -376.684          20.000  
C16                                                                  39578774.280 4                     -1644.569          26.000  
> 2021  5 17  2 33 55.0050000  0 27                     
G 7  22521183.153 1 118349614.240 3      1686.207          38.000    22521176.980 2                      1313.581          30.000                                                                  
G21  22046919.877 1 115857345.932 4       294.390          35.000                                                                                                                                  
G27  24693578.665 8 129765608.43335     -3583.258          29.000                                                                                                                                  
G30  25575237.850 9                      2841.245          25.000                                                                                                                                  
G 8  22542027.358 1 118459134.665 2     -2442.964          38.000    22542025.612 4                     -1904.018          31.000                                                                  
C 7  38298518.778 2 199430451.945 4      -323.795          34.000    38298509.978 1 154212230.583 3      -251.318          36.000  
C 9  38143158.489 2 198621616.452 5     -1836.277          33.000    38143142.403 2 153586629.804 2     -1420.552          38.000  
C30  23995882.794 1 124952878.134 3      1210.060          38.000                                                                  
C 8  40003741.064 9                      1223.771          26.000    40003733.783 8                       946.647          28.000  
C27  23106913.286 1 120323773.729 3     -1627.843          39.000                                                                  
R19  20847197.131 9                     -1710.896          25.000    20847184.221 9                     -1330.549          25.000  
R15  24784188.764 4 132439143.176 5     -2945.768          33.000    24784221.449 9                     -2290.907          23.000  
R 9  22529202.960 9                      2137.793          25.000                                                                  
R20  22346722.059 8                      2741.933          26.000    22346718.934 4  92942912.521 4      2132.782          34.000  
G16  25760448.335 9                     -2239.689          20.000                                                                                                                                  
G 4  25155452.757 8                     -3387.282          31.000                                                                                                                                  
G 9  24476422.846 9                     -2540.494          26.000    24476431.438 8                     -1980.025          24.000                                                                  
S37  37984548.367 2 199610147.279 4      -521.561          34.000  
E26  24486148.774 1 128675564.753 3       430.004          37.000    24486149.048 1  98595570.786 3       329.041          37.000  
C10  38826525.080 2 202179947.930 5      -432.699          32.000    38826515.903 2                      -335.458          31.000  
E13  26782900.242 8                     -2324.887          24.000                                                                  
E 1  26835261.653 1 141020260.900 4       805.171          34.000    26835261.091 1 108054480.549 4       616.601          34.000  
E18  21279126.709 1 111822556.641 3      2042.035          36.000    21279125.207 1  85682215.035 2      1564.728          39.000  
J 7  37984553.882 4                      -522.034          30.000    37984550.210 1 155540402.270 3      -406.490          37.000  
E21                                                                  26128447.375 9                      -382.016          19.000  
C16                                                                  39579182.720 4                     -1644.335          26.000  
G 1                                                                  22988824.223 9                      1993.668          25.000                                                                  
> 2021  5 17  2 33 56.0050000  0 26                     
G 7  22520862.344 1 118347928.094 2      1685.585          38.000    22520856.111 2                      1313.613          29.000                                                                  
G21  22046863.981 1 115857052.060 4       293.229          35.000                                                                                                                                  
G27  24694262.989 8                     -3584.189          29.000                                                                                                                                  
G30  25574699.367 9                      2842.434          25.000                                                                                                                                  
G 8  22542492.128 1 118461578.329 2     -2444.068          38.000    22542490.791 4                     -1904.052          31.000                                                                  
C 7  38298581.185 2 199430776.429 4      -324.589          33.000    38298572.237 1 154212481.464 3      -251.118          36.000  
C 9  38143511.297 2 198623453.960 4     -1837.927          33.000    38143495.255 1 153588050.649 2     -1420.880          38.000  
C30  23995650.360 1 124951668.235 2      1209.458          38.000                                                                  
C 8  40003505.877 8                      1224.231          26.000    40003498.293 4                       945.991          29.000  
C27  23107225.923 1 120325402.148 3     -1628.680          39.000                                                                  
R19  20847517.602 9                     -1711.794          25.000    20847505.793 9                     -1331.886          25.000  
R15  24784740.170 2 132442089.129 5     -2946.694          33.000    24784771.244 9                     -2290.814          24.000  
R 9  22528804.312 9                      2137.330          25.000                                                                  
R20  22346208.604 9                      2742.830          26.000    22346205.919 2  92940779.317 4      2132.501          33.000  
G 4  25156093.167 8 132196469.942 5     -3387.945          31.000                                                                                                                                  
G 9  24476903.389 8                     -2541.126          28.000    24476918.330 8                     -1980.129          24.000                                                                  
S37  37984647.558 2 199610668.766 4      -521.627          34.000  
E26  24486067.042 1 128675135.250 3       428.784          37.000    24486067.240 1  98595241.646 3       328.937          37.000  
C10  38826608.324 2 202180380.508 5      -432.706          32.000    38826598.864 2                      -334.478          31.000  
E13  26783341.843 8                     -2325.433          23.000                                                                  
E 1  26835108.321 1 141019455.553 3       805.241          34.000    26835107.777 1 108053863.484 4       616.793          34.000  
E18  21278738.014 1 111820514.891 3      2041.041          36.000    21278736.501 1  85680650.561 2      1564.134          39.000  
J 7  37984653.166 4                      -521.219          30.000    37984649.273 1 155540808.632 3      -406.443          37.000  
E21                                                                  26128539.715 9                      -377.447          20.000  
C16                                                                  39579591.036 2                     -1643.730          26.000  
G 1                                                                  22988337.838 9                      1992.131          26.000                                                                  
> 2021  5 17  2 33 57.0050000  0 26                     
G 7  22520541.505 1 118346242.576 3      1685.737          38.000    22520535.462 2                      1313.209          29.000                                                                  
G21  22046808.140 1 115856758.947 4       293.352          35.000                                                                                                                                  
G27  24694945.992 4 129772774.91515     -3583.108          29.000                                                                                                                                  
G30  25574161.092 8                      2841.461          26.000                                                                                                                                  
G 8  22542957.073 1 118464022.382 2     -2443.824          38.000    22542956.023 2                     -1904.746          31.000                                                                  
C 7  38298643.449 2 199431100.934 5      -323.429          33.000    38298634.495 1 154212732.429 3      -250.599          36.000  
C 9  38143864.117 2 198625291.718 4     -1837.846          33.000    38143848.161 1 153589471.701 3     -1420.504          38.000  
C30  23995418.115 1 124950458.935 3      1209.208          38.000                                                                  
C 8  40003269.817 8                      1223.899          26.000    40003263.158 4                       946.610          28.000  
C27  23107538.772 1 120327031.154 2     -1628.657          39.000                                                                  
R19  20847837.927 9                     -1712.195          25.000    20847826.871 9                     -1332.498          26.000  
R15  24785291.705 4 132445035.666 5     -2946.493          33.000    24785321.240 9                     -2291.179          25.000  
R 9  22528405.512 9                      2138.540          25.000                                                                  
R20  22345696.463 9                      2742.461          26.000    22345693.152 4  92938646.709 5      2132.117          33.000  
G 4  25156737.297 8                     -3387.012          32.000                                                                                                                                  
G 9  24477383.658 8                     -2541.425          29.000    24477405.211 8                     -1979.922          24.000                                                                  
S37  37984746.790 2 199611190.483 4      -521.039          33.000  
E26  24485985.391 1 128674706.350 3       428.696          37.000    24485985.700 1  98594913.024 3       328.620          37.000  
C10  38826691.413 2                      -432.406          32.000    38826681.973 2                      -334.216          31.000  
E13  26783784.889 8                     -2323.610          23.000                                                                  
E 1  26834955.285 1 141018650.424 3       804.998          35.000    26834954.548 1 108053246.546 4       616.710          34.000  
E18  21278349.956 1 111818474.053 3      2041.187          36.000    21278348.121 1  85679086.814 2      1563.718          39.000  
J 7  37984752.370 4                      -521.772          30.000    37984748.513 1 155541215.168 3      -406.381          37.000  
E21                                                                  26128634.234 9                      -382.194          20.000  
C16                                                                  39579999.256 2                     -1644.286          26.000  
G 1                                                                  22987853.618 9                      1992.615          26.000                                                                  
> 2021  5 17  2 33 58.0050000  0 26                     
G 7  22520220.637 1 118344557.229 3      1685.476          38.000    22520214.742 2  92216506.60715      1312.614          29.000                                                                  
G21  22046752.360 1 115856466.242 5       292.634          35.000                                                                                                                                  
G27  24695628.202 4                     -3583.324          29.000                                                                                                                                  
G30  25573622.431 8                      2842.206          26.000                                                                                                                                  
G 8  22543422.055 1 118466466.410 3     -2444.094          38.000    22543421.084 2                     -1903.359          31.000                                                                  
C 7  38298705.809 2 199431425.164 5      -323.828          33.000    38298696.647 1 154212983.149 3      -250.864          36.000  
C 9  38144217.111 2 198627129.369 5     -1838.090          33.000    38144201.041 1 153590892.699 3     -1421.120          38.000  
C30  23995185.889 1 124949249.810 3      1208.654          37.000                                                                  
C 8  40003034.293 8                      1223.337          26.000    40003028.112 4                       946.369          28.000  
C27  23107851.529 1 120328660.380 2     -1629.623          39.000                                                                  
R19  20848158.228 9                     -1713.115          25.000    20848148.148 9                     -1333.150          26.000  
R15  24785843.305 2 132447982.371 5     -2947.496          33.000    24785872.536 9                     -2291.421          25.000  
R 9  22528006.358 9                      2136.101          25.000                                                                  
R20  22345184.831 9                      2741.145          26.000    22345180.393 4  92936514.341 5      2132.226          33.000  
G 4  25157380.395 4 132203245.196 5     -3387.699          31.000                                                                                                                                  
G 9  24477864.924 8                     -2541.806          29.000    24477891.310 8                     -1980.299          25.000                                                                  
S37  37984845.876 2 199611711.958 4      -521.298          33.000  
E26  24485904.027 1 128674277.661 3       428.450          37.000    24485904.070 1  98594584.535 3       328.593          36.000  
C10  38826774.212 2                      -432.029          32.000    38826764.897 2                      -334.032          31.000  
E13  26784226.414 8                     -2324.944          23.000                                                                  
E 1  26834802.166 1 141017844.921 4       805.878          35.000    26834801.274 1 108052629.360 4       617.101          33.000  
E18  21277961.743 1 111816433.767 3      2039.984          36.000    21277959.872 1  85677523.482 2      1563.002          38.000  
J 7  37984851.494 2                      -521.919          30.000    37984847.755 1 155541621.518 3      -406.400          37.000  
E21                                                                  26128728.694 9                      -379.964          20.000  
C16                                                                  39580407.797 2                     -1644.607          25.000  
G 1                                                                  22987368.862 8                      1992.649          27.000                                                                  
> 2021  5 17  2 33 59.0050000  0 26                     
G 7  22519900.081 1 118342872.361 3      1684.885          38.000    22519893.908 2                      1313.049          29.000                                                                  
G21  22046696.824 1 115856174.218 4       291.056          35.000                                                                                                                                  
G27  24696314.303 4                     -3583.203          29.000                                                                                                                                  
G30  25573082.506 8                      2840.079          26.000                                                                                                                                  
G 8  22543887.186 1 118468910.706 3     -2444.498          38.000    22543886.282 2                     -1904.706          31.000                                                                  
C 7  38298767.781 2 199431749.353 4      -324.406          33.000    38298758.962 1 154213233.809 3      -250.781          36.000  
C 9  38144569.982 2 198628967.181 4     -1838.114          33.000    38144553.876 1 153592313.792 2     -1421.293          38.000  
C30  23994953.597 1 124948041.117 3      1208.174          37.000                                                                  
C 8  40002800.782 8                      1225.108          26.000    40002793.578 4                       946.316          28.000  
C27  23108164.480 1 120330290.010 2     -1629.851          39.000                                                                  
R19  20848477.778 9                     -1714.773          25.000    20848469.412 8                     -1334.004          26.000  
R15  24786394.809 4 132450929.427 5     -2947.663          33.000    24786425.140 9                     -2292.083          26.000  
R 9  22527607.111 9                      2136.250          25.000                                                                  
R20  22344672.282 9                      2741.093          26.000    22344667.563 4  92934382.508 4      2131.238          33.000  
G 4  25158025.154 4                     -3387.284          31.000                                                                                                                                  
G 9  24478346.034 8                     -2541.622          29.000    24478378.986 8                     -1979.944          25.000                                                                  
S37  37984944.988 2 199612233.426 5      -521.036          33.000  
E26  24485822.382 1 128673849.446 2       427.954          37.000    24485822.462 1  98594256.413 2       328.115          37.000  
C10  38826857.347 2 202181677.863 5      -432.529          32.000    38826847.920 2                      -334.701          31.000  
E13  26784669.003 8                     -2325.454          23.000                                                                  
E 1  26834648.862 1 141017039.439 4       805.570          35.000    26834648.008 1 108052012.140 4       617.571          34.000  
E18  21277573.653 1 111814394.222 3      2039.329          36.000    21277571.691 1  85675960.712 2      1562.536          39.000  
J 7  37984950.841 4                      -521.694          30.000    37984946.960 1 155542027.875 3      -406.075          37.000  
E21                                                                  26128821.347 9                      -382.427          20.000  
C16                                                                  39580816.515 4                     -1643.030          25.000  
G 1                                                                  22986886.749 8                      1992.566          27.000                                                                  
> 2021  5 17  2 34  0.0050000  0 26                     
G 7  22519579.451 1 118341187.946 2      1684.456          38.000    22519573.399 2                      1312.221          29.000                                                                  
G21  22046641.362 1 115855882.828 4       291.015          35.000                                                                                                                                  
G27  24696995.930 4                     -3583.411          29.000                                                                                                                                  
G30  25572543.008 8                      2840.425          26.000                                                                                                                                  
G 8  22544352.178 1 118471355.272 2     -2444.816          38.000    22544351.536 2                     -1905.203          31.000                                                                  
C 7  38298830.200 2 199432073.498 4      -324.567          33.000    38298821.170 1 154213484.448 3      -250.651          36.000  
C 9  38144923.185 2 198630805.120 4     -1838.056          33.000    38144906.777 1 153593735.037 3     -1421.466          38.000  
C30  23994721.452 1 124946832.877 3      1207.847          37.000                                                                  
C 8  40002566.557 8                      1223.964          26.000    40002559.093 4                       946.079          28.000  
C27  23108477.437 1 120331920.140 2     -1630.645          39.000                                                                  
R19  20848799.669 9                     -1717.612          25.000    20848791.317 9                     -1335.102          26.000  
R15  24786946.512 2 132453876.942 5     -2947.533          33.000    24786977.420 8                     -2293.119          27.000  
R 9  22527207.213 9                      2137.625          24.000                                                                  
R20  22344159.277 9                      2739.402          26.000    22344155.007 4                      2130.951          32.000  
G 4  25158670.055 4 132210020.192 5     -3388.297          31.000                                                                                                                                  
G 9  24478826.575 8                     -2542.304          28.000    24478864.727 9                     -1981.383          25.000                                                                  
S37  37985044.242 2 199612755.009 5      -521.768          33.000  
E26  24485741.076 1 128673421.722 2       427.252          37.000    24485740.928 1  98593928.696 3       327.561          37.000  
C10  38826940.450 2                      -433.038          32.000    38826930.924 2                      -334.833          31.000  
E13  26785109.613 8                     -2326.652          22.000                                                                  
E 1  26834495.756 1 141016233.985 3       805.222          35.000    26834494.946 1 108051394.989 4       616.822          34.000  
E18  21277185.461 1 111812355.494 3      2038.489          36.000    21277183.848 1  85674398.569 2      1561.640          39.000  
J 7  37985050.314 4                      -521.487          30.000    37985046.137 1 155542434.279 3      -406.907          37.000  
E21                                                                  26128916.852 9                      -372.897          21.000  
C16                                                                  39581224.466 8                     -1645.616          25.000  
G 1                                                                  22986402.767 8                      1992.126          28.000                                                                  
> 2021  5 17  2 34  1.0050000  0 26                     
G 7  22519259.031 1 118339503.887 3      1683.843          38.000    22519252.915 2  92212568.873 5      1312.476          29.000                                                                  
G21  22046585.880 1 115855591.945 3       290.772          35.000                                                                                                                                  
G27  24697678.174 4                     -3583.320          28.000                                                                                                                                  
G30  25572005.688 8                      2841.856          26.000                                                                                                                                  
G 8  22544817.276 1 118473799.964 2     -2444.586          38.000    22544816.700 2                     -1904.293          31.000                                                                  
C 7  38298892.371 2 199432397.437 4      -323.427          33.000    38298883.367 1 154213734.940 3      -249.959          36.000  
C 9  38145276.231 2 198632643.166 5     -1838.685          32.000    38145259.766 1 153595156.269 3     -1421.104          38.000  
C30  23994489.424 1 124945624.914 3      1208.152          37.000                                                                  
C 8  40002331.720 8                      1224.745          26.000    40002323.418 4                       946.303          28.000  
C27  23108790.609 1 120333550.568 2     -1630.789          39.000                                                                  
R19  20849119.663 9                     -1715.847          25.000    20849114.573 9                     -1334.048          26.000  
R15  24787498.210 2 132456824.748 5     -2948.812          33.000    24787530.535 8                     -2292.961          27.000  
R 9  22526807.090 9                      2137.045          23.000                                                                  
R20  22343645.101 9                      2738.049          26.000    22343642.383 4                      2130.957          32.000  
G 4  25159314.634 2 132213407.482 5     -3387.237          31.000                                                                                                                                  
G 9  24479309.577 8                     -2541.989          27.000    24479350.124 8                     -1981.531          25.000                                                                  
S37  37985143.583 2 199613276.430 4      -521.191          33.000  
E26  24485659.695 1 128672994.325 2       427.462          37.000    24485659.771 1  98593601.228 3       327.260          37.000  
C10  38827023.567 2 202182542.199 5      -432.016          32.000    38827013.724 2                      -334.142          31.000  
E13  26785550.676 9                     -2327.292          22.000                                                                  
E 1  26834342.731 1 141015428.332 3       805.889          35.000    26834341.711 1 108050777.665 3       617.489          34.000  
E18  21276797.777 1 111810317.394 3      2038.125          36.000    21276796.043 1  85672836.904 2      1561.551          39.000  
J 7  37985149.605 2                      -521.321          30.000    37985145.277 1 155542840.560 3      -405.844          37.000  
E21                                                                  26129011.172 9                      -377.678          20.000  
C16                                                                  39581633.953 8                     -1644.305          25.000  
G 1                                                                  22985918.294 8                      1992.438          28.000                                                                  
> 2021  5 17  2 34  2.0050000  0 25                     
G 7  22518938.692 1 118337820.153 3      1683.643          38.000    22518932.421 2  92211256.897 5      1311.654          29.000                                                                  
G21  22046530.610 1 115855301.662 4       289.946          35.000                                                                                                                                  
G27  24698360.205 4                     -3583.775          28.000                                                                                                                                  
G30  25571465.986 8                      2840.451          26.000                                                                                                                                  
G 8  22545282.473 1 118476244.840 3     -2444.942          38.000    22545281.846 2                     -1904.962          30.000                                                                  
C 7  38298954.404 2 199432721.276 5      -323.904          33.000    38298945.567 1 154213985.359 3      -250.665          36.000  
C 9  38145629.414 2                     -1837.825          32.000    38145612.772 1 153596577.569 2     -1421.565          38.000  
C30  23994257.485 1 124944417.340 3      1207.219          37.000                                                                  
C 8  40002097.568 8                      1224.198          26.000    40002088.951 4                       946.406          28.000  
C27  23109103.806 1 120335181.361 2     -1631.263          39.000                                                                  
R19  20849439.357 9                     -1716.862          25.000    20849435.416 8                     -1335.644          26.000  
R15  24788049.941 4 132459772.797 5     -2948.273          33.000    24788082.023 8                     -2292.679          27.000  
R 9  22526406.541 9                      2137.219          23.000                                                                  
R20  22343133.174 9                      2737.397          26.000    22343130.049 4  92927989.577 5      2130.377          32.000  
G 4  25159959.228 4                     -3387.592          31.000                                                                                                                                  
G 9  24479791.005 8                     -2542.134          25.000    24479833.519 8                     -1981.696          25.000                                                                  
S37  37985242.815 2 199613797.798 4      -521.504          33.000  
E26  24485578.660 1 128672567.320 2       427.012          37.000    24485578.471 1  98593274.057 3       326.683          37.000  
C10  38827106.682 2                      -431.693          32.000    38827096.758 2                      -333.395          31.000  
E 1  26834189.634 1 141014622.585 3       806.069          35.000    26834188.383 1 108050160.284 3       617.240          34.000  
E18  21276409.992 1 111808279.992 3      2037.165          36.000    21276408.276 1  85671275.783 2      1560.800          39.000  
J 7  37985248.845 2                      -522.159          30.000    37985244.368 1 155543246.827 3      -406.057          37.000  
E21                                                                  26129104.317 9                      -368.204          21.000  
C16                                                                  39582042.407 8                     -1645.053          25.000  
G 1                                                                  22985432.570 8                      1991.496          28.000                                                                  
> 2021  5 17  2 34  3.0050000  0 25                     
G 7  22518618.249 1 118336136.766 3      1683.237          38.000    22518612.048 2  92209945.145 5      1311.869          29.000                                                                  
G21  22046475.374 1 115855011.920 4       289.047          34.000                                                                                                                                  
G27  24699042.530 4                     -3583.141          28.000                                                                                                                                  
G30  25570924.728 8                      2840.617          26.000                                                                                                                                  
G 8  22545747.579 1 118478689.854 2     -2445.459          38.000    22545747.277 2                     -1906.209          30.000                                                                  
C 7  38299016.643 2 199433044.879 5      -323.640          33.000    38299007.739 1 154214235.581 3      -250.193          36.000  
C 9  38145982.589 2 198636319.225 5     -1837.827          32.000    38145965.674 1 153597998.875 2     -1421.585          38.000  
C30  23994025.533 1 124943210.041 3      1206.960          37.000                                                                  
C 8  40001863.761 8                      1222.332          26.000    40001854.590 4                       946.330          28.000  
C27  23109416.866 1 120336812.484 2     -1631.605          39.000                                                                  
R19  20849759.878 9                     -1718.031          25.000    20849755.434 9                     -1336.202          26.000  
R15  24788601.663 2 132462721.199 5     -2949.229          32.000    24788632.773 8                     -2293.769          27.000  
R 9  22526005.180 9                      2136.737          23.000                                                                  
R20  22342620.475 9                      2739.021          26.000    22342617.692 4  92925859.364 5      2129.352          32.000  
G 4  25160604.100 4                     -3388.343          31.000                                                                                                                                  
G 9  24480271.570 9                     -2539.947          23.000    24480316.873 8                     -1981.507          26.000                                                                  
S37  37985341.851 2 199614319.080 4      -521.692          34.000  
E26  24485497.514 1 128672140.673 3       426.255          37.000    24485497.318 1  98592947.124 3       326.291          37.000  
C10  38827189.736 2                      -432.240          32.000    38827179.788 2                      -332.702          31.000  
E 1  26834036.393 1 141013816.692 3       806.038          35.000    26834034.951 1 108049542.784 3       617.181          34.000  
E18  21276022.393 1 111806243.253 3      2036.271          36.000    21276020.628 1  85669715.171 2      1560.312          39.000  
J 7  37985347.838 4                      -520.538          30.000    37985343.465 1 155543653.011 2      -406.431          37.000  
E21                                                                  26129197.544 9                      -379.361          20.000  
C16                                                                  39582451.163 8                     -1645.437          25.000  
G 1                                                                  22984947.912 8                      1991.675          28.000                                                                  
> 2021  5 17  2 34  4.0050000  0 26                     
G 7  22518298.057 1 118334453.809 3      1682.596          38.000    22518291.794 2                      1311.162          29.000                                                                  
G21  22046420.404 1 115854722.779 4       288.422          35.000                                                                                                                                  
G27  24699724.461 2                     -3582.798          28.000                                                                                                                                  
G30  25570385.926 8                      2840.362          26.000                                                                                                                                  
G 8  22546212.812 1 118481135.091 2     -2445.791          38.000    22546212.708 2                     -1906.347          30.000                                                                  
C 7  38299078.682 2 199433368.409 5      -323.458          33.000    38299069.802 1 154214485.758 3      -250.162          36.000  
C 9  38146335.377 2                     -1839.078          32.000    38146318.697 1 153599420.290 2     -1421.924          38.000  
C30  23993793.638 1 124942003.176 3      1206.316          37.000                                                                  
C 8  40001627.430 8                      1222.399          26.000    40001620.251 4                       946.023          28.000  
C27  23109730.341 1 120338444.029 2     -1632.181          39.000                                                                  
R19  20850080.736 9                     -1717.770          25.000    20850076.589 9                     -1335.977          26.000  
R15  24789153.601 4                     -2949.010          31.000    24789182.117 8                     -2293.562          27.000  
R 9  22525603.243 9                      2138.483          23.000                                                                  
R20  22342107.511 9                      2739.041          25.000    22342105.642 4  92923729.591 5      2129.639          32.000  
G 4  25161248.755 4                     -3387.363          30.000                                                                                                                                  
G 9  24480754.540 9                     -2539.721          20.000    24480799.568 8                     -1980.698          26.000                                                                  
S37  37985441.238 2 199614840.326 4      -520.929          33.000  
E26  24485416.599 1 128671714.474 2       425.721          37.000    24485416.202 1  98592620.552 3       326.095          37.000  
C10  38827272.705 2 202183837.496 5      -431.738          32.000    38827262.611 2                      -334.215          31.000  
E33  27522580.060 8                      2309.563          25.000                                                                  
E 1  26833883.123 1 141013010.779 3       805.887          35.000    26833881.672 1 108048925.253 3       617.322          35.000  
E18  21275634.884 1 111804207.277 3      2035.488          36.000    21275633.214 1  85668155.127 2      1559.645          39.000  
J 7  37985447.135 4                      -521.497          30.000    37985442.754 1 155544059.199 3      -406.322          37.000  
E21                                                                  26129291.429 9                      -376.584          20.000  
C16                                                                  39582858.604 8                     -1643.501          25.000  
G 1                                                                  22984461.076 8                      1991.752          27.000                                                                  
> 2021  5 17  2 34  5.0050000  0 26                     
G 7  22517977.741 1 118332771.262 3      1682.090          38.000    22517971.574 2                      1311.060          29.000                                                                  
G21  22046365.465 1 115854434.224 4       287.851          35.000                                                                                                                                  
G27  24700406.500 2                     -3583.174          29.000                                                                                                                                  
G30  25569844.777 8                      2841.684          26.000                                                                                                                                  
G 8  22546677.950 1 118483580.513 3     -2445.202          38.000    22546678.060 2                     -1905.765          30.000                                                                  
C 7  38299140.779 2 199433691.883 4      -323.710          34.000    38299131.930 1 154214735.855 3      -249.913          36.000  
C 9  38146688.311 2                     -1838.569          31.000    38146671.711 1 153600841.733 2     -1421.532          38.000  
C30  23993561.921 1 124940796.666 3      1206.133          37.000                                                                  
C 8  40001392.237 8                      1223.909          26.000    40001384.884 4                       946.118          28.000  
C27  23110043.687 1 120340075.935 2     -1632.201          39.000                                                                  
R19  20850401.357 9                     -1719.705          25.000    20850398.351 8                     -1337.079          26.000  
R15  24789705.364 4                     -2949.346          30.000    24789733.559 8                     -2294.442          27.000  
R 9  22525203.564 9                      2136.148          24.000                                                                  
R20  22341594.000 9                      2737.499          25.000    22341593.509 4  92921600.254 5      2129.102          32.000  
G 4  25161893.425 4                     -3387.604          30.000                                                                                                                                  
G 9  24481240.359 9                     -2570.971          14.000    24481282.362 8                     -1981.385          27.000                                                                  
S37  37985540.511 2 199615361.571 4      -521.206          33.000  
E26  24485335.574 1 128671288.677 2       425.395          37.000    24485335.300 1  98592294.296 3       325.933          37.000  
C10  38827355.414 2                      -431.854          32.000    38827345.553 2                      -333.548          31.000  
E33  27522143.191 8                      2308.923          25.000                                                                  
E 1  26833729.828 1 141012204.737 3       806.273          35.000    26833728.380 1 108048307.627 3       617.954          35.000  
E18  21275247.564 1 111802172.022 3      2034.689          36.000    21275245.958 1  85666595.635 2      1559.136          39.000  
J 7  37985546.454 4                      -520.020          30.000    37985541.916 1 155544465.337 3      -406.287          37.000  
E21                                                                  26129384.528 9                      -370.111          20.000  
C16                                                                  39583266.425 8                     -1643.276          25.000  
G 1                                                                  22983974.756 8                      1990.750          26.000                                                                  
> 2021  5 17  2 34  6.0050000  0 27                     
G 7  22517657.564 1 118331089.166 3      1681.765          37.000    22517651.622 2                      1310.869          29.000                                                                  
G21  22046310.614 1 115854146.342 4       287.569          35.000                                                                                                                                  
G27  24701088.500 2                     -3583.691          28.000                                                                                                                                  
G30  25569304.311 8                      2841.610          26.000                                                                                                                                  
G 8  22547143.244 1 118486026.256 3     -2446.280          38.000    22547143.449 2                     -1906.033          30.000                                                                  
C 7  38299202.903 2 199434015.229 4      -323.319          34.000    38299194.076 1 154214985.930 3      -250.039          36.000  
C 9  38147041.396 2                     -1839.292          31.000    38147024.707 1 153602263.343 2     -1421.444          38.000  
C30  23993330.131 1 124939590.624 3      1205.833          37.000                                                                  
C 8  40001157.056 8                      1223.631          26.000    40001149.076 4                       946.808          27.000  
C27  23110357.276 1 120341708.329 2     -1632.529          40.000                                                                  
R19  20850722.220 9                     -1720.102          25.000    20850719.686 9                     -1338.504          26.000  
R15  24790257.293 4                     -2950.267          29.000    24790283.546 8                     -2294.672          27.000  
R 9  22524803.845 9                      2137.438          25.000                                                                  
R20  22341081.145 9                      2735.442          25.000    22341081.715 4  92919471.408 5      2128.662          32.000  
G 4  25162538.060 2                     -3386.882          30.000                                                                                                                                  
G 9  24481731.024 9                     -2558.820          13.000    24481763.314 8                     -1981.585          27.000                                                                  
S37  37985639.957 2 199615882.853 4      -521.626          33.000  
E26  24485254.671 1 128670863.376 3       424.960          37.000    24485254.220 1  98591968.423 3       325.528          37.000  
C10  38827438.293 2 202184700.517 5      -431.284          32.000    38827428.310 2                      -333.468          31.000  
E33  27521709.000 8                      2309.443          25.000                                                                  
E 1  26833576.267 1 141011398.758 3       805.892          36.000    26833575.012 1 108047690.053 4       617.808          35.000  
E18  21274860.186 1 111800137.533 3      2034.242          36.000    21274858.846 1  85665036.754 2      1558.642          39.000  
J 3  40114590.844 9                     -1352.578          19.000                                                                  
J 7  37985645.598 2                      -521.982          29.000    37985641.095 1 155544871.540 3      -405.974          37.000  
E21                                                                  26129479.317 9                      -372.332          20.000  
C16                                                                  39583673.530 8                     -1645.395          25.000  
G 1                                                                  22983486.522 8                      1991.247          25.000                                                                  
> 2021  5 17  2 34  7.0050000  0 26                     
G 7  22517337.500 1 118329407.583 2      1681.395          37.000    22517331.611 2                      1310.582          29.000                                                                  
G21  22046255.817 1 115853859.158 4       287.190          35.000                                                                                                                                  
G27  24701770.402 2                     -3583.174          28.000                                                                                                                                  
G30  25568766.033 8                      2841.566          26.000                                                                                                                                  
G 8  22547608.648 1 118488472.306 3     -2446.151          38.000    22547608.992 2                     -1906.122          30.000                                                                  
C 7  38299265.042 2 199434338.652 4      -323.982          33.000    38299256.151 1 154215235.996 3      -250.097          36.000  
C 9  38147394.550 2                     -1838.931          31.000    38147377.807 1 153603685.108 3     -1421.546          38.000  
C30  23993098.612 1 124938385.036 3      1205.724          37.000                                                                  
C 8  40000920.873 8                      1222.914          26.000    40000913.589 4                       946.002          27.000  
C27  23110670.896 1 120343341.242 2     -1633.379          40.000                                                                  
R19  20851044.800 9                     -1720.488          25.000    20851040.967 9                     -1339.151          26.000  
R15  24790809.229 4                     -2949.942          28.000    24790833.052 8                     -2294.423          27.000  
R 9  22524404.114 9                      2134.525          25.000                                                                  
R20  22340569.206 9                      2736.239          25.000    22340569.879 4                      2128.174          32.000  
G 4  25163182.771 2 132233730.053 5     -3386.828          29.000                                                                                                                                  
G 9  24482218.532 9                     -2542.839          14.000    24482244.081 8                     -1982.331          27.000                                                                  
S37  37985739.138 2 199616404.176 4      -520.940          33.000  
E26  24485173.834 1 128670438.608 3       424.631          37.000    24485173.325 1  98591642.942 3       325.354          37.000  
C10  38827521.071 2 202185132.021 5      -431.080          32.000    38827511.188 2                      -334.358          31.000  
E33  27521271.576 9                      2309.486          25.000                                                                  
E 1  26833422.804 1 141010592.781 3       805.873          36.000    26833421.520 1 108047072.508 3       617.264          35.000  
E18  21274473.065 1 111798103.906 3      2033.461          36.000    21274471.802 1  85663478.527 2      1557.861          39.000  
J 7  37985744.874 4                      -520.813          30.000    37985740.301 1 155545277.783 3      -405.830          37.000  
E21                                                                  26129573.709 9                      -374.692          19.000  
C16                                                                  39584080.442 8                     -1643.811          25.000  
G 1                                                                  22982998.486 9                      1990.057          25.000                                                                  
> 2021  5 17  2 34  8.0050000  0 26                     
G 7  22517017.463 1 118327726.528 3      1681.092          37.000    22517011.657 2                      1310.009          29.000                                                                  
G21  22046201.318 1 115853572.740 3       285.917          35.000                                                                                                                                  
G27  24702452.279 2                     -3583.398          28.000                                                                                                                                  
G30  25568225.471 8                      2841.302          26.000                                                                                                                                  
G 8  22548073.977 1 118490918.679 2     -2446.559          37.000    22548074.316 2                     -1905.975          30.000                                                                  
C 7  38299327.320 2 199434662.027 4      -323.334          33.000    38299318.182 1 154215486.081 3      -250.169          36.000  
C 9  38147747.546 2                     -1839.111          30.000    38147730.970 1 153605107.026 3     -1421.521          38.000  
C30  23992867.112 1 124937179.991 3      1205.199          37.000                                                                  
C 8  40000685.576 8                      1224.320          27.000    40000677.844 4                       946.055          27.000  
C27  23110984.753 1 120344974.636 2     -1633.436          40.000                                                                  
R19  20851365.635 9                     -1722.585          25.000    20851362.190 8                     -1339.749          26.000  
R15  24791361.450 4                     -2950.808          27.000    24791384.263 8                     -2294.917          26.000  
R 9  22524003.796 9                      2137.303          25.000                                                                  
R20  22340057.860 9                      2736.415          25.000    22340058.080 4                      2128.259          32.000  
G 4  25163827.225 2                     -3387.165          29.000                                                                                                                                  
G 9  24482703.902 9                     -2551.229          17.000    24482725.108 8                     -1981.865          28.000                                                                  
S37  37985838.328 2 199616925.630 5      -521.047          33.000  
E26  24485093.032 1 128670014.395 2       423.898          37.000    24485092.539 1  98591317.874 3       325.110          37.000  
C10  38827603.899 2                      -430.167          32.000    38827594.017 2                      -333.479          31.000  
E33  27520832.612 8                      2309.397          25.000                                                                  
E 1  26833269.381 1 141009786.857 3       806.000          36.000    26833268.186 1 108046454.967 3       617.622          35.000  
E18  21274086.109 1 111796071.144 3      2032.534          36.000    21274084.860 1  85661920.944 2      1557.435          39.000  
J 7  37985843.995 4                      -522.248          30.000    37985839.573 1 155545684.117 3      -406.249          37.000  
E21                                                                  26129666.865 9                      -382.801          20.000  
C16                                                                  39584486.449 8                     -1643.846          24.000  
G 1                                                                  22982508.526 9                      1982.833          24.000                                                                  
> 2021  5 17  2 34  9.0050000  0 26                     
G 7  22516697.610 1 118326046.065 3      1680.356          37.000    22516691.859 2                      1309.631          29.000                                                                  
G21  22046147.024 1 115853287.049 3       285.296          35.000                                                                                                                                  
G27  24703134.432 2                     -3583.819          29.000                                                                                                                                  
G30  25567684.266 8                      2841.671          25.000                                                                                                                                  
G 8  22548539.468 1 118493365.437 2     -2446.976          37.000    22548540.054 2                     -1907.649          30.000                                                                  
C 7  38299389.415 2 199434985.507 4      -323.578          34.000    38299380.307 1 154215736.201 3      -250.012          36.000  
C 9  38148100.524 2                     -1839.112          30.000    38148084.081 1 153606529.200 2     -1422.290          38.000  
C30  23992635.665 1 124935975.508 3      1204.268          36.000                                                                  
C 8  40000449.760 8                      1224.188          27.000    40000442.668 4                       945.965          27.000  
C27  23111298.554 1 120346608.630 2     -1634.370          40.000                                                                  
R19  20851686.930 9                     -1724.372          25.000    20851683.159 8                     -1340.192          26.000  
R15  24791913.724 4                     -2951.771          27.000    24791936.308 8                     -2295.461          26.000  
R 9  22523604.011 9                      2135.165          25.000                                                                  
R20  22339546.164 9                      2735.909          25.000    22339546.509 4                      2127.313          32.000  
G 4  25164471.850 2                     -3387.272          29.000                                                                                                                                  
G 9  24483188.032 9                     -2546.358          20.000    24483206.691 8                     -1982.685          28.000                                                                  
S37  37985937.533 2 199617447.256 5      -521.606          33.000  
E26  24485012.173 1 128669590.748 3       423.296          37.000    24485012.020 1  98590993.267 3       324.613          37.000  
C10  38827686.798 2 202185995.055 5      -430.802          31.000    38827676.852 2                      -334.871          31.000  
E33  27520394.786 8                      2309.268          25.000                                                                  
E 1  26833116.088 1 141008981.046 3       805.356          36.000    26833114.573 1 108045837.538 3       617.115          35.000  
E18  21273699.530 1 111794039.257 3      2031.053          36.000    21273698.271 1  85660364.043 2      1556.630          39.000  
J 7  37985942.915 2                      -521.544          30.000    37985938.847 1 155546090.560 3      -406.595          37.000  
E21                                                                  26129761.056 9                      -377.993          20.000  
C16                                                                  39584893.167 8                     -1645.349          24.000  
G 1                                                                  22982019.033 9                      1989.878          23.000                                                                  
> 2021  5 17  2 34 10.0050000  0 27                     
G 7  22516377.843 1 118324366.161 3      1679.165          37.000    22516372.290 2                      1308.701          29.000                                                                  
G21  22046092.719 1 115853002.138 3       284.053          36.000                                                                                                                                  
G27  24703816.565 2                     -3583.747          29.000                                                                                                                                  
G30  25567142.649 8                      2840.790          25.000                                                                                                                                  
G 8  22549005.148 1 118495812.589 3     -2447.843          37.000    22549005.505 4                     -1906.618          29.000                                                                  
C 7  38299451.534 2 199435309.039 4      -324.060          33.000    38299442.419 1 154215986.353 4      -249.948          36.000  
C 9  38148453.685 2                     -1839.814          29.000    38148437.306 1 153607951.554 2     -1422.852          38.000  
C30  23992404.460 1 124934771.552 3      1203.714          36.000                                                                  
C 8  40000212.207 8                      1223.097          27.000    40000206.322 4                       945.559          27.000  
C27  23111612.505 1 120348243.155 2     -1634.907          40.000                                                                  
R19  20852008.667 9                     -1724.692          25.000    20852004.124 8                     -1340.891          27.000  
R15  24792466.224 4                     -2951.752          26.000    24792488.501 8                     -2295.635          27.000  
R 9  22523204.323 9                      2133.083          26.000                                                                  
R20  22339033.431 9                      2733.906          25.000    22339034.958 4                      2125.956          31.000  
G 4  25165116.542 2                     -3387.477          29.000                                                                                                                                  
G 9  24483675.080 9                     -2545.907          21.000    24483688.725 8                     -1982.565          28.000                                                                  
S37  37986036.805 2 199617968.995 4      -522.333          33.000  
E26  24484931.847 1 128669167.701 3       422.567          37.000    24484931.333 1  98590669.131 3       323.695          36.000  
C10  38827769.781 2 202186426.704 5      -432.513          32.000    38827759.721 2                      -333.517          31.000  
E33  27519955.702 9                      2309.156          25.000                                                                  
E 1  26832962.701 1 141008175.297 3       805.652          36.000    26832961.601 1 108045220.137 3       616.898          35.000  
E18  21273312.890 1 111792008.251 3      2030.252          35.000    21273311.777 1  85658807.821 2      1555.839          39.000  
J 2  39989776.313 9                       472.501          10.000                                                                  
J 7  37986042.180 4                      -522.849          30.000    37986038.186 1 155546497.113 3      -406.927          37.000  
E21                                                                  26129854.552 9                      -372.985          19.000  
C16                                                                  39585298.347 8                     -1645.366          24.000  
G 1                                                                  22981530.216 9                      1989.698          23.000                                                                  
> 2021  5 17  2 34 11.0050000  0 26                     
G 7  22516058.227 1 118322686.701 3      1679.462          37.000    22516052.725 2                      1308.367          29.000                                                                  
G21  22046038.557 1 115852717.894 3       283.298          36.000                                                                                                                                  
G27  24704498.591 2                     -3584.279          29.000                                                                                                                                  
G30  25566599.634 9                      2839.922          25.000                                                                                                                                  
G 8  22549470.777 1 118498259.976 3     -2447.581          37.000    22549471.207 2                     -1907.307          29.000                                                                  
C 7  38299513.645 2 199435632.496 4      -323.146          33.000    38299504.491 1 154216236.485 3      -250.207          36.000  
C 9  38148806.998 2 198651029.837 5     -1839.612          29.000    38148790.513 1 153609373.994 2     -1422.491          38.000  
C30  23992173.272 1 124933568.049 3      1203.238          36.000                                                                  
C 8  39999976.667 8                      1222.865          27.000    39999971.683 4                       945.312          27.000  
C27  23111926.661 1 120349878.130 2     -1635.040          40.000                                                                  
R19  20852330.608 9                     -1724.160          25.000    20852326.594 8                     -1341.453          27.000  
R15  24793018.811 4                     -2951.329          26.000    24793041.223 8                     -2296.298          27.000  
R 9  22522804.610 9                      2136.779          26.000                                                                  
R20  22338523.135 9                      2733.210          25.000    22338523.376 4                      2126.392          30.000  
G 4  25165761.004 2                     -3387.323          29.000                                                                                                                                  
G 9  24484161.701 9                     -2548.325          23.000    24484171.049 8                     -1983.305          28.000                                                                  
S37  37986135.922 2 199618490.748 4      -522.053          33.000  
E26  24484851.329 1 128668745.147 3       422.049          37.000    24484850.927 1  98590345.342 3       323.645          37.000  
C10  38827852.641 2 202186858.249 5      -431.510          32.000    38827842.588 2                      -333.895          31.000  
E33  27519515.073 9                      2307.324          25.000                                                                  
E 1  26832809.584 1 141007369.558 3       805.594          36.000    26832808.359 1 108044602.753 3       617.178          35.000  
E18  21272926.470 1 111789978.025 3      2030.023          35.000    21272925.604 1  85657252.219 2      1555.257          39.000  
J 7  37986141.272 2                      -521.615          29.000    37986137.397 1 155546903.661 3      -406.356          37.000  
E21                                                                  26129949.229 9                      -386.128          20.000  
C16                                                                  39585704.661 8                     -1644.256          24.000  
G 1                                                                  22981041.305 9                      1988.678          23.000                                                                  
> 2021  5 17  2 34 12.0050000  0 26                     
G 7  22515738.720 1 118321007.638 3      1678.554          37.000    22515733.158 2                      1308.054          29.000                                                                  
G21  22045984.479 1 115852434.191 3       283.239          36.000                                                                                                                                  
G27  24705180.622 2                     -3583.658          28.000                                                                                                                                  
G30  25566058.636 9                      2840.171          25.000                                                                                                                                  
G 8  22549936.472 1 118500707.583 3     -2448.079          37.000    22549936.849 2                     -1907.423          28.000                                                                  
C 7  38299575.824 1 199435955.762 4      -322.859          33.000    38299566.671 1 154216486.495 3      -250.280          36.000  
C 9  38149160.305 2                     -1839.566          29.000    38149143.924 1 153610796.530 3     -1422.834          38.000  
C30  23991942.173 1 124932364.888 3      1202.734          36.000                                                                  
C 8  39999740.307 8                      1223.285          27.000    39999736.422 4                       946.336          27.000  
C27  23112240.876 1 120351513.486 2     -1635.616          40.000                                                                  
R19  20852653.225 9                     -1723.817          25.000    20852649.809 8                     -1342.349          27.000  
R15  24793572.919 9                     -2952.728          24.000    24793591.204 8                     -2295.778          27.000  
R 9  22522404.990 9                      2136.388          25.000                                                                  
R20  22338013.921 9                      2733.451          25.000    22338011.850 4                      2125.507          29.000  
G 4  25166405.508 2                     -3387.418          29.000                                                                                                                                  
G 9  24484644.894 9                     -2548.771          24.000    24484653.242 8                     -1983.251          28.000                                                                  
S37  37986235.164 2 199619012.422 4      -521.393          33.000  
E26  24484770.836 1 128668322.944 3       421.807          37.000    24484770.660 1  98590021.851 3       323.194          36.000  
C10  38827935.598 2 202187289.665 5      -431.967          32.000    38827925.510 2                      -333.980          31.000  
E33  27519077.799 9                      2308.065          25.000                                                                  
E 1  26832656.300 1 141006563.677 3       805.912          36.000    26832655.176 1 108043985.252 3       617.307          35.000  
E18  21272540.253 1 111787948.524 3      2028.657          35.000    21272539.273 1  85655697.149 2      1554.398          38.000  
J 7  37986240.600 2                      -521.827          29.000    37986236.684 1 155547310.207 3      -407.024          37.000  
E21                                                                  26130044.146 9                      -380.084          19.000  
C16                                                                  39586110.187 8                     -1644.475          25.000  
G 1                                                                  22980553.445 8                      1989.280          24.000                                                                  
> 2021  5 17  2 34 13.0050000  0 26                     
G 7  22515419.272 1 118319328.973 3      1678.302          37.000    22515413.987 2                      1308.175          29.000                                                                  
G21  22045930.618 1 115852151.083 3       282.706          36.000                                                                                                                                  
G27  24705862.577 2                     -3583.028          29.000                                                                                                                                  
G30  25565516.145 9                      2839.610          24.000                                                                                                                                  
G 8  22550402.228 1 118503155.314 3     -2447.655          37.000    22550402.620 2                     -1907.673          28.000                                                                  
C 7  38299637.903 2 199436279.011 4      -323.448          33.000    38299628.633 1 154216736.399 3      -249.895          36.000  
C 9  38149513.780 2                     -1839.473          28.000    38149497.168 1 153612219.097 3     -1422.792          38.000  
C30  23991711.219 1 124931162.081 3      1203.064          36.000                                                                  
C 8  39999503.868 8                      1222.901          27.000    39999501.655 4                       945.438          27.000  
C27  23112555.006 1 120353149.236 2     -1636.190          41.000                                                                  
R19  20852976.085 9                     -1726.422          25.000    20852972.971 8                     -1342.350          28.000  
R 9  22522004.049 9                      2135.338          24.000                                                                  
R20  22337504.539 9                      2732.710          24.000    22337500.539 4                      2125.067          29.000  
G 4  25167050.127 2                     -3387.217          29.000                                                                                                                                  
G 9  24485125.003 9                     -2543.535          25.000    24485135.937 8                     -1983.093          28.000                                                                  
S37  37986334.426 2 199619534.102 4      -521.556          33.000  
E26  24484690.423 1 128667901.168 3       421.404          37.000    24484690.291 1  98589698.653 3       323.332          37.000  
C10  38828018.504 2 202187720.905 5      -430.791          32.000    38828008.302 2                      -333.164          31.000  
E33  27518640.056 8                      2307.791          25.000                                                                  
E 1  26832502.963 1 141005757.739 3       806.109          36.000    26832501.793 1 108043367.692 3       617.998          35.000  
E18  21272153.903 1 111785919.703 3      2029.035          35.000    21272153.205 1  85654142.606 2      1554.136          39.000  
J 7  37986339.790 4                      -519.845          29.000    37986335.909 1 155547716.673 3      -406.515          37.000  
E21                                                                  26130137.895 9                      -384.642          20.000  
C16                                                                  39586516.518 8                     -1643.455          25.000  
G 1                                                                  22980067.092 8                      1989.424          25.000                                                                  
R15                                                                  24794143.685 9                     -2296.581          27.000  
> 2021  5 17  2 34 14.0050000  0 26                     
G 7  22515099.955 1 118317650.583 3      1678.835          37.000    22515094.639 2                      1307.450          29.000                                                                  
G21  22045876.714 1 115851868.515 3       282.458          36.000                                                                                                                                  
G27  24706544.629 2                     -3583.257          29.000                                                                                                                                  
G30  25564973.402 9                      2840.427          24.000                                                                                                                                  
G 8  22550867.901 1 118505603.262 3     -2447.944          37.000    22550868.238 2                     -1908.074          28.000                                                                  
C 7  38299699.943 2 199436602.045 5      -323.854          33.000    38299690.634 1 154216986.198 3      -249.657          36.000  
C 9  38149867.193 2                     -1839.102          28.000    38149850.442 1 153613641.714 2     -1422.848          38.000  
C30  23991480.282 1 124929959.617 3      1202.369          36.000                                                                  
C 8  39999269.340 8                      1222.721          27.000    39999265.390 4                       946.212          27.000  
C27  23112869.269 1 120354785.291 2     -1636.163          41.000                                                                  
R19  20853300.468 9                     -1726.520          24.000    20853295.921 8                     -1342.999          28.000  
R 9  22521601.140 9                      2137.502          24.000                                                                  
R20  22336993.208 9                      2732.685          23.000    22336989.395 4                      2124.858          28.000  
G 4  25167694.633 2                     -3386.882          29.000                                                                                                                                  
G 9  24485608.929 9                     -2545.115          26.000    24485619.332 8                     -1983.810          28.000                                                                  
S37  37986433.926 2 199620055.720 5      -522.378          33.000  
E26  24484610.034 1 128667479.748 3       421.521          37.000    24484610.091 1  98589375.759 3       322.750          37.000  
C10  38828101.367 2 202188152.043 5      -430.996          32.000    38828091.120 2 156344631.828 5      -333.037          31.000  
E33  27518200.965 9                      2307.329          25.000                                                                  
E 1  26832349.488 1 141004951.691 3       806.092          36.000    26832348.528 1 108042750.073 3       617.812          36.000  
E18  21271767.793 1 111783891.610 4      2027.693          35.000    21271767.264 1  85652588.585 2      1553.874          39.000  
J 7  37986439.213 2                      -521.287          29.000    37986435.217 1 155548123.119 3      -406.920          37.000  
E21                                                                  26130233.015 9                      -380.018          19.000  
C16                                                                  39586923.660 8                     -1643.787          25.000  
G 1                                                                  22979583.213 8                      1988.550          25.000                                                                  
R15                                                                  24794693.019 9                     -2296.883          26.000  
> 2021  5 17  2 34 15.0050000  0 25                     
G 7  22514780.596 1 118315972.678 3      1677.508          37.000    22514775.449 2                      1307.323          29.000                                                                  
G21  22045823.061 1 115851586.576 3       281.221          36.000                                                                                                                                  
G27  24707226.495 2                     -3583.584          29.000                                                                                                                                  
G30  25564430.608 9                      2839.881          23.000                                                                                                                                  
G 8  22551333.700 1 118508051.398 3     -2448.417          37.000    22551333.964 2                     -1907.823          28.000                                                                  
C 7  38299761.970 2 199436924.968 4      -323.420          33.000    38299752.666 1 154217235.918 3      -249.607          36.000  
C 9  38150220.478 2                     -1839.575          28.000    38150203.751 1 153615064.414 3     -1422.969          38.000  
C30  23991249.303 1 124928757.510 3      1202.381          36.000                                                                  
C 8  39999035.156 4                      1223.143          27.000    39999029.812 4                       945.893          26.000  
C27  23113183.623 1 120356421.729 2     -1636.088          41.000                                                                  
R19  20853622.949 9                     -1727.410          24.000    20853619.205 8                     -1344.192          28.000  
G 4  25168339.241 4                     -3386.907          29.000                                                                                                                                  
G 9  24486093.234 8                     -2545.812          26.000    24486104.546 8                     -1983.152          27.000                                                                  
S37  37986533.201 2 199620577.205 5      -520.989          33.000  
E26  24484530.116 1 128667058.769 3       420.689          37.000    24484529.868 1  98589053.185 3       322.459          36.000  
C10  38828184.080 2 202188583.079 5      -431.607          32.000    38828173.707 2                      -333.728          31.000  
E33  27517761.387 8                      2307.915          25.000                                                                  
E 1  26832196.139 1 141004145.534 3       806.353          36.000    26832195.190 1 108042132.392 3       617.686          35.000  
E18  21271381.850 1 111781864.215 3      2026.957          35.000    21271381.354 1  85651035.137 2      1553.108          39.000  
J 7  37986538.472 2                      -521.384          29.000    37986534.346 1 155548529.510 3      -406.304          37.000  
E21                                                                  26130327.064 9                      -378.900          18.000  
C16                                                                  39587331.677 8                     -1645.257          25.000  
G 1                                                                  22979100.268 8                      1988.727          26.000                                                                  
R15                                                                  24795244.179 8                     -2296.965          27.000  
R20                                                                  22336478.276 4                      2124.196          29.000  
> 2021  5 17  2 34 16.0050000  0 25                     
G 7  22514461.378 1 118314295.156 3      1677.092          37.000    22514456.174 2                      1306.944          29.000                                                                  
G21  22045769.595 1 115851305.230 3       280.968          36.000                                                                                                                                  
G27  24707908.547 2                     -3582.728          29.000                                                                                                                                  
G30  25563886.782 9                      2839.367          24.000                                                                                                                                  
G 8  22551799.538 1 118510499.747 3     -2448.688          37.000    22551799.784 2                     -1907.455          28.000                                                                  
C 7  38299823.874 1 199437247.807 4      -323.033          33.000    38299814.678 1 154217485.556 3      -249.902          37.000  
C 9  38150573.865 2                     -1839.523          28.000    38150557.069 1 153616487.172 2     -1423.098          38.000  
C30  23991018.370 1 124927555.877 3      1201.072          35.000                                                                  
C 8  39998799.535 4                      1223.116          27.000    39998794.576 4                       945.779          26.000  
C27  23113498.024 1 120358058.621 2     -1636.831          41.000                                                                  
R19  20853946.454 9                     -1727.661          23.000    20853944.303 8                     -1344.742          29.000  
G 4  25168983.802 4                     -3386.372          30.000                                                                                                                                  
G 9  24486577.193 8                     -2547.757          26.000    24486589.090 8                     -1984.972          26.000                                                                  
S37  37986632.544 2 199621098.779 4      -521.080          33.000  
E26  24484450.173 1 128666638.219 3       420.322          37.000    24484449.779 1  98588730.927 3       322.327          37.000  
C10  38828266.534 2                      -430.819          32.000    38828256.401 2                      -332.439          31.000  
E33  27517322.514 9                      2305.233          24.000                                                                  
E 1  26832042.764 1 141003339.336 3       806.205          36.000    26832041.622 1 108041514.669 3       617.253          36.000  
E18  21270996.155 1 111779837.538 3      2026.488          35.000    21270995.684 1  85649482.229 2      1552.942          39.000  
J 7  37986637.680 2                      -520.724          29.000    37986633.532 1 155548935.898 3      -406.160          37.000  
E21                                                                  26130421.006 9                      -369.441          18.000  
C16                                                                  39587739.051 8                     -1645.869          25.000  
G 1                                                                  22978617.495 8                      1988.204          26.000                                                                  
R15                                                                  24795796.325 8                     -2297.378          26.000  
R20                                                                  22335967.109 4                      2123.804          29.000  
> 2021  5 17  2 34 17.0050000  0 25                     
G 7  22514142.247 1 118312618.013 3      1677.201          37.000    22514137.135 2                      1306.537          29.000                                                                  
G21  22045716.327 1 115851024.482 3       280.239          36.000                                                                                                                                  
G27  24708590.526 2                     -3583.147          28.000                                                                                                                                  
G30  25563344.225 9                      2833.294          24.000                                                                                                                                  
G 8  22552265.326 1 118512948.276 3     -2448.741          37.000    22552265.649 2                     -1908.129          28.000                                                                  
C 7  38299885.838 2 199437570.503 4      -322.709          34.000    38299876.742 1 154217735.087 3      -249.236          36.000  
C 9  38150927.138 2                     -1840.077          28.000    38150910.320 1 153617910.010 2     -1423.119          38.000  
C30  23990787.583 1 124926354.530 3      1201.427          35.000                                                                  
C 8  39998566.194 4                      1222.816          28.000    39998559.477 8                       947.218          26.000  
C27  23113812.353 1 120359695.883 2     -1637.238          41.000                                                                  
R19  20854270.187 9                     -1730.862          23.000    20854268.058 8  86765979.27815     -1345.521          29.000  
G 4  25169628.395 2                     -3387.026          30.000                                                                                                                                  
G 9  24487061.035 8                     -2545.300          26.000    24487075.030 8                     -1983.800          26.000                                                                  
S37  37986731.702 2 199621620.313 5      -521.852          33.000  
E26  24484370.323 1 128666218.068 3       419.868          37.000    24484369.971 1  98588409.005 3       321.967          37.000  
C10  38828349.179 2 202189444.762 5      -430.826          32.000    38828339.211 2 156345631.466 5      -332.900          31.000  
E33  27516882.386 8                      2307.279          24.000                                                                  
E 1  26831889.720 1 141002533.056 3       806.427          36.000    26831888.200 1 108040896.837 3       618.115          36.000  
E18  21270610.836 1 111777811.610 3      2025.741          35.000    21270610.196 1  85647929.904 2      1552.057          39.000  
J 7  37986736.629 2                      -521.793          29.000    37986732.667 1 155549342.279 2      -406.537          37.000  
E21                                                                  26130515.991 9                      -384.072          18.000  
C16                                                                  39588147.254 8                     -1645.773          25.000  
G 1                                                                  22978133.886 8                      1987.837          27.000                                                                  
R15                                                                  24796348.181 9                     -2297.453          26.000  
R20                                                                  22335456.341 4                      2123.688          31.000  
> 2021  5 17  2 34 18.0050000  0 25                     
G 7  22513823.173 1 118310941.405 3      1676.435          37.000    22513818.112 2                      1306.442          29.000                                                                  
G21  22045663.030 1 115850744.460 3       279.376          36.000                                                                                                                                  
G27  24709272.391 2                     -3583.027          28.000                                                                                                                                  
G 1  22977661.837 9                      2554.634          20.000    22977651.535 8                      1987.284          27.000                                                                  
G30  25562801.906 9                      2839.909          25.000                                                                                                                                  
G 8  22552731.275 1 118515397.131 3     -2449.108          37.000    22552731.619 2                     -1908.293          28.000                                                                  
C 7  38299947.817 2 199437893.185 4      -322.274          34.000    38299938.652 1 154217984.643 3      -249.731          37.000  
C 9  38151280.356 2                     -1840.565          28.000    38151263.741 1 153619333.003 2     -1422.580          38.000  
C30  23990556.985 1 124925153.733 3      1200.791          35.000                                                                  
C 8  39998330.874 4                      1223.119          28.000    39998323.944 8                       946.284          26.000  
C27  23114126.966 1 120361333.648 1     -1638.002          42.000                                                                  
R19  20854593.787 9                     -1731.582          23.000    20854592.798 8  86767324.815 5     -1345.766          29.000  
G 4  25170272.991 4                     -3387.289          30.000    25170244.427 9                     -2639.913          25.000                                                                  
G 9  24487546.916 8                     -2548.742          25.000    24487561.059 9                     -1985.335          25.000                                                                  
S37  37986830.859 2 199622141.868 5      -521.320          33.000  
E26  24484290.351 1 128665798.447 3       419.523          37.000    24484290.136 1  98588087.485 3       321.711          37.000  
C10  38828431.936 2 202189875.549 5      -430.504          32.000    38828421.923 2                      -334.074          31.000  
E33  27516443.434 8                      2306.485          24.000                                                                  
E 1  26831736.286 1 141001726.808 3       806.522          37.000    26831734.927 1 108040279.066 3       617.968          36.000  
E18  21270225.286 1 111775786.548 3      2024.426          35.000    21270224.915 1  85646378.206 2      1551.546          39.000  
J 7  37986835.646 2 199622172.18015      -521.856          29.000    37986831.969 1 155549748.743 3      -407.155          37.000  
E21                                                                  26130610.669 9                      -387.478          18.000  
C16                                                                  39588555.064 8                     -1646.044          26.000  
R15                                                                  24796899.265 8                     -2297.051          26.000  
R20                                                                  22334945.468 4                      2123.553          31.000  
> 2021  5 17  2 34 19.0050000  0 25                     
G 7  22513504.236 1 118309265.130 3      1675.832          37.000    22513499.058 2  92189006.243 5      1305.979          29.000                                                                  
G21  22045609.888 1 115850464.910 4       279.568          36.000                                                                                                                                  
G27  24709954.147 2                     -3583.678          28.000                                                                                                                                  
G 1  22977177.611 9                      2554.634          21.000    22977169.306 8                      1987.606          27.000                                                                  
G30  25562258.898 9                      2839.830          24.000                                                                                                                                  
G 8  22553197.215 1 118517846.128 2     -2449.457          37.000    22553197.517 2                     -1908.366          28.000                                                                  
C 7  38300009.895 1 199438215.723 3      -321.998          34.000    38300000.549 1 154218234.041 3      -249.487          36.000  
C 9  38151633.724 2                     -1840.253          28.000    38151617.055 1 153620756.042 2     -1423.188          38.000  
C30  23990326.391 1 124923953.228 3      1200.151          34.000                                                                  
C 8  39998096.561 4                      1223.381          28.000    39998089.812 8                       945.727          26.000  
C27  23114441.635 1 120362971.724 2     -1638.365          42.000                                                                  
R19  20854917.071 9                     -1731.821          23.000    20854917.132 8  86768670.971 5     -1346.680          29.000  
G 4  25170917.447 4                     -3387.649          30.000    25170891.165 8                     -2638.329          25.000                                                                  
G 9  24488033.661 9                     -2546.968          24.000    24488048.163 9                     -1985.911          24.000                                                                  
S37  37986930.009 2 199622663.365 4      -521.388          33.000  
E26  24484210.756 1 128665379.177 3       419.226          37.000    24484210.225 1  98587766.226 3       321.199          37.000  
C10  38828514.701 2                      -430.406          32.000    38828504.595 2                      -333.672          32.000  
E33  27515999.860 9                      2307.982          25.000                                                                  
E 1  26831582.761 1 141000920.422 3       806.281          36.000    26831581.446 1 108039661.197 3       617.502          36.000  
E18  21269839.939 1 111773762.104 4      2023.949          35.000    21269839.618 1  85644827.022 2      1550.845          39.000  
J 7  37986934.933 2                      -522.189          29.000    37986931.220 1 155550155.078 3      -406.821          37.000  
E21                                                                  26130705.953 9                      -389.495          19.000  
C16                                                                  39588965.044 8                     -1644.077          26.000  
R15                                                                  24797451.359 8                     -2298.337          26.000  
R20                                                                  22334434.812 4                      2121.381          30.000  
> 2021  5 17  2 34 20.0050000  0 25                     
G 7  22513185.378 1 118307589.418 3      1675.221          37.000    22513180.236 2  92187700.455 5      1305.979          29.000                                                                  
G21  22045556.849 1 115850186.173 3       278.564          36.000                                                                                                                                  
G27  24710636.067 2                     -3583.231          27.000                                                                                                                                  
G30  25561716.644 9                      2840.243          24.000                                                                                                                                  
G 8  22553663.264 1 118520295.461 3     -2449.474          37.000    22553663.457 2                     -1908.196          28.000                                                                  
C 7  38300071.732 2 199438538.353 4      -322.665          34.000    38300062.577 1 154218483.481 3      -249.370          36.000  
C 9  38151987.175 2                     -1840.640          28.000    38151970.478 1 153622179.256 2     -1423.261          38.000  
C30  23990095.808 1 124922753.277 3      1199.415          35.000                                                                  
C 8  39997862.937 4                      1222.377          28.000    39997854.245 8                       945.772          26.000  
C27  23114756.377 1 120364610.361 2     -1638.937          42.000                                                                  
R19  20855241.200 9                     -1731.257          23.000    20855241.538 8                     -1347.357          29.000  
G 4  25171561.964 8                     -3385.283          30.000    25171538.083 8                     -2639.126          25.000                                                                  
G 9  24488520.984 9                     -2539.833          22.000    24488536.901 9                     -1985.249          24.000                                                                  
S37  37987029.355 2 199623184.981 5      -521.870          33.000  
E26  24484131.174 1 128664960.496 3       418.624          37.000    24484130.517 1  98587445.427 3       320.498          37.000  
C10  38828597.461 2                      -430.490          32.000    38828587.442 2 156346630.556 5      -333.128          31.000  
E33  27515557.406 8                      2307.640          25.000                                                                  
E 1  26831429.583 1 141000114.110 3       806.389          37.000    26831428.100 1 108039043.370 3       617.700          36.000  
E18  21269454.817 1 111771738.573 3      2023.100          35.000    21269454.359 1  85643276.521 2      1549.945          39.000  
J 7  37987034.268 4                      -521.839          29.000    37987030.572 1 155550561.518 3      -406.709          37.000  
E21                                                                  26130799.398 9                      -378.026          19.000  
C16                                                                  39589375.002 8                     -1644.250          26.000  
G 1                                                                  22976687.515 8                      1986.737          27.000                                                                  
R15                                                                  24798002.819 8                     -2298.354          26.000  
R20                                                                  22333924.084 4                      2122.351          30.000  
> 2021  5 17  2 34 21.0050000  0 25                     
G 7  22512866.613 1 118305914.147 3      1674.908          37.000    22512861.463 2  92186395.073 5      1305.243          29.000                                                                  
G21  22045504.026 1 115849908.090 3       277.751          36.000                                                                                                                                  
G27  24711317.780 2                     -3583.471          27.000                                                                                                                                  
G30  25561174.810 9                      2839.130          23.000                                                                                                                                  
G 8  22554129.320 1 118522745.107 3     -2449.840          37.000    22554129.511 2                     -1908.512          28.000                                                                  
C 7  38300133.620 2 199438860.845 4      -322.059          34.000    38300124.509 1 154218732.869 3      -248.959          36.000  
C 9  38152340.522 2                     -1840.607          27.000    38152324.097 1 153623602.585 2     -1423.348          38.000  
C30  23989865.305 1 124921553.750 4      1199.094          35.000                                                                  
C 8  39997630.268 4 208278145.42915      1222.714          28.000    39997618.038 8                       945.290          25.000  
C27  23115071.305 1 120366249.418 1     -1639.019          42.000                                                                  
R19  20855565.647 9                     -1732.736          23.000    20855564.034 8                     -1348.054          29.000  
R20  22333416.562 9                      2728.033          25.000    22333413.440 4                      2121.252          29.000  
G 4  25172206.638 4                     -3386.946          30.000    25172185.207 8                     -2639.890          25.000                                                                  
G 9  24489005.394 9                     -2536.490          19.000    24489025.779 9                     -1984.282          24.000                                                                  
S37  37987128.762 2                      -521.448          33.000  
E26  24484051.699 1 128664542.280 3       418.399          37.000    24484051.059 1  98587124.984 3       320.151          37.000  
C10  38828680.245 2 202191167.407 5      -431.183          32.000    38828670.084 2                      -333.615          31.000  
E33  27515114.701 8                      2306.280          25.000                                                                  
E 1  26831276.091 1 140999307.814 3       806.232          37.000    26831274.849 1 108038425.523 3       617.955          36.000  
E18  21269069.865 1 111769715.788 3      2022.440          35.000    21269069.522 1  85641726.604 2      1549.720          39.000  
J 7  37987133.289 2                      -521.535          29.000    37987129.792 1 155550967.975 3      -406.052          37.000  
E21                                                                  26130894.113 9                      -385.209          19.000  
C16                                                                  39589785.656 8                     -1645.051          26.000  
G 1                                                                  22976203.406 8                      1986.125          27.000                                                                  
R15                                                                  24798556.808 8                     -2299.354          26.000  
> 2021  5 17  2 34 22.0050000  0 25                     
G 7  22512547.860 1 118304239.281 3      1674.810          37.000    22512542.809 2  92185090.016 5      1304.598          29.000                                                                  
G21  22045451.381 1 115849630.577 3       277.680          37.000                                                                                                                                  
G27  24711999.795 2                     -3583.503          27.000                                                                                                                                  
G30  25560631.899 9                      2838.948          23.000                                                                                                                                  
G 8  22554595.533 1 118525194.921 3     -2449.700          37.000    22554595.578 2                     -1909.142          28.000                                                                  
C 7  38300195.720 2 199439183.291 4      -322.706          34.000    38300186.422 1 154218982.205 3      -249.424          36.000  
C 9  38152693.885 2                     -1841.471          27.000    38152677.507 1 153625026.022 2     -1423.729          38.000  
C30  23989634.983 1 124920354.619 3      1198.716          35.000                                                                  
C 8  39997395.720 4                      1222.087          28.000    39997382.583 8                       945.171          25.000  
C27  23115386.261 1 120367888.914 1     -1639.606          42.000                                                                  
R19  20855888.473 9                     -1731.485          23.000    20855887.635 8                     -1348.858          30.000  
R20  22332908.041 9                      2728.076          25.000    22332903.092 4                      2121.087          29.000  
G 4  25172851.128 4                     -3385.486          30.000    25172831.814 8                     -2640.127          25.000                                                                  
S37  37987228.058 2 199624228.222 5      -521.395          33.000  
E26  24483972.230 1 128664124.504 3       417.605          37.000    24483971.434 1  98586804.860 3       319.986          36.000  
C10  38828762.696 2                      -431.055          32.000    38828752.661 2 156347296.406 5      -333.339          31.000  
E33  27514673.613 8                      2307.979          25.000                                                                  
E 1  26831122.840 1 140998501.404 3       806.636          37.000    26831121.467 1 108037807.668 3       617.563          35.000  
E18  21268685.108 1 111767693.751 4      2022.118          35.000    21268684.591 1  85640177.253 2      1549.160          39.000  
J 7  37987232.645 4                      -521.907          29.000    37987229.024 1 155551374.440 3      -406.398          38.000  
E21                                                                  26130987.675 9                      -381.142          19.000  
C16                                                                  39590195.578 8                     -1645.845          26.000  
G 1                                                                  22975719.716 8                      1986.561          27.000                                                                  
R15                                                                  24799110.884 8                     -2299.715          25.000  
G 9                                                                  24489514.180 8                     -1983.736          24.000                                                                  
> 2021  5 17  2 34 23.0050000  0 25                     
G 7  22512229.201 1 118302565.120 3      1673.379          37.000    22512224.231 2                      1304.473          29.000                                                                  
G21  22045398.692 1 115849353.673 3       277.106          37.000                                                                                                                                  
G27  24712681.624 2                     -3582.944          26.000                                                                                                                                  
G30  25560092.993 9                      2838.693          24.000                                                                                                                                  
G 8  22555061.844 1 118527645.226 3     -2450.620          37.000    22555061.549 2                     -1909.755          28.000                                                                  
C 7  38300257.869 1 199439505.847 4      -323.076          34.000    38300248.276 1 154219231.628 3      -249.690          36.000  
C 9  38153047.247 2                     -1841.357          26.000    38153031.128 1 153626449.625 2     -1423.905          38.000  
C30  23989404.670 1 124919156.013 3      1198.273          36.000                                                                  
C 8  39997162.271 4                      1223.265          29.000    39997146.967 8                       945.251          25.000  
C27  23115701.367 1 120369528.962 2     -1640.537          42.000                                                                  
R19  20856213.374 9                     -1749.548          23.000    20856212.036 8                     -1349.487          30.000  
R20  22332399.244 9                      2724.712          25.000    22332392.596 4                      2120.404          28.000  
G 4  25173495.668 2                     -3386.562          30.000    25173478.642 8                     -2638.629          26.000                                                                  
S37  37987327.558 2 199624749.805 4      -521.268          33.000  
E26  24483892.945 1 128663707.192 3       417.183          37.000    24483892.060 1  98586485.093 3       320.017          37.000  
C10  38828845.213 2                      -431.194          32.000    38828835.363 2 156347629.470 5      -334.224          32.000  
E33  27514233.408 8                      2305.708          25.000                                                                  
E 1  26830969.332 1 140997695.315 2       805.585          37.000    26830967.938 1 108037189.973 3       617.197          36.000  
E18  21268300.571 1 111765672.720 3      2019.834          35.000    21268300.063 1  85638628.640 2      1547.987          40.000  
J 7  37987331.832 4                      -521.848          30.000    37987328.271 1 155551780.870 2      -406.146          38.000  
E21                                                                  26131082.715 9                      -380.707          20.000  
C16                                                                  39590610.002 8                     -1645.547          27.000  
G 1                                                                  22975235.310 8                      1986.496          27.000                                                                  
R15                                                                  24799661.947 9                     -2300.768          24.000  
G 9                                                                  24490000.644 8                     -1985.401          26.000                                                                  
> 2021  5 17  2 34 24.0050000  0 25                     
G 7  22511910.779 1 118300892.397 3      1671.647          35.000    22511906.033 2                      1302.105          30.000                                                                  
G21  22045346.044 1 115849076.456 3       276.844          37.000                                                                                                                                  
G27  24713361.701 4                     -3583.124          26.000                                                                                                                                  
G30  25559557.059 9                      2836.051          24.000                                                                                                                                  
G 8  22555528.451 1 118530096.291 2     -2451.519          38.000    22555527.746 2                     -1909.802          28.000                                                                  
C 7  38300319.937 2 199439828.882 5      -323.307          34.000    38300310.292 1 154219481.393 3      -249.560          36.000  
C 9  38153391.862 9                     -1840.664          35.000    38153384.742 1 153627873.144 3     -1424.543          36.000  
C30  23989174.520 1 124917957.722 3      1198.034          38.000                                                                  
C 8  39996923.827 4                      1225.613          30.000    39996912.807 8                       947.304          27.000  
C27  23116016.364 1 120371169.588 2     -1641.067          39.000                                                                  
R19  20856538.134 9                     -1734.908          22.000    20856535.746 8                     -1350.417          29.000  
R15  24800183.419 9                     -2953.710          24.000                                                                  
R 9  22517598.119 9                      2132.531          29.000                                                                  
G 4  25174140.506 8                     -3387.053          22.000    25174127.507 9                     -2635.061          26.000                                                                  
S37  37987426.493 2 199625270.336 5      -519.158          33.000  
E26  24483813.396 1 128663289.536 3       417.914          36.000    24483812.689 1  98586165.073 3       320.169          37.000  
C10  38828927.949 2 202192460.354 5      -433.023          32.000    38828918.171 2 156347963.297 5      -334.634          31.000  
E 1  26830816.106 1 140996890.407 3       804.309          37.000    26830814.877 1 108036573.263 3       616.331          36.000  
E18  21267916.419 1 111763652.789 3      2019.400          36.000    21267915.789 1  85637080.918 2      1547.044          40.000  
J 7  37987430.959 4                      -520.260          30.000    37987427.290 1 155552186.532 2      -405.505          38.000  
E21                                                                  26131177.051 9                      -384.599          21.000  
C16                                                                  39591022.397 8                     -1644.688          27.000  
G 1                                                                  22974749.863 8                      1993.535          25.000                                                                  
R20                                                                  22331882.605 4  92881234.475 5      2119.592          33.000  
G 9                                                                  24490482.695 8                     -1980.985          26.000                                                                  
> 2021  5 17  2 34 25.0050000  0 25                     
G 7  22511592.737 1 118299221.720 4      1668.623          35.000    22511588.156 2                      1300.659          30.000                                                                  
G21  22045293.269 1 115848798.467 3       279.074          36.000                                                                                                                                  
G27  24714039.151 9                     -3586.439          25.000                                                                                                                                  
G30  25559020.902 9                      2836.555          24.000                                                                                                                                  
G 8  22555995.196 1 118532548.761 3     -2453.308          38.000    22555994.210 2  92363006.51815     -1912.065          32.000                                                                  
C 7  38300382.158 2 199440152.798 5      -323.516          33.000    38300372.408 1 154219731.934 3      -251.440          36.000  
C 9  38153745.557 8                     -1841.277          30.000    38153738.134 2 153629296.327 5     -1423.270          36.000  
C30  23988944.478 1 124916759.933 2      1197.809          41.000                                                                  
C 8  39996689.037 4                      1228.014          30.000    39996676.265 4                       950.020          27.000  
C27  23116331.340 1 120372811.139 4     -1642.141          35.000                                                                  
R19  20856861.731 9                     -1738.846          21.000    20856861.818 8                     -1350.739          27.000  
R15  24800737.130 9                     -2950.340          26.000                                                                  
R 9  22517199.453 9                      2128.065          28.000                                                                  
R20  22331378.625 9                      2727.679          25.000    22331373.135 8                      2123.706          31.000  
G 4  25174788.803 9                     -3385.467          24.000    25174775.350 9                     -2635.936          26.000                                                                  
G 9  24490935.631 9                     -2546.433          27.000    24490966.129 9                     -1992.460          24.000                                                                  
S37  37987525.379 2                      -517.615          32.000  
E26  24483733.597 1 128662871.418 3       418.997          36.000    24483733.198 1  98585844.697 3       321.133          37.000  
C10  38829011.177 2                      -434.470          33.000    38829001.470 2                      -335.210          32.000  
E 1  26830663.546 1 140996087.551 3       801.510          37.000    26830662.104 1 108035958.076 3       614.007          36.000  
E18  21267532.646 1 111761634.541 3      2017.275          36.000    21267531.771 1  85635534.471 2      1545.583          40.000  
J 7  37987529.529 2                      -518.003          29.000    37987526.029 1 155552591.120 3      -403.314          38.000  
E21                                                                  26131270.420 9                      -379.172          22.000  
C16                                                                  39591432.051 4                     -1643.634          27.000  
G 1                                                                  22974264.929 9                      1990.917          24.000                                                                  
> 2021  5 17  2 34 26.0050000  0 28                     
G 7  22511275.148 1 118297553.224 4      1668.059          37.000    22511270.784 2                      1300.531          30.000                                                                  
G21  22045239.930 1 115848519.238 4       279.067          36.000                                                                                                                                  
G27  24714720.280 9                     -3582.423          25.000                                                                                                                                  
G 1  22973773.976 9                      2550.887          26.000    22973780.129 9                      1988.744          22.000                                                                  
G30  25558485.399 9                      2833.552          22.000                                                                                                                                  
G 8  22556462.142 1 118535002.575 2     -2454.374          40.000    22556461.115 2  92364918.546 5     -1912.027          36.000                                                                  
C 7  38300444.565 1 199440477.794 4      -324.932          35.000    38300434.735 1 154219983.138 3      -251.488          38.000  
C 9  38154099.789 9                     -1839.486          37.000    38154091.277 2                     -1423.726          38.000  
C30  23988714.445 1 124915562.416 3      1196.343          39.000                                                                  
C 8  39996451.216 4 208272020.881 5      1229.819          35.000    39996436.200 4                       949.760          31.000  
C27  23116646.670 2                     -1643.316          25.000                                                                  
C 6  39158671.492 8                     -2055.366          23.000                                                                  
R19  20857186.632 9                     -1729.176          19.000                                                                  
R18  23703230.518 9                     -4446.769          24.000                                                                  
R15  24801291.997 9                     -2950.799          28.000    24801316.703 9                     -2291.185          24.000  
R 9  22516799.300 9                      2127.223          27.000                                                                  
R20  22330867.641 9                      2727.116          26.000    22330859.757 8                      2119.684          35.000  
G 4  25175437.883 9                     -3385.485          23.000                                                                                                                                  
G 9  24491405.757 9                     -2546.124          27.000    24491447.454 9                     -2006.029          22.000                                                                  
S37  37987623.897 2                      -516.675          31.000  
E26  24483653.720 1 128662452.290 3       419.743          36.000    24483653.547 1  98585523.567 3       321.368          37.000  
C10  38829094.930 2 202193329.343 5      -435.964          33.000    38829085.059 2 156348635.301 5      -336.720          32.000  
E 1  26830511.235 1 140995287.077 3       800.418          37.000    26830510.063 1 108035344.732 3       613.037          37.000  
E18  21267148.957 1 111759617.833 3      2016.289          36.000    21267148.130 1  85633989.203 2      1544.943          40.000  
J 7  37987627.873 2                      -516.244          28.000    37987624.492 1 155552994.224 3      -402.998          37.000  
E21                                                                  26131364.285 9                      -390.190          21.000  
E27                                                                  28946398.058 9                     -1337.410          29.000  
C16                                                                  39591841.891 8                     -1641.562          25.000  
> 2021  5 17  2 34 27.0050000  0 27                     
G 7  22510957.983 1 118295885.306 3      1667.789          38.000    22510953.434 2                      1299.864          32.000                                                                  
G21  22045186.794 1 115848240.099 3       278.603          38.000                                                                                                                                  
G27  24715400.756 9                     -3584.297          23.000                                                                                                                                  
G 1  22973277.338 9                      2554.259          31.000    22973295.571 9                      1986.476          21.000                                                                  
G30  25557949.826 9                      2830.053          21.000                                                                                                                                  
G 8  22556929.097 1 118537456.728 3     -2453.224          35.000    22556928.114 2  92366830.894 4     -1912.425          35.000                                                                  
C 7  38300507.187 2                      -323.305          30.000    38300497.006 2                      -250.645          24.000  
C 9  38154455.026 4 198680258.95635     -1840.878          34.000    38154443.024 4 153632137.15015     -1421.991          36.000  
C30  23988484.605 1 124914364.816 3      1198.531          40.000                                                                  
C 8  39996213.352 4 208270790.999 5      1230.562          33.000    39996200.921 4                       950.702          35.000  
C27  23116962.297 2                     -1643.313          26.000                                                                  
R19  20857512.542 9                     -1746.675          16.000                                                                  
R18  23704060.216 9                     -4454.229          26.000                                                                  
R15  24801848.106 8                     -2949.342          33.000    24801864.042 9                     -2294.128          30.000  
R 9  22516403.081 8                      2127.974          32.000                                                                  
R20  22330357.902 9                      2726.177          26.000    22330347.231 8                      2123.486          33.000  
G 4  25176091.234 9                     -3389.505          26.000                                                                                                                                  
G 9  24491858.951 9                     -2547.275          32.000    24491921.777 9                     -1988.242          24.000                                                                  
S37  37987722.261 2                      -516.479          32.000  
E26  24483573.752 1 128662033.132 3       419.130          36.000    24483573.775 1  98585202.399 3       321.034          37.000  
C10  38829178.762 2                      -435.412          33.000    38829168.716 2 156348972.211 5      -336.625          33.000  
E 1  26830358.963 1 140994486.901 4       800.769          34.000    26830357.882 1 108034731.605 3       613.425          36.000  
E18  21266765.919 1 111757601.907 3      2015.544          36.000    21266764.518 1  85632444.517 2      1544.360          40.000  
J 7  37987726.312 2                      -516.295          29.000    37987722.753 1 155553396.813 4      -402.570          36.000  
E21                                                                  26131460.016 9                      -381.665          20.000  
E27                                                                  28946726.618 8                     -1333.176          22.000  
C16                                                                  39592252.579 9                     -1665.875          22.000  
> 2021  5 17  2 34 28.0050000  0 27                     
G 7  22510640.564 1 118294216.940 3      1669.393          36.000    22510636.043 2                      1301.049          30.000                                                                  
G21  22045133.991 1 115847962.041 3       276.974          37.000                                                                                                                                  
G27  24716084.844 9                     -3588.691          21.000                                                                                                                                  
G 1  22972797.747 9                      2549.265          30.000    22972809.818 9                      1991.982          20.000                                                                  
G30  25557412.074 9                      2838.833          22.000                                                                                                                                  
G 8  22557396.331 2 118539910.914 5     -2455.277          30.000    22557395.688 8                     -1910.376          25.000                                                                  
C 7  38300569.755 2                      -324.553          23.000    38300561.087 8                      -249.933          30.000  
C 9  38154806.957 4 198682098.65925     -1840.433          35.000    38154796.934 4 153633559.916 4     -1422.336          32.000  
C30  23988254.665 1 124913167.309 3      1197.752          40.000                                                                  
C 8  39995977.383 4 208269562.042 5      1227.992          35.000    39995965.650 4 161047193.22515       948.828          36.000  
C27  23117278.765 9                     -1634.214          24.000                                                                  
R19  20857838.941 9                     -1746.675          13.000                                                                  
R18  23704891.591 9                     -4450.691          26.000                                                                  
R15  24802403.330 8                     -2951.935          33.000                                                                  
R 9  22516005.128 8                      2131.177          32.000                                                                  
R20  22329847.480 9                      2726.160          32.000    22329839.047 9                      2120.032          37.000  
G 4  25176737.753 9                     -3388.625          24.000                                                                                                                                  
G 9  24492327.272 8                     -2546.940          35.000    24492372.813 9                     -1984.641          30.000                                                                  
S37  37987820.654 2                      -518.308          32.000  
E26  24483494.020 1 128661614.755 3       417.728          36.000    24483494.083 1  98584881.825 3       320.063          37.000  
S28  38793262.140 9                      -515.438          35.000  
C10  38829262.304 2                      -433.256          33.000    38829252.261 1 156349308.237 4      -335.357          34.000  
E 1  26830206.213 2                       803.139          30.000    26830204.814 2                       614.980          28.000  
E18  21266382.361 1 111755586.218 3      2015.382          36.000    21266380.941 1  85630899.995 2      1544.553          40.000  
J 7  37987824.758 2                      -517.291          28.000    37987821.144 1 155553799.745 4      -402.550          36.000  
E21                                                                  26131555.225 9                      -378.871          19.000  
C16                                                                  39592664.400 9                     -1639.255          22.000  
> 2021  5 17  2 34 29.0050000  0 26                     
G 7  22510323.059 1 118292546.759 3      1671.473          40.000    22510318.386 2                      1302.714          32.000                                                                  
G21  22045081.758 1 115847686.477 3       274.007          37.000                                                                                                                                  
G27  24716766.202 9                     -3584.635          19.000                                                                                                                                  
G 1  22972306.939 9                      2547.817          24.000    22972324.715 9                      1980.506          21.000                                                                  
G30  25556876.288 9                      2838.449          23.000                                                                                                                                  
G 8  22557863.830 2 118542363.575 5     -2452.165          31.000    22557864.845 9                     -1908.945          25.000                                                                  
C 7  38300631.635 4                      -323.123          25.000    38300623.421 9                      -245.402          22.000  
C 9  38155158.025 4 198683939.03324     -1840.704          34.000    38155153.083 4 153634982.919 4     -1422.574          36.000  
C30  23988024.696 1 124911970.147 2      1197.009          38.000                                                                  
C 8  39995741.641 2 208268336.081 5      1224.344          35.000    39995730.545 2 161046245.192 3       946.355          36.000  
C27  23117595.161 8                     -1643.877          26.000                                                                  
R15  24802956.646 8 132539460.26115     -2957.089          33.000    24802965.760 9                     -2299.249          30.000  
R 9  22515605.070 8                      2132.932          27.000                                                                  
G16  25774929.538 9                     -2240.385          29.000                                                                                                                                  
G 4  25177389.082 9                     -3383.550          24.000                                                                                                                                  
G 9  24492807.060 4 128710683.32434     -2548.718          39.000    24492826.369 9 100294156.95614     -1985.951          34.000                                                                  
S37  37987919.221 2                      -520.642          32.000  
E26  24483414.852 1 128661198.094 3       416.148          36.000    24483414.700 1  98584562.564 2       318.740          37.000  
S28  38793361.057 9                      -518.018          36.000  
C10  38829345.327 1 202194631.577 4      -430.873          35.000    38829335.167 2                      -333.618          30.000  
E 1  26830052.392 2 140992881.500 5       805.408          34.000    26830051.886 1 108033501.559 5       617.530          34.000  
E18  21265998.823 1 111753570.036 3      2016.672          36.000    21265997.319 1  85629355.179 2      1544.819          39.000  
J 7  37987923.543 2                      -519.724          28.000    37987919.836 1 155554204.180 3      -405.241          36.000  
E21                                                                  26131647.599 9                      -381.952          18.000  
C16                                                                  39593073.330 9                     -1643.438          21.000  
R20                                                                  22329330.134 8                      2119.415          35.000  
> 2021  5 17  2 34 30.0050000  0 27                     
G 7  22510005.022 1 118290875.218 2      1671.912          38.000    22510000.348 2  92174676.487 5      1302.501          33.000                                                                  
G21  22045029.787 1 115847412.942 2       272.821          38.000                                                                                                                                  
G27  24717448.909 9                     -3589.422          19.000                                                                                                                                  
G 1  22971823.150 9                      2547.338          25.000    22971839.566 9                      1993.876          23.000                                                                  
G30  25556336.687 9                      2836.889          23.000                                                                                                                                  
G 8  22558330.662 4                     -2450.968          23.000    22558331.154 9                     -1899.497          23.000                                                                  
C 7  38300694.620 9                      -316.891          22.000    38300687.470 8                      -248.229          25.000  
C 9  38155514.625 4 198685780.09523     -1841.660          38.000    38155506.164 2 153636406.518 3     -1423.973          36.000  
C30  23987794.936 1 124910773.594 2      1196.524          40.000                                                                  
C 8  39995506.421 2 208267112.593 4      1222.878          35.000    39995494.230 2 161045299.081 3       945.666          36.000  
C27  23117912.659 8                     -1642.076          26.000                                                                  
R15  24803511.074 8                     -2959.020          32.000    24803515.870 9                     -2301.159          30.000  
R 9  22515208.134 8                      2134.658          31.000                                                                  
R20  22328825.980 9                      2722.937          27.000    22328817.954 8                      2117.579          26.000  
G16  25775343.996 9 135450411.34035     -2242.608          31.000                                                                                                                                  
G 4  25178048.648 9                     -3386.961          25.000                                                                                                                                  
G 9  24493289.292 4 128713231.72224     -2548.984          36.000    24493297.314 8                     -1985.837          32.000                                                                  
S37  37988018.141 2                      -521.810          31.000  
E26  24483335.997 1 128660782.971 3       414.693          36.000    24483335.716 1  98584244.485 3       317.467          36.000  
S28  38793464.921 9 203861033.39534      -518.891          40.000  
C10  38829427.844 2 202195061.320 5      -429.082          31.000    38829417.805 1 156349974.655 4      -331.653          32.000  
E 1  26829899.156 1 140992074.757 3       807.297          36.000    26829898.857 1 108032883.434 4       618.474          35.000  
E18  21265614.777 1 111751553.675 3      2016.411          36.000    21265613.487 1  85627810.165 2      1544.726          39.000  
J 7  37988022.752 2                      -521.096          28.000    37988018.892 1 155554609.797 3      -406.152          36.000  
E21                                                                  26131743.244 9                      -381.853          17.000  
E27                                                                  28947721.158 8                     -1340.162          24.000  
C16                                                                  39593483.855 9                     -1644.691          23.000  
> 2021  5 17  2 34 31.0050000  0 28                     
G 7  22509686.979 1 118289203.575 3      1671.416          37.000    22509682.284 2  92173373.899 4      1302.156          33.000                                                                  
G21  22044977.910 1 115847140.340 2       272.509          38.000                                                                                                                                  
G27  24718130.319 9                     -3582.265          19.000                                                                                                                                  
G 1  22971343.627 9                      2547.344          25.000    22971354.032 9                      1983.486          23.000                                                                  
G30  25555791.084 9                      2836.496          22.000                                                                                                                                  
G 8  22558797.151 4                     -2451.725          22.000    22558797.257 9                     -1898.665          22.000                                                                  
C 7  38300753.794 9                      -326.840          18.000    38300750.348 8                      -248.429          25.000  
C 9  38155869.832 2 198687621.26322     -1841.219          39.000    38155858.821 2 153637830.210 3     -1423.668          36.000  
C30  23987565.278 1 124909577.450 2      1195.669          40.000                                                                  
C 8  39995271.758 2 208265889.685 4      1223.043          35.000    39995258.704 2 161044353.459 3       945.936          35.000  
C27  23118230.872 8                     -1642.904          26.000                                                                  
R15  24804065.011 8                     -2957.093          31.000    24804072.348 8                     -2301.259          31.000  
R 9  22514809.873 8                      2132.331          31.000                                                                  
R20  22328316.072 9                      2722.423          27.000    22328305.229 9                      2117.425          27.000  
G16  25775769.244 8 135452654.14525     -2242.503          31.000                                                                                                                                  
G 4  25178713.404 9                     -3385.974          25.000                                                                                                                                  
G 9  24493773.633 4 128715780.23223     -2548.500          36.000    24493782.824 8 100298128.478 5     -1985.713          33.000                                                                  
S37  37988117.255 2                      -519.919          31.000  
E26  24483257.089 1 128660368.450 3       414.762          35.000    24483256.720 1  98583926.835 3       318.156          37.000  
S28  38793563.707 4 203861551.99423      -518.162          40.000  
C10  38829510.225 2 202195490.388 5      -429.190          31.000    38829500.256 1 156350306.461 5      -332.524          32.000  
E13  26798858.779 8                     -2335.620          26.000                                                                  
E 1  26829745.650 1 140991267.312 3       807.293          36.000    26829745.818 1 108032264.741 3       618.322          36.000  
E18  21265231.188 1 111749537.783 3      2015.656          36.000    21265229.806 1  85626265.506 2      1544.442          40.000  
J 7  37988121.718 2                      -521.207          28.000    37988117.870 1 155555015.615 3      -405.021          35.000  
E21                                                                  26131837.779 9                      -390.762          18.000  
E27                                                                  28948053.597 8                     -1340.236          25.000  
C16                                                                  39593893.062 8                     -1644.817          24.000  
